~VERSION INFORMATION
 VERS.                2.0:   CWLS LOG ASCII STANDARD - VERSION 2.0
 WRAP.                 NO:   ONE LINE PER DEPTH STEP
~WELL INFORMATION
#MNEM.UNIT      DATA TYPE    INFORMATION
#----------   ------------   ------------------------------
 STRT.F          616.0000:   START DEPTH
 STOP.F         3968.0000:   STOP DEPTH
 STEP.F            0.5000:   STEP LENGTH
 NULL.          -999.2500:   NO VALUE
 COMP.    FENIX & SCISSON:   COMPANY
 WELL.  FENIX "DX" #71-15:   WELL
 FLD .           N P R #3:   FIELD
 LOC .      S15 T38N R78W:   LOCATION
 CNTY.            NATRONA:   COUNTY
 STAT.            WYOMING:   STATE
 CTRY. UNITED STATES OF AMERICA:   COUNTRY
 SRVC.              WELEX:   SERVICE COMPANY
 DATE.        23-MAR-1979:   LOGDATE
 API .     49025106090000:   API NUMBER
~CURVE INFORMATION
#MNEM.UNIT       API CODE    CURVE DESCRIPTION
#----------   ------------   ------------------------------
 DEPT.F                  :   
 SFL .OHMM   07 220 01 00:   SHALLOW FOCUSED LOG RESISTIVITY
 ILD .OHMM   07 120 46 00:   DEEP INDUCTION RESISTIVITY
 ILM .OHMM   07 120 44 00:   INDUCTION LOG MEDIUM RESISTIVITY
 SPR .MV     07 010 01 00:   SPONTANEOUS POTENTIAL
 CALD.IN     45 280 60 00:   CALIPER FROM DENSITY LOG
 GRD .GAPI   45 310 01 00:   GAMMA RAY FROM DENSITY LOG
 RHOB.G/C3   45 350 01 00:   BULK DENSITY
 CORR.G/C3   45 356 01 00:   DENSITY CORRECTION
 NPHI.DEC    42 890 03 00:   NEUTRON POROSITY SANDSTONE
~PARAMETER INFORMATION
#MNEM.UNIT          VALUE    DESCRIPTION
#----------   ------------   ------------------------------
 EKB .F         5259.0000:   Kelly bushing
 EGL .F         5249.0000:   Ground level
 EDF .F            0.0000:   Drilling floor
 TD  .F         3963.0000:   Total depth
 DATE.        23-MAR-1979:   Date logged
 CLNT.            A2DTECH:   Client Code
 SL  . 380' FNL & 733' FEL:   Surface Location
 PD  .                 GL:   Permanent Datum
 DD  .F              3963:   Depth driller
 DL  .F              3954:   Depth logger
 BLI .F              3952:   Bottom log interval
 CS1 .IN            9.625:   Casing size
 CBD1.      9.625" @ 686':   Casing driller 1
 CBL1.F               672:   Casing logger 1
 BS1 .IN            7.875:   Bit size
 DFT .           CHEM-GEL:   Type fluid in hole
 DFD .                8.9:   Density
 DFV .                 44:   Viscosity
 DFPH.                 10:   pH
 DFL .                6.8:   Fluid loss
 MSS .            MUD PIT:   Source of sample
 RMS .OHMM              2:   Rm
 MST .F                62:   Rm Meas. temp.
 RMF .OHMM           1.80:   Rmf
 MFST.F                62:   Rmf Meas. temp.
 RMC .OHMM            2.6:   Rmc
 MCST.F                62:   Rmc Meas. temp.
 MFSS.               FANN:   Source Rmf.
 RMB .OHMM           0.97:   Rm. at BHT
 BHT .F               128:   BHT.
 TCS .HRS               2:   Time Circ. stopped
 MRT .F               128:   Maximum recorded temp.
 LUN .               1892:   Logging unit number
 LUL .             CASPER:   Logging unit location
 ENGI.         C. TOTHILL:   Recorded By
 WITN.              AMEND:   Witnessed by
 ORIG.     2.5", 5" PRINT:   Origin of data
 UWI .     49025106090000:   Unique Well ID
 DICO. A2D TECHNOLOGIES, INC.:   Digitizing Company
 BSD1.               3963:   Depth drilled with bit1
 MCSS.               TEST:   Source Rmc.
 EPD .               5249:   Elevation Permanent Datum
 LMF .                 KB:   Log Measured From
 DMF .                 KB:   Drilling Measured From
 TLI .                672:   Top log interval
~OTHER INFORMATION
~A   DEPT      SFL        ILD        ILM        SPR       CALD         GRD      RHOB       CORR         NPHI 
# ...
 3682.0000     6.3590     4.5060     4.8980   -17.0900     7.8850   202.0970     2.3230     0.0520     0.2110
 3682.5000     8.2450     4.5820     4.9300   -17.0900     7.8790   198.0020     2.2820    -0.0240     0.2120
 3683.0000     8.3010     4.6640     5.0780   -17.0450     7.8730   192.4780     2.3780    -0.0140     0.2140
 3683.5000     8.0580     4.7460     5.2260   -16.9690     7.8670   186.6900     2.4560     0.0050     0.2130
 3684.0000     7.7810     4.8280     5.4220   -16.8930     7.8610   186.3170     2.4560     0.0000     0.2100
 3684.5000     7.5050     4.9100     5.4730   -16.8160     7.8540   192.8800     2.4460    -0.0080     0.2080
 3685.0000     7.2250     4.9920     5.5670   -16.7400     7.8480   192.1640     2.4380    -0.0090     0.2050
 3685.5000     7.2250     5.0740     5.6830   -16.6630     7.8420   192.5710     2.4370     0.0000     0.2030
 3686.0000     7.8200     5.1770     5.8390   -16.5860     7.8360   194.9600     2.4590     0.0080     0.2000
 3686.5000     8.2880     5.1580     6.0600   -16.5080     7.8300   203.8250     2.4860     0.0170     0.1980
 3687.0000     8.7560     5.1230     6.0600   -16.5830     7.8230   203.3740     2.4850     0.0250     0.1960
 3687.5000     9.0220     5.0870     5.8250   -16.6710     7.8170   203.8110     2.4860     0.0310     0.1960
 3688.0000     7.8220     5.0350     5.2820   -16.7590     7.8110   205.6730     2.4810     0.0360     0.1960
 3688.5000     7.0260     5.0250     5.2250   -16.8460     7.8050   207.7790     2.4760     0.0410     0.1960
 3689.0000     6.5100     5.0100     5.2250   -16.9330     7.7980   210.0640     2.4710     0.0430     0.1960
 3689.5000     5.8940     4.9950     5.2960   -17.0210     7.7970   213.0880     2.4650     0.0380     0.1970
 3690.0000     7.9990     4.9890     5.3230   -17.1080     7.8080   222.8910     2.4590     0.0340     0.1980
 3690.5000     8.0730     4.8550     5.1580   -17.1960     7.8190   234.5670     2.4530     0.0290     0.1990
 3691.0000     7.7910     4.5510     4.9270   -17.2830     7.8290   223.9300     2.4480     0.0280     0.2010
 3691.5000     7.1800     4.2470     4.6960   -17.3700     7.8400   211.6150     2.4420     0.0340     0.2040
 3692.0000     5.1770     3.9430     4.4650   -17.4580     7.8500   200.7350     2.4340     0.0390     0.2100
 3692.5000     7.4730     3.6380     4.2900   -17.5470     7.8600   202.1320     2.3950     0.0450     0.2150
 3693.0000     9.8970     3.3900     4.0900   -17.6210     7.8710   203.2450     2.3620     0.0470     0.2210
 3693.5000    10.1760     3.0810     3.9580   -17.8770     7.8810   201.9070     2.2860     0.0450     0.2250
 3694.0000     4.9430     2.8900     4.0540   -17.8260     7.8910   196.1710     2.1490     0.0430     0.2230
 3694.5000     2.3350     2.8900     4.1080   -17.7890     7.9060   196.9980     2.0050     0.0000     0.2160
 3695.0000     5.0450     3.0690     3.9760   -17.7500     7.9030   200.5110     1.9340    -0.0590     0.2090
 3695.5000     8.0400     3.2420     3.9220   -17.7110     8.0220   202.5410     1.8570    -0.1230     0.2000
 3696.0000    10.0820     3.4150     4.1070   -17.6730     8.3900   196.3480     1.9650    -0.0540     0.2050
 3696.5000     7.4440     3.5880     4.3590   -17.6340     8.4660   185.2840     2.5260     0.0350     0.2130
 3697.0000     7.2250     3.7610     4.6110   -17.5950     8.0910   187.7050     2.5210     0.0380     0.2200
 3697.5000     6.3180     3.9220     4.8640   -17.5560     7.8520   192.3590     2.5150     0.0510     0.2200
 3698.0000     6.0040     4.2120     5.0350   -17.5180     7.7930   202.0940     2.5080     0.0480     0.2220
 3698.5000     8.0730     4.4950     5.0450   -17.4790     7.8060   215.9250     2.5040     0.0290     0.2260
 3699.0000     8.0730     4.7190     5.0590   -17.4400     7.8130   209.0860     2.4990     0.0200     0.2290
 3699.5000     7.2660     4.7630     5.0730   -17.4010     7.8230   200.2960     2.4950     0.0140     0.2310
 3700.0000     6.7710     4.7630     5.0820   -17.3630     7.8320   184.0530     2.4950     0.0080     0.2330
 3700.5000     6.8610     4.8270     5.0820   -17.3240     7.8400   187.9490     2.4960     0.0000     0.2350
 3701.0000     7.0270     4.8520     5.0430   -17.2890     7.8500   193.1530     2.5110     0.0070     0.2370
 3701.5000     7.0270     4.2870     5.0080   -17.1770     7.8580   194.1280     2.5340     0.0150     0.2400
 3702.0000     6.6470     4.0700     4.9730   -17.0430     7.8670   184.6050     2.5570     0.0220     0.2380
 3702.5000     6.7330     4.1080     4.8980   -16.9090     7.8760   184.8290     2.5700     0.0290     0.2360
 3703.0000     6.8980     4.1080     4.7970   -16.7760     7.8850   188.0930     2.5680     0.0340     0.2310
 3703.5000     7.0270     4.1080     4.6170   -16.6970     7.8940   189.7080     2.5620     0.0340     0.2250
 3704.0000     6.3030     4.1080     4.4370   -16.8150     7.9030   182.9860     2.5470     0.0290     0.2230
 3704.5000     5.4450     4.0860     4.3020   -16.9840     7.9120   175.9640     2.5320     0.0250     0.2220
 3705.0000     5.2250     4.0440     4.2630   -17.1550     7.9160   175.1820     2.5170     0.0190     0.2220
 3705.5000     5.4440     4.0020     4.2710   -17.3260     7.9150   171.7740     2.5040     0.0220     0.2220
 3706.0000     6.0010     3.9950     4.3100   -17.4970     7.9150   161.3750     2.5260     0.0270     0.2220
 3706.5000     6.2710     3.9950     4.3490   -17.6680     7.9150   156.2620     2.5460     0.0350     0.2230
 3707.0000     6.4680     4.0280     4.3890   -17.8390     7.9150   162.6050     2.5480     0.0400     0.2230
 3707.5000     6.5860     4.0640     4.4280   -18.0090     7.9150   159.8360     2.5490     0.0430     0.2270
 3708.0000     6.2730     4.1000     4.4650   -18.1810     7.9150   152.2690     2.5320     0.0470     0.2310
 3708.5000     6.0490     4.1460     4.4080   -18.2620     7.9150   156.1970     2.5270     0.0500     0.2350
 3709.0000     5.8250     4.0700     4.3550   -18.2060     7.9150   157.9000     2.5220     0.0530     0.2400
 3709.5000     5.7320     3.8520     4.3020   -18.1330     7.9150   161.4770     2.5180     0.0570     0.2450
 3710.0000     6.2300     3.6260     4.1340   -18.0590     7.9150   166.7000     2.5070     0.0700     0.2440
 3710.5000     5.2560     3.4500     3.9680   -17.9860     7.9150   171.5900     2.4930     0.0830     0.2410
 3711.0000     4.4750     3.3260     3.8020   -17.9130     7.9150   176.3940     2.4700     0.0950     0.2340
 3711.5000     3.9950     3.2020     3.6360   -17.8400     7.9150   180.5070     2.4470     0.0830     0.2280
 3712.0000     4.4280     3.0790     3.4690   -17.7660     7.9150   176.3210     2.3170     0.0530     0.2230
 3712.5000     4.5480     2.9440     3.3260   -17.6930     7.9150   168.0990     2.3240     0.0280     0.2210
 3713.0000     4.0060     2.9590     3.1990   -17.6200     7.9150   160.4770     2.3600     0.0350     0.2210
 3713.5000     3.7440     2.9760     3.2120   -17.5470     7.9150   152.9860     2.3900     0.0310     0.2210
 3714.0000     5.1300     2.9930     3.2330   -17.4730     7.9160   145.1580     2.4250     0.0200     0.2210
 3714.5000     4.4970     3.0100     3.2550   -17.4000     7.9030   137.8560     2.4530     0.0120     0.2200
 3715.0000     3.9950     3.0270     3.2770   -17.3270     7.8790   128.6430     2.4700     0.0250     0.2200
 3715.5000     4.7260     3.0450     3.2990   -17.2830     7.8460   130.3860     2.4850     0.0350     0.2210
 3716.0000     5.2250     3.0550     3.3200   -17.3640     7.8650   134.3240     2.5230     0.0470     0.2220
 3716.5000     4.1870     3.0530     3.3420   -17.4550     7.8870   138.0290     2.5330     0.0620     0.2220
 3717.0000     3.5750     3.0490     3.3640   -17.5480     7.9120   141.8260     2.5160     0.0750     0.2140
 3717.5000     3.5750     3.0460     3.3820   -17.6390     7.9330   145.6790     2.4960     0.0590     0.2080
 3718.0000     4.5670     3.0420     3.3510   -17.7310     7.9570   147.7660     2.4750     0.0390     0.2070
