~VERSION INFORMATION
 VERS.                2.0:   CWLS LOG ASCII STANDARD - VERSION 2.0
 WRAP.                 NO:   ONE LINE PER DEPTH STEP
~WELL INFORMATION
#MNEM.UNIT      DATA TYPE    INFORMATION
#----------   ------------   ------------------------------
 STRT.F          616.0000:   START DEPTH
 STOP.F         3968.0000:   STOP DEPTH
 STEP.F            0.5000:   STEP LENGTH
 NULL.          -999.2500:   NO VALUE
 COMP.    FENIX & SCISSON:   COMPANY
 WELL.  FENIX "DX" #71-15:   WELL
 FLD .           N P R #3:   FIELD
 LOC .      S15 T38N R78W:   LOCATION
 CNTY.            NATRONA:   COUNTY
 STAT.            WYOMING:   STATE
 CTRY. UNITED STATES OF AMERICA:   COUNTRY
 SRVC.              WELEX:   SERVICE COMPANY
 DATE.        23-MAR-1979:   LOGDATE
 API .     49025106090000:   API NUMBER
~CURVE INFORMATION
#MNEM.UNIT       API CODE    CURVE DESCRIPTION
#----------   ------------   ------------------------------
 DEPT.F                  :   
 SFL .OHMM   07 220 01 00:   SHALLOW FOCUSED LOG RESISTIVITY
 ILD .OHMM   07 120 46 00:   DEEP INDUCTION RESISTIVITY
 ILM .OHMM   07 120 44 00:   INDUCTION LOG MEDIUM RESISTIVITY
 SPR .MV     07 010 01 00:   SPONTANEOUS POTENTIAL
 CALD.IN     45 280 60 00:   CALIPER FROM DENSITY LOG
 GRD .GAPI   45 310 01 00:   GAMMA RAY FROM DENSITY LOG
 RHOB.G/C3   45 350 01 00:   BULK DENSITY
 CORR.G/C3   45 356 01 00:   DENSITY CORRECTION
 NPHI.DEC    42 890 03 00:   NEUTRON POROSITY SANDSTONE
~PARAMETER INFORMATION
#MNEM.UNIT          VALUE    DESCRIPTION
#----------   ------------   ------------------------------
 EKB .F         5259.0000:   Kelly bushing
 EGL .F         5249.0000:   Ground level
 EDF .F            0.0000:   Drilling floor
 TD  .F         3963.0000:   Total depth
 DATE.        23-MAR-1979:   Date logged
 CLNT.            A2DTECH:   Client Code
 SL  . 380' FNL & 733' FEL:   Surface Location
 PD  .                 GL:   Permanent Datum
 DD  .F              3963:   Depth driller
 DL  .F              3954:   Depth logger
 BLI .F              3952:   Bottom log interval
 CS1 .IN            9.625:   Casing size
 CBD1.      9.625" @ 686':   Casing driller 1
 CBL1.F               672:   Casing logger 1
 BS1 .IN            7.875:   Bit size
 DFT .           CHEM-GEL:   Type fluid in hole
 DFD .                8.9:   Density
 DFV .                 44:   Viscosity
 DFPH.                 10:   pH
 DFL .                6.8:   Fluid loss
 MSS .            MUD PIT:   Source of sample
 RMS .OHMM              2:   Rm
 MST .F                62:   Rm Meas. temp.
 RMF .OHMM           1.80:   Rmf
 MFST.F                62:   Rmf Meas. temp.
 RMC .OHMM            2.6:   Rmc
 MCST.F                62:   Rmc Meas. temp.
 MFSS.               FANN:   Source Rmf.
 RMB .OHMM           0.97:   Rm. at BHT
 BHT .F               128:   BHT.
 TCS .HRS               2:   Time Circ. stopped
 MRT .F               128:   Maximum recorded temp.
 LUN .               1892:   Logging unit number
 LUL .             CASPER:   Logging unit location
 ENGI.         C. TOTHILL:   Recorded By
 WITN.              AMEND:   Witnessed by
 ORIG.     2.5", 5" PRINT:   Origin of data
 UWI .     49025106090000:   Unique Well ID
 DICO. A2D TECHNOLOGIES, INC.:   Digitizing Company
 BSD1.               3963:   Depth drilled with bit1
 MCSS.               TEST:   Source Rmc.
 EPD .               5249:   Elevation Permanent Datum
 LMF .                 KB:   Log Measured From
 DMF .                 KB:   Drilling Measured From
 TLI .                672:   Top log interval
~OTHER INFORMATION
~A   DEPT      SFL        ILD        ILM        SPR       CALD         GRD      RHOB       CORR         NPHI 
# ...
  871.5000     9.1900     8.4280     8.7750   -37.4640    11.3670    97.7050     2.4800     0.0030     0.2560
  872.0000     9.2390     8.4200     8.7750   -36.8010    11.3610    97.4710     2.4840     0.0030     0.2580
  872.5000     9.2890     8.4120     8.7750   -36.1550    11.3540    98.3610     2.4930     0.0030     0.2600
  873.0000     9.3380     8.4030     8.7750   -35.5100    11.3480    99.2630     2.5000     0.0030     0.2590
  873.5000     9.3870     8.3950     8.7750   -34.8960    11.3440    99.5700     2.5080     0.0030     0.2570
  874.0000     9.4490     8.3860     8.7750   -34.6680    11.3390    98.0060     2.5140     0.0030     0.2560
  874.5000     9.3250     8.3780     8.7750   -34.6630    11.3760    96.4900     2.5120     0.0030     0.2550
  875.0000     9.1910     8.3690     8.7770   -34.8030    11.4080    97.3670     2.5110     0.0040     0.2540
  875.5000     9.2050     8.3610     8.7830   -35.5230    11.4410    98.1320     2.5150     0.0070     0.2520
  876.0000     9.2680     8.3530     8.7890   -36.1890    11.4710    98.9940     2.5060     0.0090     0.2510
  876.5000     9.2760     8.3440     8.7950   -36.8490    11.5030    99.5240     2.5120     0.0170     0.2510
  877.0000     9.2760     8.3360     8.8010   -37.5070    11.5350    99.4290     2.5080     0.0250     0.2520
  877.5000     9.2760     8.3270     8.8060   -37.9990    11.5680    96.6140     2.5120     0.0270     0.2530
  878.0000     9.3620     8.3190     8.8120   -37.6250    11.5850    95.3800     2.5210     0.0300     0.2560
  878.5000     9.3580     8.3100     8.8180   -36.8930    11.5650    94.5120     2.5300     0.0330     0.2560
  879.0000     9.3630     8.3020     8.8240   -36.1610    11.5470    93.8380     2.5320     0.0350     0.2560
  879.5000     9.3620     8.2990     8.8300   -35.4790    11.5270    92.8110     2.5270     0.0380     0.2580
  880.0000     9.3620     8.2840     8.8360   -35.2620    11.5080    91.5890     2.5190     0.0400     0.2600
  880.5000     9.3620     8.2680     8.8420   -35.5770    11.4890    91.9010     2.5220     0.0420     0.2630
  881.0000     9.3630     8.2530     8.8480   -36.2730    11.4700    96.4300     2.5270     0.0470     0.2650
  881.5000     9.2800     8.2370     8.8570   -36.4670    11.4650   101.4810     2.5330     0.0530     0.2680
  882.0000     9.2110     8.2220     8.8270   -36.4750    11.4600   101.8290     2.5310     0.0580     0.2680
  882.5000     9.1420     8.2070     8.7650   -36.0760    11.4970    96.3160     2.5230     0.0640     0.2670
  883.0000     9.0730     8.1910     8.7030   -35.5260    11.5180    92.5050     2.5170     0.0690     0.2650
  883.5000     9.0040     8.1760     8.6410   -34.9690    11.5350    90.9320     2.5000     0.0870     0.2610
  884.0000     8.9360     8.1550     8.5790   -34.3970    11.5490    92.4700     2.4690     0.0810     0.2600
  884.5000     8.8670     8.1560     8.5160   -34.2680    11.5660    94.1400     2.4400     0.0740     0.2590
  885.0000     8.7750     7.9990     8.4540   -34.6360    11.5810    94.8770     2.4060     0.0650     0.2570
  885.5000     8.6670     7.8890     8.3920   -35.0100    11.5990    97.6680     2.3900     0.0310     0.2540
  886.0000     8.6280     7.8360     8.3300   -35.3950    11.6100    98.2520     2.3950     0.0180     0.2530
  886.5000     8.5880     7.7830     8.2670   -35.7800    11.6590    96.3530     2.4440     0.0030     0.2530
  887.0000     8.5350     7.7300     8.2050   -36.1630    11.6480    97.2940     2.4470     0.0020     0.2540
  887.5000     8.6140     7.6770     8.1430   -36.5490    11.6080    98.1040     2.4500    -0.0010     0.2560
  888.0000     8.6940     7.6240     8.0800   -36.6650    11.5680    96.8900     2.4640     0.0030     0.2570
  888.5000     8.4930     7.5670     7.9840   -36.8600    11.5310    94.0240     2.4900     0.0130     0.2600
  889.0000     8.3010     7.5390     7.8830   -37.0090    11.4920    94.6400     2.5090     0.0300     0.2640
  889.5000     8.2240     7.4570     7.7800   -37.0130    11.4540    95.9700     2.5120     0.0370     0.2690
  890.0000     8.2240     7.3740     7.7980   -37.0080    11.4150    97.0430     2.5150     0.0440     0.2740
  890.5000     8.3780     7.2920     7.8170   -36.7870    11.3760    95.7770     2.5140     0.0500     0.2780
  891.0000     8.3780     7.2100     7.8360   -36.7950    11.3440    94.8230     2.5140     0.0560     0.2770
  891.5000     8.2080     7.1270     7.8520   -36.2590    11.3370    95.3920     2.5110     0.0590     0.2770
  892.0000     8.1040     7.0450     7.8520   -35.7400    11.3190    96.2280     2.5020     0.0620     0.2760
  892.5000     7.9990     6.9620     7.5530   -35.2170    11.3020    97.0960     2.4930     0.0650     0.2770
  893.0000     7.9700     6.7500     7.3300   -34.6940    11.2850    96.4690     2.4830     0.0680     0.2780
  893.5000     7.9410     6.4850     7.1720   -34.1750    11.2670    95.7680     2.4730     0.0710     0.2800
  894.0000     7.7410     6.2190     6.9830   -33.8800    11.2500    94.9970     2.4620     0.0760     0.2820
  894.5000     7.3540     5.9540     6.7940   -34.1780    11.2320    94.2910     2.4570     0.0840     0.2840
  895.0000     6.8980     5.6880     6.6060   -34.5930    11.2150    93.9310     2.4590     0.0920     0.2860
  895.5000     7.0200     5.4730     6.4650   -35.0160    11.1970    95.9370     2.4930     0.1050     0.2880
  896.0000     7.1790     5.4730     6.6890   -35.4380    11.1810    98.5030     2.5110     0.1210     0.2870
  896.5000     7.3390     6.1650     6.8980   -35.8590    11.1630   101.0220     2.5020     0.1370     0.2860
  897.0000     7.4980     6.3470     6.7990   -36.2820    11.1370   100.9330     2.4960     0.1410     0.2830
  897.5000     7.6570     6.1730     6.7090   -36.7200    11.0970   100.6430     2.4920     0.1520     0.2800
  898.0000     7.8160     6.5190     7.1120   -36.8140    11.1080   100.1730     2.4660     0.1490     0.2770
  898.5000     7.8850     6.8980     7.3600   -36.6030    11.1720    97.3320     2.4290     0.1450     0.2740
  899.0000     7.9280     6.9620     7.4300   -36.0180    11.2280    95.9360     2.3850     0.1300     0.2770
  899.5000     7.9710     7.0420     7.5010   -35.4290    11.2890    95.7840     2.3700     0.1170     0.2790
  900.0000     8.0130     7.1220     7.5720   -35.2960    11.3510    97.9210     2.3580     0.1020     0.2790
  900.5000     8.0560     7.2020     7.6430   -36.0990    11.3860   100.8280     2.3730     0.0880     0.2770
  901.0000     8.0990     7.2820     7.7130   -36.2130    11.3850   103.6930     2.4060     0.0730     0.2770
  901.5000     8.1420     7.3600     7.7840   -35.6330    11.3500   106.0860     2.4570     0.0830     0.2780
  902.0000     8.3310     7.4380     7.8550   -35.0150    11.2630   104.3680     2.4930     0.0910     0.2760
  902.5000     8.5490     7.5590     7.9260   -34.4590    11.1780    99.8390     2.4750     0.0950     0.2730
  903.0000     8.7750     7.6810     7.9990   -34.6050    11.0930   101.1610     2.4510     0.0930     0.2690
  903.5000     8.8170     7.8020     8.1230   -35.2710    11.0080   101.1880     2.4290     0.0770     0.2660
  904.0000     8.9260     7.9230     8.2840   -36.0460    10.9230   100.5690     2.4030     0.0580     0.2660
  904.5000     9.0350     8.0440     8.4440   -36.6330    10.8380    97.8940     2.4410     0.0380     0.2650
  905.0000     9.1440     8.1660     8.6140   -36.5220    10.7540    95.0190     2.4860     0.0370     0.2620
  905.5000     9.2530     8.2870     8.7720   -36.1740    10.6680    94.8880     2.5310     0.0470     0.2590
  906.0000     9.7150     8.4080     9.0220   -35.8500    10.5800    96.3790     2.5330     0.0470     0.2590
  906.5000     9.7150     8.5290     9.0220   -36.0050    10.5330    97.9700     2.5290     0.0490     0.2600
  907.0000     9.5370     8.6500     9.0530   -36.5680    10.5290    99.6100     2.5250     0.0400     0.2610
  907.5000    10.1760     8.7720     9.3320   -37.0710    10.4930   100.5080     2.5180     0.0350     0.2620
