~VERSION INFORMATION
 VERS.                2.0:   CWLS LOG ASCII STANDARD - VERSION 2.0
 WRAP.                 NO:   ONE LINE PER DEPTH STEP
~WELL INFORMATION
#MNEM.UNIT      DATA TYPE    INFORMATION
#----------   ------------   ------------------------------
 STRT.F          616.0000:   START DEPTH
 STOP.F         3968.0000:   STOP DEPTH
 STEP.F            0.5000:   STEP LENGTH
 NULL.          -999.2500:   NO VALUE
 COMP.    FENIX & SCISSON:   COMPANY
 WELL.  FENIX "DX" #71-15:   WELL
 FLD .           N P R #3:   FIELD
 LOC .      S15 T38N R78W:   LOCATION
 CNTY.            NATRONA:   COUNTY
 STAT.            WYOMING:   STATE
 CTRY. UNITED STATES OF AMERICA:   COUNTRY
 SRVC.              WELEX:   SERVICE COMPANY
 DATE.        23-MAR-1979:   LOGDATE
 API .     49025106090000:   API NUMBER
~CURVE INFORMATION
#MNEM.UNIT       API CODE    CURVE DESCRIPTION
#----------   ------------   ------------------------------
 DEPT.F                  :   
 SFL .OHMM   07 220 01 00:   SHALLOW FOCUSED LOG RESISTIVITY
 ILD .OHMM   07 120 46 00:   DEEP INDUCTION RESISTIVITY
 ILM .OHMM   07 120 44 00:   INDUCTION LOG MEDIUM RESISTIVITY
 SPR .MV     07 010 01 00:   SPONTANEOUS POTENTIAL
 CALD.IN     45 280 60 00:   CALIPER FROM DENSITY LOG
 GRD .GAPI   45 310 01 00:   GAMMA RAY FROM DENSITY LOG
 RHOB.G/C3   45 350 01 00:   BULK DENSITY
 CORR.G/C3   45 356 01 00:   DENSITY CORRECTION
 NPHI.DEC    42 890 03 00:   NEUTRON POROSITY SANDSTONE
~PARAMETER INFORMATION
#MNEM.UNIT          VALUE    DESCRIPTION
#----------   ------------   ------------------------------
 EKB .F         5259.0000:   Kelly bushing
 EGL .F         5249.0000:   Ground level
 EDF .F            0.0000:   Drilling floor
 TD  .F         3963.0000:   Total depth
 DATE.        23-MAR-1979:   Date logged
 CLNT.            A2DTECH:   Client Code
 SL  . 380' FNL & 733' FEL:   Surface Location
 PD  .                 GL:   Permanent Datum
 DD  .F              3963:   Depth driller
 DL  .F              3954:   Depth logger
 BLI .F              3952:   Bottom log interval
 CS1 .IN            9.625:   Casing size
 CBD1.      9.625" @ 686':   Casing driller 1
 CBL1.F               672:   Casing logger 1
 BS1 .IN            7.875:   Bit size
 DFT .           CHEM-GEL:   Type fluid in hole
 DFD .                8.9:   Density
 DFV .                 44:   Viscosity
 DFPH.                 10:   pH
 DFL .                6.8:   Fluid loss
 MSS .            MUD PIT:   Source of sample
 RMS .OHMM              2:   Rm
 MST .F                62:   Rm Meas. temp.
 RMF .OHMM           1.80:   Rmf
 MFST.F                62:   Rmf Meas. temp.
 RMC .OHMM            2.6:   Rmc
 MCST.F                62:   Rmc Meas. temp.
 MFSS.               FANN:   Source Rmf.
 RMB .OHMM           0.97:   Rm. at BHT
 BHT .F               128:   BHT.
 TCS .HRS               2:   Time Circ. stopped
 MRT .F               128:   Maximum recorded temp.
 LUN .               1892:   Logging unit number
 LUL .             CASPER:   Logging unit location
 ENGI.         C. TOTHILL:   Recorded By
 WITN.              AMEND:   Witnessed by
 ORIG.     2.5", 5" PRINT:   Origin of data
 UWI .     49025106090000:   Unique Well ID
 DICO. A2D TECHNOLOGIES, INC.:   Digitizing Company
 BSD1.               3963:   Depth drilled with bit1
 MCSS.               TEST:   Source Rmc.
 EPD .               5249:   Elevation Permanent Datum
 LMF .                 KB:   Log Measured From
 DMF .                 KB:   Drilling Measured From
 TLI .                672:   Top log interval
~OTHER INFORMATION
~A   DEPT      SFL        ILD        ILM        SPR       CALD         GRD      RHOB       CORR         NPHI 
# ...
 1966.5000    12.2460     9.3590     9.7240   -24.1430     9.4880   135.4210     2.4810    -0.0210     0.2730
 1967.0000    12.4930     9.3810     9.7390   -23.9030     9.4880   133.3400     2.4650    -0.0290     0.2750
 1967.5000    12.7400     9.4040     9.7550   -23.6640     9.4880   129.2530     2.4470    -0.0380     0.2780
 1968.0000    12.9440     9.4260     9.7700   -23.5890     9.4880   127.4450     2.4530    -0.0410     0.2780
 1968.5000    12.0780     9.4490     9.7860   -23.8340     9.4880   130.6290     2.4610    -0.0370     0.2780
 1969.0000    11.5840     9.4720     9.8020   -24.0700     9.4880   126.9820     2.4670    -0.0330     0.2760
 1969.5000    11.4770     9.4940     9.8170   -24.3050     9.4880   126.4100     2.4590    -0.0310     0.2730
 1970.0000    12.6110     9.5170     9.8330   -24.5400     9.4880   129.4460     2.4620    -0.0290     0.2740
 1970.5000    13.2470     9.5370     9.8480   -24.7750     9.4880   132.5600     2.4670    -0.0260     0.2770
 1971.0000    12.6240     9.5340     9.8640   -25.0150     9.4880   132.8830     2.4640    -0.0260     0.2830
 1971.5000    12.4740     9.5290     9.8800   -25.2660     9.4880   128.9360     2.4600    -0.0170     0.2880
 1972.0000    13.0650     9.5250     9.8950   -25.0600     9.4880   125.6030     2.4560    -0.0100     0.2900
 1972.5000    11.8000     9.5210     9.9110   -24.8210     9.4880   128.6410     2.4530    -0.0150     0.2890
 1973.0000    12.0600     9.5170     9.9260   -24.5940     9.4880   128.0780     2.4480    -0.0200     0.2870
 1973.5000    12.5760     9.5120     9.9420   -24.3780     9.5000   127.5020     2.4540    -0.0180     0.2840
 1974.0000    13.3090     9.5080     9.9580   -24.3410     9.5150   128.9500     2.4790    -0.0120     0.2820
 1974.5000    13.2560     9.5040     9.9730   -24.8920     9.5300   130.2520     2.5070    -0.0060     0.2800
 1975.0000    13.1710     9.5000     9.9890   -25.4590     9.5450   132.4430     2.5090    -0.0020     0.2780
 1975.5000    13.0860     9.4960    10.0040   -25.4980     9.5600   131.7330     2.5020     0.0020     0.2780
 1976.0000    12.8250     9.4910    10.0200   -25.5040     9.5760   129.1170     2.4920     0.0070     0.2780
 1976.5000    12.4300     9.4870    10.0360   -25.1570     9.5900   126.3040     2.4840     0.0110     0.2800
 1977.0000    12.0310     9.4830    10.0510   -24.4060     9.6050   124.7990     2.4840     0.0060     0.2830
 1977.5000    11.6310     9.4790    10.0670   -23.6740     9.5980   123.3190     2.4900     0.0020     0.2870
 1978.0000    11.3710     9.4740    10.0820   -23.4080     9.5830   121.9150     2.4840    -0.0020     0.2920
 1978.5000    11.8750     9.4700    10.0980   -23.5870     9.5680   120.3360     2.4760    -0.0070     0.2900
 1979.0000    12.3110     9.4660    10.1140   -23.7710     9.5540   120.1140     2.4770    -0.0110     0.2880
 1979.5000    12.7070     9.4620    10.1290   -23.9560     9.5390   121.0770     2.4820    -0.0150     0.2860
 1980.0000    12.6330     9.4580    10.1450   -24.1400     9.5250   121.8970     2.4850    -0.0190     0.2850
 1980.5000    12.5500     9.4530    10.1610   -24.3240     9.5100   122.7180     2.4760    -0.0250     0.2850
 1981.0000    12.4680     9.4480    10.1770   -24.5090     9.4950   123.6130     2.4590    -0.0250     0.2850
 1981.5000    12.3850     9.4070    10.1170   -24.6930     9.4810   124.3890     2.4590    -0.0100     0.2830
 1982.0000    12.3590     9.3660    10.0250   -24.8770     9.4660   125.2530     2.4720     0.0000     0.2820
 1982.5000    12.4150     9.3250     9.9330   -25.0610     9.4510   126.4980     2.4850    -0.0060     0.2810
 1983.0000    12.4530     9.2850     9.8410   -25.2450     9.4370   131.9910     2.4900    -0.0110     0.2810
 1983.5000    12.4740     9.2440     9.7490   -25.4290     9.4220   139.3320     2.4820    -0.0130     0.2840
 1984.0000    12.0830     9.2030     9.6570   -25.6130     9.4070   137.5390     2.4740    -0.0120     0.2870
 1984.5000    11.8100     9.1080     9.5660   -25.7960     9.3930   134.5860     2.4670    -0.0090     0.2890
 1985.0000    11.5840     8.9480     9.4740   -25.8920     9.3780   133.3750     2.4730    -0.0070     0.2890
 1985.5000    11.8410     8.7880     9.3820   -25.6580     9.3670   132.7810     2.4880    -0.0040     0.2850
 1986.0000    12.0210     8.6280     9.2900   -25.2600     9.3670   133.3190     2.5050    -0.0010     0.2810
 1986.5000    11.6930     8.4680     9.1910   -24.8350     9.3670   133.7580     2.5040    -0.0010     0.2770
 1987.0000    11.4670     8.3010     9.0220   -24.4150     9.3670   134.2740     2.5060     0.0040     0.2730
 1987.5000    11.3710     8.3010     9.0360   -23.9940     9.3670   134.8310     2.5130     0.0080     0.2700
 1988.0000    12.0210     8.2870     9.0540   -23.5760     9.3670   134.8750     2.5150     0.0100     0.2650
 1988.5000    11.9050     8.2650     9.0720   -23.1550     9.3670   134.2330     2.5090     0.0060     0.2590
 1989.0000    11.7290     8.2430     9.0910   -23.0060     9.3670   133.6570     2.5050     0.0020     0.2610
 1989.5000    11.5840     8.2240     9.1390   -23.1050     9.3670   132.9940     2.5050    -0.0010     0.2650
 1990.0000    11.4770     8.5280     9.3360   -23.2090     9.3670   132.7190     2.5140    -0.0010     0.2670
 1990.5000    11.8520     8.7890     9.5320   -23.3130     9.3670   133.0270     2.5240     0.0050     0.2700
 1991.0000    12.2450     9.0220     9.7290   -23.4170     9.3670   133.2140     2.5260     0.0090     0.2730
 1991.5000    12.0920     9.2760     9.9890   -23.5200     9.3670   133.5580     2.5240     0.0110     0.2750
 1992.0000    11.8030     9.2760     9.9890   -23.6240     9.3670   132.2530     2.5150     0.0080     0.2770
 1992.5000    11.6910     9.2760     9.9520   -23.7280     9.3670   127.7560     2.5070     0.0030     0.2760
 1993.0000    11.9330     9.2760     9.9250   -23.8320     9.3670   125.1860     2.5020    -0.0020     0.2750
 1993.5000    12.1650     9.2760     9.8980   -23.9350     9.3670   125.6260     2.4930    -0.0070     0.2740
 1994.0000    12.3590     9.2760     9.8700   -24.0390     9.3670   123.4030     2.4880    -0.0120     0.2720
 1994.5000    12.0980     9.2760     9.8430   -24.1220     9.3670   120.3700     2.4910    -0.0170     0.2690
 1995.0000    11.8300     9.2760     9.8160   -24.1260     9.3670   123.2070     2.4900    -0.0230     0.2710
 1995.5000    11.6910     9.2760     9.7890   -24.2690     9.3670   125.4090     2.4870    -0.0270     0.2770
 1996.0000    11.9410     9.2760     9.7620   -24.3210     9.3670   126.2600     2.4820    -0.0300     0.2790
 1996.5000    12.1680     9.2610     9.7350   -24.3170     9.3670   126.1980     2.4760    -0.0320     0.2770
 1997.0000    12.3950     9.2420     9.7080   -24.3170     9.3670   128.2940     2.4710    -0.0330     0.2750
 1997.5000    12.4740     9.2230     9.6810   -24.3160     9.3670   130.0730     2.4660    -0.0260     0.2740
 1998.0000    11.8000     9.2030     9.6540   -24.3180     9.3670   127.0800     2.4790    -0.0180     0.2770
 1998.5000    11.9720     9.1060     9.6260   -24.0930     9.3670   128.4220     2.5020    -0.0090     0.2790
 1999.0000    12.1470     8.8660     9.5490   -23.6860     9.3670   131.8060     2.5110    -0.0040     0.2820
 1999.5000    12.2450     8.6270     9.4170   -23.2810     9.3670   135.1940     2.5080    -0.0020     0.2840
 2000.0000    10.9050     8.3780     9.2850   -22.8670     9.3670   138.3300     2.5050     0.0000     0.2860
 2000.5000    10.3660     8.3780     9.1530   -22.5920     9.3670   142.3980     2.5010     0.0020     0.2890
 2001.0000    11.0700     8.4590     9.0220   -22.7720     9.3680   138.4560     2.4970     0.0030     0.2910
 2001.5000    11.8090     8.6010     9.1400   -22.9590     9.3740   129.3850     2.4950     0.0020     0.2880
 2002.0000    12.1320     8.7430     9.2580   -23.1470     9.3800   123.3710     2.4780    -0.0060     0.2830
 2002.5000    11.9430     8.8850     9.3750   -23.3350     9.3860   123.5170     2.4500    -0.0150     0.2770
