~VERSION INFORMATION
 VERS.                2.0:   CWLS LOG ASCII STANDARD - VERSION 2.0
 WRAP.                 NO:   ONE LINE PER DEPTH STEP
~WELL INFORMATION
#MNEM.UNIT      DATA TYPE    INFORMATION
#----------   ------------   ------------------------------
 STRT.F          616.0000:   START DEPTH
 STOP.F         3968.0000:   STOP DEPTH
 STEP.F            0.5000:   STEP LENGTH
 NULL.          -999.2500:   NO VALUE
 COMP.    FENIX & SCISSON:   COMPANY
 WELL.  FENIX "DX" #71-15:   WELL
 FLD .           N P R #3:   FIELD
 LOC .      S15 T38N R78W:   LOCATION
 CNTY.            NATRONA:   COUNTY
 STAT.            WYOMING:   STATE
 CTRY. UNITED STATES OF AMERICA:   COUNTRY
 SRVC.              WELEX:   SERVICE COMPANY
 DATE.        23-MAR-1979:   LOGDATE
 API .     49025106090000:   API NUMBER
~CURVE INFORMATION
#MNEM.UNIT       API CODE    CURVE DESCRIPTION
#----------   ------------   ------------------------------
 DEPT.F                  :   
 SFL .OHMM   07 220 01 00:   SHALLOW FOCUSED LOG RESISTIVITY
 ILD .OHMM   07 120 46 00:   DEEP INDUCTION RESISTIVITY
 ILM .OHMM   07 120 44 00:   INDUCTION LOG MEDIUM RESISTIVITY
 SPR .MV     07 010 01 00:   SPONTANEOUS POTENTIAL
 CALD.IN     45 280 60 00:   CALIPER FROM DENSITY LOG
 GRD .GAPI   45 310 01 00:   GAMMA RAY FROM DENSITY LOG
 RHOB.G/C3   45 350 01 00:   BULK DENSITY
 CORR.G/C3   45 356 01 00:   DENSITY CORRECTION
 NPHI.DEC    42 890 03 00:   NEUTRON POROSITY SANDSTONE
~PARAMETER INFORMATION
#MNEM.UNIT          VALUE    DESCRIPTION
#----------   ------------   ------------------------------
 EKB .F         5259.0000:   Kelly bushing
 EGL .F         5249.0000:   Ground level
 EDF .F            0.0000:   Drilling floor
 TD  .F         3963.0000:   Total depth
 DATE.        23-MAR-1979:   Date logged
 CLNT.            A2DTECH:   Client Code
 SL  . 380' FNL & 733' FEL:   Surface Location
 PD  .                 GL:   Permanent Datum
 DD  .F              3963:   Depth driller
 DL  .F              3954:   Depth logger
 BLI .F              3952:   Bottom log interval
 CS1 .IN            9.625:   Casing size
 CBD1.      9.625" @ 686':   Casing driller 1
 CBL1.F               672:   Casing logger 1
 BS1 .IN            7.875:   Bit size
 DFT .           CHEM-GEL:   Type fluid in hole
 DFD .                8.9:   Density
 DFV .                 44:   Viscosity
 DFPH.                 10:   pH
 DFL .                6.8:   Fluid loss
 MSS .            MUD PIT:   Source of sample
 RMS .OHMM              2:   Rm
 MST .F                62:   Rm Meas. temp.
 RMF .OHMM           1.80:   Rmf
 MFST.F                62:   Rmf Meas. temp.
 RMC .OHMM            2.6:   Rmc
 MCST.F                62:   Rmc Meas. temp.
 MFSS.               FANN:   Source Rmf.
 RMB .OHMM           0.97:   Rm. at BHT
 BHT .F               128:   BHT.
 TCS .HRS               2:   Time Circ. stopped
 MRT .F               128:   Maximum recorded temp.
 LUN .               1892:   Logging unit number
 LUL .             CASPER:   Logging unit location
 ENGI.         C. TOTHILL:   Recorded By
 WITN.              AMEND:   Witnessed by
 ORIG.     2.5", 5" PRINT:   Origin of data
 UWI .     49025106090000:   Unique Well ID
 DICO. A2D TECHNOLOGIES, INC.:   Digitizing Company
 BSD1.               3963:   Depth drilled with bit1
 MCSS.               TEST:   Source Rmc.
 EPD .               5249:   Elevation Permanent Datum
 LMF .                 KB:   Log Measured From
 DMF .                 KB:   Drilling Measured From
 TLI .                672:   Top log interval
~OTHER INFORMATION
~A   DEPT      SFL        ILD        ILM        SPR       CALD         GRD      RHOB       CORR         NPHI 
# ...
 3244.0000     4.4650     3.2840     3.4900   -17.6520     8.0360   132.5020     2.4960    -0.0140     0.2260
 3244.5000     4.9180     3.4470     3.5750   -17.2130     8.0410   137.7740     2.4850    -0.0160     0.2200
 3245.0000     5.1300     3.5100     3.6120   -16.7720     8.0450   142.4210     2.4750    -0.0110     0.2120
 3245.5000     4.3910     3.5100     3.6280   -16.3360     8.0500   144.1710     2.4730    -0.0070     0.2050
 3246.0000     4.9950     3.5100     3.6420   -16.3640     8.0540   145.0690     2.4750    -0.0020     0.1990
 3246.5000     5.9480     3.5100     3.6970   -17.5020     8.0590   139.0820     2.4830    -0.0010     0.1950
 3247.0000     5.3340     3.6100     3.8200   -17.7480     8.0630   134.0150     2.4880    -0.0020     0.1920
 3247.5000     4.8980     3.7370     3.9430   -17.0490     8.0680   128.4200     2.4890    -0.0020     0.1910
 3248.0000     5.6690     3.8640     4.0650   -16.3460     8.0720   124.4860     2.4950    -0.0030     0.1900
 3248.5000     6.2300     3.9910     4.2120   -16.7680     8.0760   121.3170     2.5150    -0.0030     0.1930
 3249.0000     6.2880     4.1180     4.4040   -17.2850     8.0770   118.5230     2.5280    -0.0040     0.1960
 3249.5000     5.9480     4.2450     4.5960   -17.6880     8.0760   115.9110     2.5290    -0.0040     0.1990
 3250.0000     6.3380     4.4230     4.7880   -17.7660     8.0740   112.7120     2.5270    -0.0040     0.1960
 3250.5000     6.7910     4.6620     4.9890   -17.8510     8.0730   112.5630     2.5290    -0.0050     0.1970
 3251.0000     6.9620     4.8080     4.9620   -17.9370     8.0710   112.6570     2.5340     0.0000     0.1990
 3251.5000     6.6120     4.7330     4.9140   -18.0220     8.0700   116.0680     2.5420     0.0050     0.2010
 3252.0000     6.2880     4.6330     4.8670   -18.0670     8.0680   119.4010     2.5490     0.0080     0.2020
 3252.5000     6.4100     4.6330     4.8190   -18.0660     8.0670   122.8030     2.5530     0.0100     0.2010
 3253.0000     6.4650     4.5960     4.7720   -18.0660     8.0660   126.1860     2.5450     0.0130     0.2010
 3253.5000     5.9440     4.5570     4.7510   -18.0840     8.0640   125.7160     2.5380     0.0150     0.2000
 3254.0000     3.9580     4.5190     4.7360   -18.1670     8.0630   123.9130     2.5340     0.0160     0.1980
 3254.5000     4.8630     4.4800     4.7220   -18.2480     8.0610   122.1190     2.5410     0.0220     0.1950
 3255.0000     6.0510     4.4650     4.7070   -18.3280     8.0600   120.3900     2.5500     0.0260     0.1920
 3255.5000     7.1580     4.5060     4.6920   -18.4090     8.0590   118.6530     2.5600     0.0320     0.1900
 3256.0000     6.7400     4.5070     4.6760   -18.4900     8.0570   116.7580     2.5590     0.0240     0.1890
 3256.5000     6.3470     4.5060     4.6760   -18.5700     8.0560   115.4650     2.5480     0.0080     0.1900
 3257.0000     6.8690     4.5070     4.8440   -18.6500     8.0540   114.8420     2.5440     0.0080     0.1900
 3257.5000     7.5670     4.5050     5.0150   -18.7300     8.0530   115.1240     2.5520     0.0150     0.1910
 3258.0000     7.1070     4.6940     5.1870   -18.8170     8.0510   115.9080     2.5690     0.0250     0.1920
 3258.5000     6.1990     4.9030     5.3580   -18.9950     8.0500   117.4470     2.5690     0.0320     0.1920
 3259.0000     5.8390     5.1130     5.5240   -19.0280     8.0490   118.9350     2.5640     0.0220     0.1920
 3259.5000     6.2880     5.2250     5.5240   -18.9750     8.0470   120.4250     2.5550     0.0120     0.1900
 3260.0000     6.7210     5.2070     5.5150   -18.9250     8.0460   122.0710     2.5440     0.0030     0.1890
 3260.5000     7.1580     5.1930     5.5060   -18.8760     8.0440   123.2200     2.5420     0.0020     0.1880
 3261.0000     7.3600     5.1780     5.4980   -18.8270     8.0430   123.8190     2.5490     0.0010     0.1880
 3261.5000     7.2190     5.1640     5.4900   -18.7780     8.0420   121.5020     2.5560     0.0000     0.1920
 3262.0000     7.0070     5.1490     5.4810   -18.7290     8.0400   118.3210     2.5530    -0.0010     0.1950
 3262.5000     6.8340     5.1350     5.4730   -18.6800     8.0390   114.5560     2.5460    -0.0010     0.1990
 3263.0000     7.2130     5.1300     5.4230   -18.6310     8.0370   115.2970     2.5500    -0.0010     0.2010
 3263.5000     7.7080     5.0470     5.3610   -18.5820     8.0360   119.9890     2.5560    -0.0010     0.2030
 3264.0000     7.2400     5.0060     5.3000   -18.5330     8.0350   122.0090     2.5500    -0.0010     0.2050
 3264.5000     6.5890     4.8740     5.2200   -18.4850     8.0340   112.2630     2.5420    -0.0010     0.2080
 3265.0000     6.1850     4.5780     4.9480   -18.4360     8.0330   114.9190     2.5340     0.0000     0.2100
 3265.5000     5.9480     4.2820     4.6760   -18.3870     8.0320   119.5620     2.5250     0.0020     0.2130
 3266.0000     5.2590     4.0320     4.2630   -18.3380     8.0310   124.6580     2.5320     0.0050     0.2170
 3266.5000     4.8980     4.0750     4.2980   -18.2890     8.0300   126.4870     2.5420     0.0070     0.2200
 3267.0000     5.1520     4.1080     4.3420   -18.2400     8.0290   124.5340     2.5450     0.0090     0.2240
 3267.5000     5.3720     3.9070     4.2130   -18.1910     8.0280   120.8100     2.5490     0.0140     0.2260
 3268.0000     5.2380     3.7190     4.0660   -18.1420     8.0260   117.7740     2.5520     0.0240     0.2260
 3268.5000     4.9900     3.6420     3.9220   -18.0930     8.0250   121.1720     2.5620     0.0340     0.2260
 3269.0000     4.8080     3.6080     3.8370   -18.0660     8.0240   124.6050     2.5690     0.0430     0.2230
 3269.5000     4.8080     3.5920     3.8210   -18.0660     8.0230   128.4350     2.5710     0.0410     0.2180
 3270.0000     4.9540     3.5760     3.8050   -18.0660     8.0220   130.1360     2.5660     0.0390     0.2160
 3270.5000     5.1110     3.5600     3.7890   -18.0660     8.0210   125.9980     2.5590     0.0360     0.2170
 3271.0000     5.2250     3.5450     3.7730   -18.0660     8.0200   122.0270     2.5530     0.0310     0.2180
 3271.5000     5.2250     3.5290     3.7570   -18.0660     8.0190   120.4680     2.5490     0.0250     0.2150
 3272.0000     4.8520     3.5130     3.7410   -18.0660     8.0180   120.6000     2.5450     0.0150     0.2110
 3272.5000     4.5650     3.4970     3.7250   -18.0660     8.0170   123.0660     2.5060     0.0070     0.2070
 3273.0000     4.3020     3.4820     3.7100   -18.0660     8.0160   127.0700     2.4850     0.0070     0.2020
 3273.5000     4.4680     3.4770     3.7100   -18.0660     8.0150   131.1010     2.4940     0.0070     0.1990
 3274.0000     4.8520     3.6260     3.8500   -18.0670     8.0140   135.1510     2.5110     0.0070     0.1960
 3274.5000     4.8080     3.7830     3.9850   -18.0670     8.0130   136.7430     2.5310     0.0070     0.1930
 3275.0000     4.9890     3.9400     4.2540   -18.0650     8.0120   135.1120     2.5350     0.0030     0.1910
 3275.5000     5.4730     4.0970     4.5220   -17.9690     8.0110   132.4750     2.5390    -0.0040     0.1900
 3276.0000     6.9280     4.2770     4.7910   -17.6670     8.0100   127.1400     2.5420     0.0010     0.1930
 3276.5000     9.1020     4.5550     5.0360   -17.3670     8.0090   122.8600     2.5530     0.0110     0.1970
 3277.0000    11.2770     4.8320     5.2290   -17.0670     8.0070   117.9930     2.5650     0.0280     0.2020
 3277.5000    12.7070     5.1090     5.4210   -16.7600     8.0060   114.0730     2.5690     0.0170     0.2090
 3278.0000     8.8290     5.2740     5.5750   -16.7280     8.0050   102.6880     2.5690     0.0180     0.2110
 3278.5000     6.1160     5.3230     5.5750   -16.8020     8.0040   104.8950     2.5690     0.0290     0.2090
 3279.0000     6.0600     5.2660     5.5750   -16.8770     8.0030   111.7120     2.5690     0.0350     0.2080
 3279.5000     6.4280     5.0780     5.5240   -16.9520     8.0020   119.5260     2.5690     0.0380     0.2090
 3280.0000     6.8560     4.8900     5.4730   -17.0260     8.0010   117.2880     2.5660     0.0410     0.2120
