~VERSION INFORMATION
 VERS.                2.0:   CWLS LOG ASCII STANDARD - VERSION 2.0
 WRAP.                 NO:   ONE LINE PER DEPTH STEP
~WELL INFORMATION
#MNEM.UNIT      DATA TYPE    INFORMATION
#----------   ------------   ------------------------------
 STRT.F          616.0000:   START DEPTH
 STOP.F         3968.0000:   STOP DEPTH
 STEP.F            0.5000:   STEP LENGTH
 NULL.          -999.2500:   NO VALUE
 COMP.    FENIX & SCISSON:   COMPANY
 WELL.  FENIX "DX" #71-15:   WELL
 FLD .           N P R #3:   FIELD
 LOC .      S15 T38N R78W:   LOCATION
 CNTY.            NATRONA:   COUNTY
 STAT.            WYOMING:   STATE
 CTRY. UNITED STATES OF AMERICA:   COUNTRY
 SRVC.              WELEX:   SERVICE COMPANY
 DATE.        23-MAR-1979:   LOGDATE
 API .     49025106090000:   API NUMBER
~CURVE INFORMATION
#MNEM.UNIT       API CODE    CURVE DESCRIPTION
#----------   ------------   ------------------------------
 DEPT.F                  :   
 SFL .OHMM   07 220 01 00:   SHALLOW FOCUSED LOG RESISTIVITY
 ILD .OHMM   07 120 46 00:   DEEP INDUCTION RESISTIVITY
 ILM .OHMM   07 120 44 00:   INDUCTION LOG MEDIUM RESISTIVITY
 SPR .MV     07 010 01 00:   SPONTANEOUS POTENTIAL
 CALD.IN     45 280 60 00:   CALIPER FROM DENSITY LOG
 GRD .GAPI   45 310 01 00:   GAMMA RAY FROM DENSITY LOG
 RHOB.G/C3   45 350 01 00:   BULK DENSITY
 CORR.G/C3   45 356 01 00:   DENSITY CORRECTION
 NPHI.DEC    42 890 03 00:   NEUTRON POROSITY SANDSTONE
~PARAMETER INFORMATION
#MNEM.UNIT          VALUE    DESCRIPTION
#----------   ------------   ------------------------------
 EKB .F         5259.0000:   Kelly bushing
 EGL .F         5249.0000:   Ground level
 EDF .F            0.0000:   Drilling floor
 TD  .F         3963.0000:   Total depth
 DATE.        23-MAR-1979:   Date logged
 CLNT.            A2DTECH:   Client Code
 SL  . 380' FNL & 733' FEL:   Surface Location
 PD  .                 GL:   Permanent Datum
 DD  .F              3963:   Depth driller
 DL  .F              3954:   Depth logger
 BLI .F              3952:   Bottom log interval
 CS1 .IN            9.625:   Casing size
 CBD1.      9.625" @ 686':   Casing driller 1
 CBL1.F               672:   Casing logger 1
 BS1 .IN            7.875:   Bit size
 DFT .           CHEM-GEL:   Type fluid in hole
 DFD .                8.9:   Density
 DFV .                 44:   Viscosity
 DFPH.                 10:   pH
 DFL .                6.8:   Fluid loss
 MSS .            MUD PIT:   Source of sample
 RMS .OHMM              2:   Rm
 MST .F                62:   Rm Meas. temp.
 RMF .OHMM           1.80:   Rmf
 MFST.F                62:   Rmf Meas. temp.
 RMC .OHMM            2.6:   Rmc
 MCST.F                62:   Rmc Meas. temp.
 MFSS.               FANN:   Source Rmf.
 RMB .OHMM           0.97:   Rm. at BHT
 BHT .F               128:   BHT.
 TCS .HRS               2:   Time Circ. stopped
 MRT .F               128:   Maximum recorded temp.
 LUN .               1892:   Logging unit number
 LUL .             CASPER:   Logging unit location
 ENGI.         C. TOTHILL:   Recorded By
 WITN.              AMEND:   Witnessed by
 ORIG.     2.5", 5" PRINT:   Origin of data
 UWI .     49025106090000:   Unique Well ID
 DICO. A2D TECHNOLOGIES, INC.:   Digitizing Company
 BSD1.               3963:   Depth drilled with bit1
 MCSS.               TEST:   Source Rmc.
 EPD .               5249:   Elevation Permanent Datum
 LMF .                 KB:   Log Measured From
 DMF .                 KB:   Drilling Measured From
 TLI .                672:   Top log interval
~OTHER INFORMATION
~A   DEPT      SFL        ILD        ILM        SPR       CALD         GRD      RHOB       CORR         NPHI 
# ...
 2806.0000    11.5060     8.8820     9.5090   -19.8850     9.2020   107.3300     2.5670    -0.0280     0.1470
 2806.5000    11.0480     8.6940     9.3620   -19.6240     9.2000   110.3130     2.5690    -0.0160     0.1450
 2807.0000    10.5910     8.5350     9.3620   -19.7820     9.1980   114.1510     2.5800    -0.0050     0.1440
 2807.5000    10.2700     8.7550     9.5330   -19.9230     9.1960   119.3110     2.5910     0.0060     0.1440
 2808.0000    10.8040     8.9580     9.6670   -20.0660     9.1930   117.4200     2.5930     0.0150     0.1450
 2808.5000    12.1320     9.1620     9.8010   -20.2080     9.1910   113.0310     2.5860     0.0130     0.1440
 2809.0000    11.7700     9.3620     9.9350   -20.3500     9.1890   108.8630     2.6000     0.0100     0.1430
 2809.5000    11.4770     9.3620    10.0690   -20.4920     9.1870   106.2850     2.6070     0.0070     0.1420
 2810.0000    11.7150     9.4490    10.1760   -20.6350     9.1850   108.7700     2.5930     0.0040     0.1410
 2810.5000    12.1190     9.4870    10.1760   -20.7810     9.1830   113.9130     2.5840     0.0010     0.1390
 2811.0000    12.5900     9.5910    10.2700   -20.7150     9.1800   118.7510     2.5950    -0.0010     0.1370
 2811.5000    12.4180     9.6940    10.3640   -20.6120     9.1780   121.0330     2.6050     0.0020     0.1360
 2812.0000    12.1480     9.7980    10.4550   -20.5070     9.1760   116.9440     2.6140     0.0040     0.1380
 2812.5000    12.0210     9.9010    10.5460   -20.4040     9.1740   112.5780     2.6240     0.0150     0.1370
 2813.0000    12.1320    10.0050    10.6370   -20.3000     9.1720   110.6860     2.6320     0.0260     0.1370
 2813.5000    13.4330    10.1080    10.7280   -20.1960     9.1690   114.6130     2.6240     0.0270     0.1350
 2814.0000    13.1080    10.2120    10.8190   -20.0920     9.1670   112.5290     2.6100     0.0190     0.1330
 2814.5000    12.6080    10.3150    10.9100   -19.9890     9.1650   102.8060     2.6000     0.0150     0.1310
 2815.0000    12.1070    10.4190    11.0020   -19.8850     9.1660   105.0180     2.6080     0.0170     0.1270
 2815.5000    11.6910    10.4620    11.0930   -19.7810     9.1670   111.5920     2.6200     0.0240     0.1230
 2816.0000    12.5370    10.4170    11.2660   -19.6790     9.1690   113.8890     2.6330     0.0310     0.1220
 2816.5000    14.0090    10.3850    11.2070   -19.6200     9.1700   108.5690     2.6410     0.0310     0.1220
 2817.0000    15.5190    10.3520    11.1170   -19.9520     9.1710   104.4990     2.6430     0.0240     0.1220
 2817.5000    17.4070    10.3200    11.0270   -20.2520     9.1720   100.5780     2.6350     0.0180     0.1220
 2818.0000    16.1470    10.2870    10.9360   -20.5670     9.1740   100.0320     2.6160     0.0100     0.1220
 2818.5000    14.5310    10.2550    10.8460   -20.8790     9.1750    90.2760     2.5990     0.0040     0.1220
 2819.0000    13.5580    10.2230    10.7560   -21.1910     9.1760    92.5000     2.5780    -0.0050     0.1220
 2819.5000    15.2910    10.1900    10.6660   -21.5030     9.1770    96.3870     2.5700    -0.0020     0.1250
 2820.0000    14.3440    10.0310    10.5750   -21.8150     9.1790   100.7360     2.5730     0.0070     0.1260
 2820.5000    12.6420     9.7700    10.4850   -22.1280     9.1800   105.0510     2.5740     0.0040     0.1250
 2821.0000    11.2660     9.5090    10.3950   -22.4420     9.1810   106.0750     2.5520    -0.0030     0.1260
 2821.5000    11.2660     9.2480    10.3390   -22.7530     9.1820   105.6870     2.5400    -0.0110     0.1370
 2822.0000    12.4670     8.9870    10.0730   -22.4250     9.1840   102.3660     2.5490    -0.0100     0.1450
 2822.5000    12.8250     8.7270     9.8080   -22.0100     9.1850   100.0260     2.5580    -0.0050     0.1540
 2823.0000    12.7070     8.4660     9.5420   -21.5940     9.1860    97.3330     2.5600    -0.0010     0.1580
 2823.5000    11.5380     8.2050     9.2770   -21.1790     9.1870    97.2190     2.5570     0.0020     0.1610
 2824.0000    10.2680     7.8600     9.0110   -20.7650     9.1890    99.6830     2.5540     0.0060     0.1650
 2824.5000     9.1060     7.4290     8.5060   -20.3470     9.1900   104.1570     2.5530     0.0090     0.1690
 2825.0000     8.9390     6.9970     7.9590   -20.2280     9.1910   108.5550     2.5580     0.0170     0.1720
 2825.5000     8.9390     6.5660     7.4130   -20.2760     9.1920   113.0010     2.5620     0.0280     0.1760
 2826.0000    10.7570     6.1340     6.8880   -20.3240     9.1940   117.3940     2.5680     0.0370     0.1800
 2826.5000     7.9960     5.6350     6.3070   -20.3730     9.1950   121.8700     2.5420     0.0470     0.1840
 2827.0000     6.8340     5.1050     5.7260   -20.4210     9.1960   126.3530     2.5160     0.0450     0.1880
 2827.5000     7.3970     4.5750     5.1450   -20.4690     9.1970   132.8810     2.4990     0.0400     0.1930
 2828.0000     7.6370     4.0450     4.5640   -20.5160     9.1990   139.2790     2.4850     0.0280     0.1980
 2828.5000     4.6760     3.5150     3.9820   -20.5640     9.2000   145.9650     2.4700     0.0380     0.2030
 2829.0000     4.0320     3.0350     3.4130   -20.6120     9.2010   155.6820     2.4560     0.0510     0.2080
 2829.5000     4.2230     2.8890     3.2310   -20.6600     9.2020   172.7530     2.4390     0.0630     0.2130
 2830.0000     4.0510     2.7430     3.0300   -20.7080     9.2040   179.6020     2.4200     0.0680     0.2180
 2830.5000     3.4200     2.5970     2.8280   -20.7560     9.2050   187.2760     2.4020     0.0760     0.2180
 2831.0000     2.7890     2.4510     2.6260   -20.8040     9.2060   194.1390     2.3820     0.0710     0.2160
 2831.5000     2.5860     2.3050     2.4690   -20.8520     9.2060   200.1740     2.3640     0.0610     0.2110
 2832.0000     4.6030     2.1590     2.4240   -20.9000     9.2020   199.6880     2.3460     0.0530     0.2080
 2832.5000     5.2250     2.1090     2.4010   -20.9510     9.1920   189.5060     2.3240     0.0450     0.2040
 2833.0000     4.9390     2.1490     2.4010   -20.9850     9.1820   179.7040     2.3050     0.0620     0.1960
 2833.5000     4.6330     2.2510     2.5460   -21.1960     9.1730   169.7440     2.1900     0.0780     0.1870
 2834.0000     4.5900     2.4460     2.8300   -20.9880     9.1630   159.8590     1.9960     0.0940     0.1710
 2834.5000     5.7960     2.6580     3.1150   -20.7940     9.1540   149.9660     1.9780     0.0170     0.1610
 2835.0000     7.8230     2.8630     3.6430   -20.6000     9.1440   138.8240     1.9790    -0.1030     0.1600
 2835.5000    10.8570     3.5850     4.1600   -20.4060     9.1350   126.0530     2.1440    -0.0610     0.1580
 2836.0000     5.4220     4.2800     4.5960   -20.2110     9.1260   114.9520     2.5930     0.0230     0.1570
 2836.5000     5.3720     4.6080     5.0320   -20.0170     9.1150   106.0810     2.5740     0.0250     0.1390
 2837.0000     5.8580     4.7630     5.3130   -19.8230     9.1070    96.2120     2.5800     0.0160     0.1220
 2837.5000     6.4490     4.9430     5.6790   -19.6290     9.0980    98.6000     2.5540     0.0060     0.1030
 2838.0000    10.1750     6.0780     6.5600   -19.4750     9.0780   101.4910     2.5790     0.0030     0.0900
 2838.5000    15.4860     7.1600     8.1320   -19.5870     9.0440    97.1400     2.5990     0.0030     0.0810
 2839.0000    20.7980     8.0880     9.7880   -19.7790     9.0140    92.9190     2.5990     0.0040     0.0840
 2839.5000    23.1970     8.7420    11.1980   -19.9670     9.0040    88.3890     2.6000     0.0050     0.0950
 2840.0000    25.3080    10.5970    12.4390   -20.1550     9.0030    84.2130     2.6060     0.0060     0.1040
 2840.5000    26.4020    12.3590    13.5580   -20.3420     9.0050    79.6780     2.6130     0.0070     0.1140
 2841.0000    21.4110    12.3590    13.5580   -20.5290     9.0040    80.2830     2.6150     0.0070     0.1230
 2841.5000    17.6590    11.9380    13.1860   -20.7170     9.0150    82.7240     2.6130     0.0070     0.1290
 2842.0000    15.0110    11.5900    12.8510   -20.9040     9.0300    85.0520     2.6110     0.0070     0.1300
