~VERSION INFORMATION
 VERS.                2.0:   CWLS LOG ASCII STANDARD - VERSION 2.0
 WRAP.                 NO:   ONE LINE PER DEPTH STEP
~WELL INFORMATION
#MNEM.UNIT      DATA TYPE    INFORMATION
#----------   ------------   ------------------------------
 STRT.F          616.0000:   START DEPTH
 STOP.F         3968.0000:   STOP DEPTH
 STEP.F            0.5000:   STEP LENGTH
 NULL.          -999.2500:   NO VALUE
 COMP.    FENIX & SCISSON:   COMPANY
 WELL.  FENIX "DX" #71-15:   WELL
 FLD .           N P R #3:   FIELD
 LOC .      S15 T38N R78W:   LOCATION
 CNTY.            NATRONA:   COUNTY
 STAT.            WYOMING:   STATE
 CTRY. UNITED STATES OF AMERICA:   COUNTRY
 SRVC.              WELEX:   SERVICE COMPANY
 DATE.        23-MAR-1979:   LOGDATE
 API .     49025106090000:   API NUMBER
~CURVE INFORMATION
#MNEM.UNIT       API CODE    CURVE DESCRIPTION
#----------   ------------   ------------------------------
 DEPT.F                  :   
 SFL .OHMM   07 220 01 00:   SHALLOW FOCUSED LOG RESISTIVITY
 ILD .OHMM   07 120 46 00:   DEEP INDUCTION RESISTIVITY
 ILM .OHMM   07 120 44 00:   INDUCTION LOG MEDIUM RESISTIVITY
 SPR .MV     07 010 01 00:   SPONTANEOUS POTENTIAL
 CALD.IN     45 280 60 00:   CALIPER FROM DENSITY LOG
 GRD .GAPI   45 310 01 00:   GAMMA RAY FROM DENSITY LOG
 RHOB.G/C3   45 350 01 00:   BULK DENSITY
 CORR.G/C3   45 356 01 00:   DENSITY CORRECTION
 NPHI.DEC    42 890 03 00:   NEUTRON POROSITY SANDSTONE
~PARAMETER INFORMATION
#MNEM.UNIT          VALUE    DESCRIPTION
#----------   ------------   ------------------------------
 EKB .F         5259.0000:   Kelly bushing
 EGL .F         5249.0000:   Ground level
 EDF .F            0.0000:   Drilling floor
 TD  .F         3963.0000:   Total depth
 DATE.        23-MAR-1979:   Date logged
 CLNT.            A2DTECH:   Client Code
 SL  . 380' FNL & 733' FEL:   Surface Location
 PD  .                 GL:   Permanent Datum
 DD  .F              3963:   Depth driller
 DL  .F              3954:   Depth logger
 BLI .F              3952:   Bottom log interval
 CS1 .IN            9.625:   Casing size
 CBD1.      9.625" @ 686':   Casing driller 1
 CBL1.F               672:   Casing logger 1
 BS1 .IN            7.875:   Bit size
 DFT .           CHEM-GEL:   Type fluid in hole
 DFD .                8.9:   Density
 DFV .                 44:   Viscosity
 DFPH.                 10:   pH
 DFL .                6.8:   Fluid loss
 MSS .            MUD PIT:   Source of sample
 RMS .OHMM              2:   Rm
 MST .F                62:   Rm Meas. temp.
 RMF .OHMM           1.80:   Rmf
 MFST.F                62:   Rmf Meas. temp.
 RMC .OHMM            2.6:   Rmc
 MCST.F                62:   Rmc Meas. temp.
 MFSS.               FANN:   Source Rmf.
 RMB .OHMM           0.97:   Rm. at BHT
 BHT .F               128:   BHT.
 TCS .HRS               2:   Time Circ. stopped
 MRT .F               128:   Maximum recorded temp.
 LUN .               1892:   Logging unit number
 LUL .             CASPER:   Logging unit location
 ENGI.         C. TOTHILL:   Recorded By
 WITN.              AMEND:   Witnessed by
 ORIG.     2.5", 5" PRINT:   Origin of data
 UWI .     49025106090000:   Unique Well ID
 DICO. A2D TECHNOLOGIES, INC.:   Digitizing Company
 BSD1.               3963:   Depth drilled with bit1
 MCSS.               TEST:   Source Rmc.
 EPD .               5249:   Elevation Permanent Datum
 LMF .                 KB:   Log Measured From
 DMF .                 KB:   Drilling Measured From
 TLI .                672:   Top log interval
~OTHER INFORMATION
~A   DEPT      SFL        ILD        ILM        SPR       CALD         GRD      RHOB       CORR         NPHI 
# ...
 3025.0000    20.7450    16.8540    18.0660   -47.3330     7.7970    61.1000     2.3190     0.0350     0.1590
 3025.5000    22.0430    16.7320    18.0640   -46.7280     7.7960    63.1430     2.3220     0.0310     0.1620
 3026.0000    22.9790    16.6200    17.7250   -46.1240     7.8220    56.5350     2.3370     0.0320     0.1650
 3026.5000    22.0290    15.9670    17.0050   -45.5180     7.8490    56.0620     2.3430     0.0310     0.1670
 3027.0000    21.2060    15.2390    16.2840   -44.9140     7.8770    57.4140     2.3380     0.0320     0.1680
 3027.5000    19.8540    14.5110    15.5640   -44.4260     7.9040    60.8990     2.3410     0.0320     0.1670
 3028.0000    16.6270    13.7830    14.8430   -44.6100     7.9320    63.6170     2.3550     0.0380     0.1620
 3028.5000    14.8730    13.4330    14.0690   -44.7890     7.9590    66.5420     2.3860     0.0470     0.1550
 3029.0000    14.7360    13.3090    13.9390   -44.9660     7.9860    69.4230     2.4020     0.0510     0.1480
 3029.5000    15.0110    13.3090    14.0690   -45.1450     8.0170    72.2280     2.3930     0.0400     0.1390
 3030.0000    20.2550    13.8850    15.3000   -45.1120     8.0320    75.2850     2.3590     0.0270     0.1290
 3030.5000    21.1420    14.6930    16.5140   -44.9460     8.0680    74.6930     2.3470     0.0150     0.1190
 3031.0000    19.8160    15.5020    17.4330   -44.7760     8.0790    71.0830     2.3480     0.0040     0.1090
 3031.5000    19.8160    16.3110    18.0870   -44.5570     8.0490    67.5550     2.3600     0.0030     0.0990
 3032.0000    23.5950    17.1190    18.7410   -44.0500     7.9680    64.2670     2.4040     0.0070     0.0900
 3032.5000    28.4420    17.9280    19.3950   -43.5400     7.8970    62.2930     2.4570     0.0180     0.0850
 3033.0000    33.5860    18.7370    20.0490   -43.0270     7.8170    62.5680     2.5090     0.0310     0.0900
 3033.5000    62.4460    19.4130    20.7020   -42.5010     7.7890    62.5880     2.5620     0.0470     0.1050
 3034.0000    55.3260    19.9830    21.3390   -42.6240     7.8360    63.8170     2.5970     0.0630     0.1190
 3034.5000    43.4680    20.1860    21.7380   -42.8310     7.9220    64.1400     2.6020     0.0800     0.1340
 3035.0000    31.2740    19.7060    21.1110   -43.0360     7.9970    66.4360     2.5560     0.0880     0.1440
 3035.5000    16.4930    18.7460    20.2000   -43.2390     8.0720    69.0750     2.4630     0.0700     0.1470
 3036.0000    13.0650    17.7860    19.2890   -42.9850     8.0770    71.7530     2.3960     0.0580     0.1510
 3036.5000    14.5740    17.0880    18.3780   -42.4320     8.0650    74.4540     2.3500     0.0440     0.1520
 3037.0000    16.0670    15.9580    17.4070   -41.8800     8.0290    75.2340     2.3440     0.0380     0.1510
 3037.5000    16.7740    14.8730    16.7370   -41.3270     7.9960    76.0340     2.3370     0.0160     0.1510
 3038.0000    17.2290    14.4650    16.0000   -40.7750     7.9630    69.9740     2.3240     0.0110     0.1560
 3038.5000    17.6030    14.0020    15.2620   -40.2250     7.9280    66.5200     2.3180     0.0050     0.1590
 3039.0000    17.9770    13.7150    14.8010   -39.6930     7.8950    64.0980     2.3200     0.0030     0.1620
 3039.5000    18.4010    13.6840    14.6000   -38.0240     7.8450    62.6390     2.3410     0.0020     0.1610
 3040.0000    13.4800    13.6840    14.3320   -36.0630     7.8020    64.0350     2.3760     0.0110     0.1570
 3040.5000    11.3710    13.6840    14.3320   -36.8520     7.7940    71.0310     2.4110     0.0270     0.1530
 3041.0000    21.7890    13.6840    14.4650   -38.0370     7.7950    79.2230     2.4450     0.0430     0.1550
 3041.5000    44.7490    13.8450    14.8850   -39.2260     7.8330    84.0860     2.4960     0.0480     0.1590
 3042.0000    33.9310    14.1480    15.2910   -40.4070     7.8880    81.0640     2.4830     0.0470     0.1630
 3042.5000    17.7320    14.4650    15.4340   -41.5960     7.9260    76.6500     2.4420     0.0460     0.1650
 3043.0000    18.1410    14.4650    15.2320   -42.8700     7.9600    72.5000     2.4040     0.0460     0.1650
 3043.5000    18.4010    14.1510    15.0110   -43.2880     7.9460    68.2090     2.3880     0.0450     0.1640
 3044.0000    17.1830    14.0690    15.1830   -43.4700     7.9280    65.6680     2.3780     0.0450     0.1660
 3044.5000    16.6200    14.8730    15.5120   -43.8040     7.9070    64.3840     2.3700     0.0440     0.1680
 3045.0000    17.0000    14.5270    15.7220   -43.5230     7.8870    63.3380     2.3630     0.0430     0.1700
 3045.5000    17.5690    13.9620    14.9060   -43.2560     7.8670    63.2740     2.3550     0.0320     0.1720
 3046.0000    16.1600    13.6840    14.4650   -42.9890     7.8470    63.6770     2.3380     0.0240     0.1730
 3046.5000    15.4340    13.9370    14.5870   -42.7240     7.8270    64.4620     2.3430     0.0250     0.1750
 3047.0000    15.4340    14.0690    14.8060   -42.8690     7.8050    65.2350     2.3480     0.0280     0.1760
 3047.5000    16.1650    13.7720    15.0110   -43.3280     7.7930    66.0490     2.3460     0.0310     0.1760
 3048.0000    15.3120    13.4010    14.4240   -43.7840     7.7940    66.8600     2.3330     0.0250     0.1760
 3048.5000    14.4650    13.0290    13.8740   -44.2400     7.7900    67.6350     2.3210     0.0120     0.1750
 3049.0000    15.3480    12.8250    13.4330   -44.6990     7.7870    68.5830     2.3110     0.0040     0.1740
 3049.5000    16.4910    13.1060    13.7090   -45.1630     7.7840    67.6130     2.3090     0.0010     0.1730
 3050.0000    17.0880    13.6840    14.7360   -45.4290     7.7810    62.5760     2.3120    -0.0010     0.1760
 3050.5000    16.0430    13.4260    14.7360   -45.4070     7.7770    62.5960     2.3220     0.0070     0.1760
 3051.0000    15.8680    13.0230    14.1720   -44.9580     7.7740    64.9930     2.3310     0.0180     0.1740
 3051.5000    16.1650    12.6210    13.7480   -44.4740     7.7710    67.2140     2.3400     0.0270     0.1720
 3052.0000    15.3950    12.2450    13.3090   -43.9910     7.7680    66.4530     2.3490     0.0380     0.1710
 3052.5000    14.6450    12.1790    13.0650   -43.5080     7.7640    65.8760     2.3580     0.0320     0.1760
 3053.0000    13.8940    12.0810    12.6920   -43.0260     7.7610    65.0820     2.3670     0.0280     0.1790
 3053.5000    13.1440    11.7240    12.2450   -42.5420     7.7580    66.3430     2.3760     0.0270     0.1810
 3054.0000    12.5900    10.9400    11.8550   -42.0610     7.7550    70.5790     2.3840     0.0310     0.1790
 3054.5000    12.4740    10.2700    11.4630   -41.6910     7.7710    76.3350     2.3920     0.0280     0.1770
 3055.0000    12.4740    10.1760    11.1630   -41.6990     7.7920    81.8510     2.3900     0.0250     0.1740
 3055.5000    12.9090    10.7400    11.6830   -41.6990     7.8140    87.0440     2.3860     0.0200     0.1710
 3056.0000    13.7050    11.3510    12.2450   -41.6990     7.8290    96.6700     2.3950     0.0240     0.1730
 3056.5000    14.4590    11.6910    12.3590   -41.7000     7.8680   104.9210     2.3910     0.0310     0.1750
 3057.0000    15.2120    11.6760    12.2340   -41.7010     7.8660   114.5280     2.3820     0.0260     0.1790
 3057.5000    16.0160    11.6200    12.1920   -41.6960     7.8380   117.7130     2.3730     0.0210     0.1800
 3058.0000    14.8400    11.3880    12.1500   -41.3790     7.8070   121.4980     2.3740     0.0220     0.1800
 3058.5000    13.2520    10.8380    11.7480   -40.3520     7.7930    93.7000     2.3880     0.0280     0.1790
 3059.0000    12.2450    10.2890    11.0610   -39.3370     7.7950    73.5240     2.3940     0.0330     0.1790
 3059.5000    12.4170     9.8060    10.3750   -38.3190     7.8000    66.3080     2.3970     0.0330     0.1790
 3060.0000    12.5900     9.5890    10.0820   -37.3060     7.8640    58.1510     2.4050     0.0150     0.1820
 3060.5000    12.5900     9.5180    10.2220   -36.2860     7.9320    60.6500     2.4170     0.0230     0.1850
 3061.0000    11.6260     9.4490    10.3040   -35.8360     8.0050    68.7360     2.4270     0.0310     0.1860
