~VERSION INFORMATION
 VERS.                2.0:   CWLS LOG ASCII STANDARD - VERSION 2.0
 WRAP.                 NO:   ONE LINE PER DEPTH STEP
~WELL INFORMATION
#MNEM.UNIT      DATA TYPE    INFORMATION
#----------   ------------   ------------------------------
 STRT.F          616.0000:   START DEPTH
 STOP.F         3968.0000:   STOP DEPTH
 STEP.F            0.5000:   STEP LENGTH
 NULL.          -999.2500:   NO VALUE
 COMP.    FENIX & SCISSON:   COMPANY
 WELL.  FENIX "DX" #71-15:   WELL
 FLD .           N P R #3:   FIELD
 LOC .      S15 T38N R78W:   LOCATION
 CNTY.            NATRONA:   COUNTY
 STAT.            WYOMING:   STATE
 CTRY. UNITED STATES OF AMERICA:   COUNTRY
 SRVC.              WELEX:   SERVICE COMPANY
 DATE.        23-MAR-1979:   LOGDATE
 API .     49025106090000:   API NUMBER
~CURVE INFORMATION
#MNEM.UNIT       API CODE    CURVE DESCRIPTION
#----------   ------------   ------------------------------
 DEPT.F                  :   
 SFL .OHMM   07 220 01 00:   SHALLOW FOCUSED LOG RESISTIVITY
 ILD .OHMM   07 120 46 00:   DEEP INDUCTION RESISTIVITY
 ILM .OHMM   07 120 44 00:   INDUCTION LOG MEDIUM RESISTIVITY
 SPR .MV     07 010 01 00:   SPONTANEOUS POTENTIAL
 CALD.IN     45 280 60 00:   CALIPER FROM DENSITY LOG
 GRD .GAPI   45 310 01 00:   GAMMA RAY FROM DENSITY LOG
 RHOB.G/C3   45 350 01 00:   BULK DENSITY
 CORR.G/C3   45 356 01 00:   DENSITY CORRECTION
 NPHI.DEC    42 890 03 00:   NEUTRON POROSITY SANDSTONE
~PARAMETER INFORMATION
#MNEM.UNIT          VALUE    DESCRIPTION
#----------   ------------   ------------------------------
 EKB .F         5259.0000:   Kelly bushing
 EGL .F         5249.0000:   Ground level
 EDF .F            0.0000:   Drilling floor
 TD  .F         3963.0000:   Total depth
 DATE.        23-MAR-1979:   Date logged
 CLNT.            A2DTECH:   Client Code
 SL  . 380' FNL & 733' FEL:   Surface Location
 PD  .                 GL:   Permanent Datum
 DD  .F              3963:   Depth driller
 DL  .F              3954:   Depth logger
 BLI .F              3952:   Bottom log interval
 CS1 .IN            9.625:   Casing size
 CBD1.      9.625" @ 686':   Casing driller 1
 CBL1.F               672:   Casing logger 1
 BS1 .IN            7.875:   Bit size
 DFT .           CHEM-GEL:   Type fluid in hole
 DFD .                8.9:   Density
 DFV .                 44:   Viscosity
 DFPH.                 10:   pH
 DFL .                6.8:   Fluid loss
 MSS .            MUD PIT:   Source of sample
 RMS .OHMM              2:   Rm
 MST .F                62:   Rm Meas. temp.
 RMF .OHMM           1.80:   Rmf
 MFST.F                62:   Rmf Meas. temp.
 RMC .OHMM            2.6:   Rmc
 MCST.F                62:   Rmc Meas. temp.
 MFSS.               FANN:   Source Rmf.
 RMB .OHMM           0.97:   Rm. at BHT
 BHT .F               128:   BHT.
 TCS .HRS               2:   Time Circ. stopped
 MRT .F               128:   Maximum recorded temp.
 LUN .               1892:   Logging unit number
 LUL .             CASPER:   Logging unit location
 ENGI.         C. TOTHILL:   Recorded By
 WITN.              AMEND:   Witnessed by
 ORIG.     2.5", 5" PRINT:   Origin of data
 UWI .     49025106090000:   Unique Well ID
 DICO. A2D TECHNOLOGIES, INC.:   Digitizing Company
 BSD1.               3963:   Depth drilled with bit1
 MCSS.               TEST:   Source Rmc.
 EPD .               5249:   Elevation Permanent Datum
 LMF .                 KB:   Log Measured From
 DMF .                 KB:   Drilling Measured From
 TLI .                672:   Top log interval
~OTHER INFORMATION
~A   DEPT      SFL        ILD        ILM        SPR       CALD         GRD      RHOB       CORR         NPHI 
# ...
 1528.5000     9.5860     8.3090     8.7420   -27.2550    10.8310    92.3760     2.4990     0.0730     0.3000
 1529.0000     9.7150     8.3110     8.7880   -27.4270    10.7810    92.0250     2.5010     0.0750     0.3000
 1529.5000     9.8060     8.3140     8.8350   -27.6010    10.7780    91.5790     2.5020     0.0750     0.3000
 1530.0000     9.8970     8.3160     8.8820   -27.7720    10.7910    91.2100     2.5010     0.0690     0.3000
 1530.5000     9.8970     8.3190     8.9290   -27.9440    10.8270    90.7880     2.4870     0.0620     0.3000
 1531.0000     9.8970     8.3210     9.0220   -28.1160    10.8600    91.4780     2.4780     0.0550     0.3000
 1531.5000     9.8970     8.3240     8.9960   -28.2880    10.8940    92.3760     2.4710     0.0480     0.3000
 1532.0000     9.8970     8.3260     8.9780   -28.4600    10.9290    93.3190     2.4790     0.0470     0.3000
 1532.5000     9.8970     8.3280     8.9590   -28.6310    10.9310    93.7220     2.4860     0.0530     0.2990
 1533.0000     9.8970     8.3310     8.9410   -28.8030    10.8920    92.8760     2.4860     0.0680     0.3000
 1533.5000     9.8970     8.3330     8.9230   -28.9760    10.8560    92.0420     2.4860     0.0800     0.3000
 1534.0000     9.8970     8.3360     8.9040   -29.1570    10.8210    91.2280     2.4970     0.0860     0.2990
 1534.5000     9.8970     8.3380     8.8860   -29.4120    10.7740    90.3220     2.5070     0.0940     0.3000
 1535.0000     9.8970     8.3410     8.8670   -29.3580    10.7310    89.7290     2.5190     0.1010     0.3000
 1535.5000     9.5680     8.3430     8.8560   -28.8560    10.7800    89.0390     2.5220     0.1060     0.3000
 1536.0000     9.2330     8.3460     8.8560   -28.5330    10.9240    89.1480     2.5150     0.1120     0.3030
 1536.5000     9.1910     8.3480     8.8570   -28.1980    11.0140    89.1010     2.5070     0.1110     0.3050
 1537.0000     9.4160     8.3510     8.8560   -27.8610    10.9110    89.1100     2.5120     0.1090     0.3080
 1537.5000     9.6260     8.3530     8.8560   -27.5230    10.7930    89.1160     2.5240     0.1140     0.3090
 1538.0000     9.1910     8.3560     8.7960   -27.1850    10.7460    89.1180     2.5270     0.1250     0.3110
 1538.5000     9.2760     8.3580     8.7350   -26.8470    10.7370    89.0910     2.5080     0.1320     0.3090
 1539.0000     9.1910     8.3600     8.6940   -26.5090    10.7380    89.3270     2.4910     0.1260     0.3070
 1539.5000     9.2530     8.3630     8.6940   -26.1570    10.7760    89.8000     2.4830     0.1110     0.3050
 1540.0000     9.3200     8.3650     8.7420   -26.1450    10.8310    90.2180     2.5000     0.1000     0.3040
 1540.5000     9.3870     8.3680     8.8240   -26.2780    10.8860    90.7660     2.5160     0.0970     0.3050
 1541.0000     9.4540     8.3700     8.9050   -26.4150    10.9400    89.8760     2.5280     0.1000     0.3060
 1541.5000     9.5210     8.3730     8.9870   -26.5500    10.9960    88.1080     2.5330     0.1170     0.3070
 1542.0000     9.6260     8.3750     9.0220   -26.6850    11.0220    86.2730     2.5290     0.1260     0.3080
 1542.5000     9.8060     8.3780     8.9460   -26.8200    10.9850    86.5600     2.5170     0.1280     0.3080
 1543.0000     9.6290     8.3780     8.8910   -26.9550    10.9350    87.6450     2.5170     0.1290     0.3080
 1543.5000     9.4580     8.3780     8.8350   -27.0910    10.8870    88.6730     2.5040     0.1240     0.3080
 1544.0000     9.2880     8.3780     8.7800   -27.2260    10.8380    89.6540     2.4910     0.1190     0.3080
 1544.5000     9.1170     8.3780     8.7250   -27.3610    10.7890    90.6870     2.5040     0.1110     0.3040
 1545.0000     8.9390     8.3780     8.6940   -27.4970    10.7400    91.6970     2.5170     0.1150     0.3000
 1545.5000     9.4290     8.3780     8.8750   -27.6350    10.6910    92.6950     2.5250     0.1150     0.2940
 1546.0000     9.8060     8.3780     9.1060   -27.4950    10.6420    93.7310     2.5220     0.1120     0.2880
 1546.5000     9.5370     8.3780     9.0800   -27.3070    10.5930    94.7350     2.5210     0.1080     0.2820
 1547.0000     9.3620     8.3780     9.0520   -27.1200    10.5460    95.6880     2.5220     0.1110     0.2770
 1547.5000     9.3620     8.3780     9.0250   -26.9330    10.4930    96.9340     2.5360     0.1170     0.2780
 1548.0000     9.4610     8.3780     9.0220   -26.7470    10.4540    95.3870     2.5500     0.1200     0.2830
 1548.5000     9.5730     8.3780     9.1440   -26.5610    10.3790    91.5440     2.5440     0.1170     0.2880
 1549.0000     9.6840     8.3780     9.2750   -26.3690    10.3690    90.6860     2.5330     0.1140     0.2920
 1549.5000     9.7960     8.3780     9.4060   -26.1180    10.3290    91.4400     2.5230     0.1130     0.3000
 1550.0000     9.9890     8.3780     9.4490   -26.1580    10.3370    92.3330     2.5160     0.1210     0.3040
 1550.5000     9.9890     8.3780     9.3330   -26.2640    10.3330    93.2410     2.5330     0.1280     0.3090
 1551.0000     9.8270     8.3780     9.2550   -26.3670    10.3420    93.9510     2.5420     0.1370     0.3100
 1551.5000     9.6840     8.3780     9.1760   -26.4690    10.3580    94.1050     2.5370     0.1420     0.3060
 1552.0000     9.5420     8.3780     9.0980   -26.5710    10.3720    94.2420     2.5280     0.1340     0.3040
 1552.5000     9.3990     8.3780     9.0190   -26.6630    10.3860    94.3990     2.5190     0.1210     0.3020
 1553.0000     9.2760     8.3780     8.9390   -26.5710    10.4010    94.4840     2.5090     0.1070     0.3010
 1553.5000     9.1910     8.3780     8.8560   -26.4110    10.4150    94.6740     2.5020     0.0990     0.3020
 1554.0000     9.2280     8.3780     8.8560   -26.2520    10.4300    94.9450     2.5070     0.0970     0.3020
 1554.5000     9.3760     8.3780     8.8560   -26.0320    10.4440    97.2360     2.5160     0.0990     0.3010
 1555.0000     9.5230     8.3780     8.8560   -25.8930    10.4550    99.1690     2.5240     0.1060     0.2970
 1555.5000     9.6710     8.3780     8.9450   -25.6710    10.4570   101.2000     2.5320     0.1120     0.2930
 1556.0000     9.8190     8.3780     9.0600   -25.6790    10.4430   103.2470     2.5270     0.1200     0.2890
 1556.5000     9.9660     8.3780     9.1750   -26.1450    10.4180   105.1990     2.5230     0.1060     0.2840
 1557.0000    10.1140     8.3790     9.2900   -26.8200    10.3950   103.9760     2.5220     0.0930     0.2830
 1557.5000    10.2610     8.3780     9.4050   -27.5110    10.3720    97.9770     2.5270     0.0930     0.2830
 1558.0000    10.4090     8.8390     9.5200   -27.4380    10.3490    92.1460     2.5260     0.0960     0.2860
 1558.5000    10.5560     9.1340     9.8060   -26.9480    10.3260    91.7020     2.5220     0.0990     0.2880
 1559.0000    10.6580     9.4490     9.7780   -26.4600    10.3020    94.5690     2.5100     0.1000     0.2910
 1559.5000    10.5910     9.4490     9.7230   -25.9770    10.2790    97.4900     2.4990     0.1000     0.2990
 1560.0000    10.5410     9.3550     9.6670   -25.7330    10.2560   100.9660     2.4950     0.1000     0.3020
 1560.5000    10.4900     9.2570     9.6120   -26.0220    10.2300   101.1380     2.5150     0.1000     0.3060
 1561.0000    10.4390     9.1600     9.5570   -26.3010    10.2180   101.0790     2.5370     0.1000     0.3120
 1561.5000    10.3890     9.0630     9.5020   -26.5810    10.1810    98.7490     2.5610     0.1020     0.3090
 1562.0000    10.3380     8.9390     9.4470   -26.8610    10.1730    96.6020     2.5540     0.1040     0.3040
 1562.5000    10.2870     8.9840     9.3910   -27.1410    10.1730    96.2500     2.5440     0.1080     0.3020
 1563.0000    10.2700     9.0290     9.3620   -27.4210    10.1780    97.9810     2.5310     0.1050     0.3010
 1563.5000    10.1760     9.0750     9.5070   -27.7000    10.1810    99.2840     2.5290     0.0990     0.3010
 1564.0000    10.1760     9.1200     9.5610   -27.9800    10.1860    95.8780     2.5400     0.0960     0.3010
 1564.5000    10.2700     9.1650     9.6140   -28.2600    10.1900    92.2220     2.5390     0.0960     0.3020
