~VERSION INFORMATION
 VERS.                2.0:   CWLS LOG ASCII STANDARD - VERSION 2.0
 WRAP.                 NO:   ONE LINE PER DEPTH STEP
~WELL INFORMATION
#MNEM.UNIT      DATA TYPE    INFORMATION
#----------   ------------   ------------------------------
 STRT.F          616.0000:   START DEPTH
 STOP.F         3968.0000:   STOP DEPTH
 STEP.F            0.5000:   STEP LENGTH
 NULL.          -999.2500:   NO VALUE
 COMP.    FENIX & SCISSON:   COMPANY
 WELL.  FENIX "DX" #71-15:   WELL
 FLD .           N P R #3:   FIELD
 LOC .      S15 T38N R78W:   LOCATION
 CNTY.            NATRONA:   COUNTY
 STAT.            WYOMING:   STATE
 CTRY. UNITED STATES OF AMERICA:   COUNTRY
 SRVC.              WELEX:   SERVICE COMPANY
 DATE.        23-MAR-1979:   LOGDATE
 API .     49025106090000:   API NUMBER
~CURVE INFORMATION
#MNEM.UNIT       API CODE    CURVE DESCRIPTION
#----------   ------------   ------------------------------
 DEPT.F                  :   
 SFL .OHMM   07 220 01 00:   SHALLOW FOCUSED LOG RESISTIVITY
 ILD .OHMM   07 120 46 00:   DEEP INDUCTION RESISTIVITY
 ILM .OHMM   07 120 44 00:   INDUCTION LOG MEDIUM RESISTIVITY
 SPR .MV     07 010 01 00:   SPONTANEOUS POTENTIAL
 CALD.IN     45 280 60 00:   CALIPER FROM DENSITY LOG
 GRD .GAPI   45 310 01 00:   GAMMA RAY FROM DENSITY LOG
 RHOB.G/C3   45 350 01 00:   BULK DENSITY
 CORR.G/C3   45 356 01 00:   DENSITY CORRECTION
 NPHI.DEC    42 890 03 00:   NEUTRON POROSITY SANDSTONE
~PARAMETER INFORMATION
#MNEM.UNIT          VALUE    DESCRIPTION
#----------   ------------   ------------------------------
 EKB .F         5259.0000:   Kelly bushing
 EGL .F         5249.0000:   Ground level
 EDF .F            0.0000:   Drilling floor
 TD  .F         3963.0000:   Total depth
 DATE.        23-MAR-1979:   Date logged
 CLNT.            A2DTECH:   Client Code
 SL  . 380' FNL & 733' FEL:   Surface Location
 PD  .                 GL:   Permanent Datum
 DD  .F              3963:   Depth driller
 DL  .F              3954:   Depth logger
 BLI .F              3952:   Bottom log interval
 CS1 .IN            9.625:   Casing size
 CBD1.      9.625" @ 686':   Casing driller 1
 CBL1.F               672:   Casing logger 1
 BS1 .IN            7.875:   Bit size
 DFT .           CHEM-GEL:   Type fluid in hole
 DFD .                8.9:   Density
 DFV .                 44:   Viscosity
 DFPH.                 10:   pH
 DFL .                6.8:   Fluid loss
 MSS .            MUD PIT:   Source of sample
 RMS .OHMM              2:   Rm
 MST .F                62:   Rm Meas. temp.
 RMF .OHMM           1.80:   Rmf
 MFST.F                62:   Rmf Meas. temp.
 RMC .OHMM            2.6:   Rmc
 MCST.F                62:   Rmc Meas. temp.
 MFSS.               FANN:   Source Rmf.
 RMB .OHMM           0.97:   Rm. at BHT
 BHT .F               128:   BHT.
 TCS .HRS               2:   Time Circ. stopped
 MRT .F               128:   Maximum recorded temp.
 LUN .               1892:   Logging unit number
 LUL .             CASPER:   Logging unit location
 ENGI.         C. TOTHILL:   Recorded By
 WITN.              AMEND:   Witnessed by
 ORIG.     2.5", 5" PRINT:   Origin of data
 UWI .     49025106090000:   Unique Well ID
 DICO. A2D TECHNOLOGIES, INC.:   Digitizing Company
 BSD1.               3963:   Depth drilled with bit1
 MCSS.               TEST:   Source Rmc.
 EPD .               5249:   Elevation Permanent Datum
 LMF .                 KB:   Log Measured From
 DMF .                 KB:   Drilling Measured From
 TLI .                672:   Top log interval
~OTHER INFORMATION
~A   DEPT      SFL        ILD        ILM        SPR       CALD         GRD      RHOB       CORR         NPHI 
# ...
 1309.5000    10.3040     9.2760     9.7860   -30.8970    11.0340    94.7040     2.5380     0.0640     0.2450
 1310.0000    10.3300     9.2500     9.7580   -30.4330    11.0360    94.2860     2.5400     0.0710     0.2480
 1310.5000    10.3680     9.2310     9.7300   -29.9700    11.0390    93.8840     2.5260     0.0760     0.2510
 1311.0000    10.4620     9.2110     9.7030   -29.5020    11.0410    93.4790     2.5220     0.0770     0.2540
 1311.5000    10.4160     9.1920     9.6750   -29.0240    11.0430    93.1240     2.5220     0.0770     0.2570
 1312.0000    10.3740     9.1730     9.6480   -29.0060    11.0450    93.5000     2.5130     0.0780     0.2570
 1312.5000    10.3320     9.1540     9.6200   -29.3270    11.0470    94.4670     2.5060     0.0790     0.2540
 1313.0000    10.2900     9.1340     9.5930   -29.6690    11.0490    95.4150     2.4980     0.0790     0.2500
 1313.5000    10.2480     9.1150     9.5650   -30.0090    11.0520    96.3530     2.4960     0.0800     0.2470
 1314.0000    10.2070     9.0960     9.5370   -30.3490    11.0540    97.3050     2.4940     0.0750     0.2430
 1314.5000    10.1650     9.0770     9.5250   -30.6900    11.0560    98.3020     2.4980     0.0690     0.2390
 1315.0000    10.1230     9.0570     9.4960   -31.0330    11.0580    98.8060     2.5090     0.0720     0.2340
 1315.5000    10.0810     9.0380     9.4670   -31.3300    11.0600    98.2740     2.5200     0.0910     0.2310
 1316.0000    10.0390     9.0220     9.4370   -31.0080    11.0570    97.8230     2.5310     0.0950     0.2280
 1316.5000     9.9970     9.0000     9.4080   -30.6790    11.0530    97.3370     2.5400     0.0980     0.2240
 1317.0000     9.9550     8.9770     9.3790   -30.3530    11.0480    96.8570     2.5450     0.1010     0.2250
 1317.5000     9.9130     8.9540     9.3500   -30.0210    11.0440    96.3830     2.5500     0.1040     0.2260
 1318.0000     9.8720     8.9310     9.3200   -30.1780    11.0400    95.8960     2.5570     0.1070     0.2260
 1318.5000     9.8300     8.9090     9.2910   -30.4140    11.0360    95.5520     2.5580     0.1100     0.2270
 1319.0000     9.8060     8.8860     9.2620   -30.6500    11.0310    95.7240     2.5490     0.1120     0.2300
 1319.5000     9.8060     8.8630     9.2330   -30.8880    11.0270    96.0710     2.5310     0.1130     0.2340
 1320.0000     9.8060     8.6940     9.2030   -31.1320    11.0230    96.4240     2.5080     0.1130     0.2370
 1320.5000     9.8060     8.6550     9.1910   -30.8020    11.0200    96.7250     2.4840     0.1130     0.2410
 1321.0000     9.8060     8.6040     9.1750   -30.3930    11.0200    97.0780     2.4730     0.1130     0.2440
 1321.5000     9.8060     8.5530     9.1070   -29.9840    11.0200    95.9090     2.4790     0.1130     0.2440
 1322.0000     9.8060     8.5010     9.0380   -29.5760    11.0280    94.0610     2.4880     0.1130     0.2410
 1322.5000     9.8060     8.4500     8.9700   -29.1660    11.0360    92.3460     2.4830     0.1130     0.2400
 1323.0000     9.8080     8.3980     8.9010   -28.7580    11.0450    90.8430     2.4700     0.1110     0.2390
 1323.5000     9.7150     8.3470     8.8330   -28.4340    11.0550    91.8910     2.4760     0.1080     0.2380
 1324.0000     9.6040     8.3010     8.7640   -28.6170    11.0560    93.3890     2.4970     0.1050     0.2390
 1324.5000     9.4940     8.1490     8.6960   -28.7910    11.0930    94.9940     2.5170     0.1010     0.2390
 1325.0000     9.3830     8.1250     8.6270   -28.9640    11.1000    95.6040     2.5270     0.1020     0.2400
 1325.5000     9.1910     8.0940     8.5350   -29.1370    11.0810    95.5640     2.5320     0.1040     0.2440
 1326.0000     9.1910     8.0640     8.5350   -29.3100    11.0550    95.5390     2.5360     0.1070     0.2470
 1326.5000     9.0220     8.0330     8.5350   -29.4830    11.0290    95.6010     2.5410     0.1090     0.2500
 1327.0000     9.0310     8.0020     8.5350   -29.6550    11.0200    95.6160     2.5370     0.1120     0.2490
 1327.5000     9.0430     7.9710     8.5350   -29.8280    11.0220    97.5010     2.5310     0.1100     0.2470
 1328.0000     9.0560     7.9410     8.5350   -30.0010    11.0440   100.0140     2.5250     0.1050     0.2460
 1328.5000     9.0680     7.9270     8.5350   -30.1740    11.0660   101.3540     2.5190     0.0980     0.2450
 1329.0000     9.0800     7.9480     8.5350   -30.3500    11.0900   100.9220     2.5110     0.0860     0.2470
 1329.5000     9.0920     7.9620     8.5350   -30.2340    11.1010   100.4930     2.5000     0.0760     0.2510
 1330.0000     9.1050     7.9770     8.5350   -30.0320    11.0890   100.0710     2.4980     0.0780     0.2540
 1330.5000     9.1170     7.9920     8.5350   -29.8280    11.0800    99.6290     2.4910     0.0790     0.2560
 1331.0000     9.1290     7.9990     8.5350   -29.6230    11.0700    99.2040     2.4830     0.0800     0.2560
 1331.5000     9.1410     8.0220     8.5350   -29.4200    11.0590    98.7710     2.4750     0.0800     0.2560
 1332.0000     9.1540     8.0470     8.5350   -29.2160    11.0490    98.3390     2.4650     0.0790     0.2570
 1332.5000     9.1660     8.0710     8.5350   -29.0110    11.0390    97.9070     2.4700     0.0780     0.2570
 1333.0000     9.1780     8.0950     8.5350   -28.8060    11.0290    97.4770     2.4840     0.0760     0.2570
 1333.5000     9.1910     8.1190     8.5330   -28.6220    11.0190    97.0450     2.4980     0.0740     0.2540
 1334.0000     9.2880     8.1440     8.6500   -28.7550    11.0090    96.6140     2.5070     0.0700     0.2510
 1334.5000     9.4510     8.1680     8.8420   -28.8950    10.9980    96.1860     2.5050     0.0670     0.2480
 1335.0000     9.6260     8.1920     8.9390   -29.0330    10.9880    95.7430     2.4970     0.0630     0.2470
 1335.5000     9.4970     8.2160     8.6940   -29.1710    10.9780    95.5530     2.4870     0.0600     0.2480
 1336.0000     9.3830     8.2410     8.6940   -29.3080    10.9680    95.8390     2.4810     0.0560     0.2540
 1336.5000     9.3620     8.2650     8.7090   -29.4460    10.9580    96.2030     2.4880     0.0530     0.2590
 1337.0000     9.4790     8.2890     8.7320   -29.5840    10.9470    96.5500     2.4930     0.0560     0.2620
 1337.5000     9.5890     8.3010     8.7630   -29.7220    10.9390    96.9270     2.4970     0.0610     0.2620
 1338.0000     9.7000     8.3010     8.7740   -29.8600    10.9280    97.2780     2.4880     0.0660     0.2570
 1338.5000     9.8060     8.3010     8.8610   -29.9970    10.9180    97.5890     2.4940     0.0720     0.2530
 1339.0000     9.6820     8.3010     8.8160   -30.1350    10.9090    98.1140     2.5010     0.0700     0.2510
 1339.5000     9.5630     8.3010     8.7880   -30.2730    10.8990    96.6200     2.5060     0.0670     0.2490
 1340.0000     9.4430     8.3010     8.7600   -30.4110    10.8890    94.2600     2.5000     0.0580     0.2470
 1340.5000     9.3240     8.3010     8.7310   -30.5470    10.8800    91.7640     2.4910     0.0580     0.2460
 1341.0000     9.2050     8.3010     8.7030   -30.4490    10.8700    93.0360     2.4820     0.0570     0.2410
 1341.5000     9.1910     8.3010     8.6940   -30.2050    10.8600    94.7070     2.4850     0.0570     0.2390
 1342.0000     9.2700     8.3010     8.7350   -29.9630    10.8500    96.5210     2.4900     0.0600     0.2360
 1342.5000     9.3780     8.3000     8.7720   -29.7200    10.8410    98.2240     2.4960     0.0630     0.2330
 1343.0000     9.4870     8.3000     8.8090   -29.4770    10.8310   100.0120     2.4930     0.0610     0.2300
 1343.5000     9.5950     8.3010     8.8460   -29.2340    10.8210   101.2200     2.4940     0.0570     0.2280
 1344.0000     9.7040     8.4930     8.9240   -28.9910    10.8120   101.1210     2.4970     0.0580     0.2270
 1344.5000     9.8120     8.6060     9.0540   -28.7530    10.8020   100.9920     2.5010     0.0640     0.2280
 1345.0000     9.9210     8.7190     9.1830   -28.6260    10.7920   100.8340     2.5020     0.0670     0.2290
 1345.5000    10.0290     8.8320     9.3130   -28.4200    10.7830   100.6830     2.5020     0.0610     0.2300
