~VERSION INFORMATION
 VERS.                2.0:   CWLS LOG ASCII STANDARD - VERSION 2.0
 WRAP.                 NO:   ONE LINE PER DEPTH STEP
~WELL INFORMATION
#MNEM.UNIT      DATA TYPE    INFORMATION
#----------   ------------   ------------------------------
 STRT.F          616.0000:   START DEPTH
 STOP.F         3968.0000:   STOP DEPTH
 STEP.F            0.5000:   STEP LENGTH
 NULL.          -999.2500:   NO VALUE
 COMP.    FENIX & SCISSON:   COMPANY
 WELL.  FENIX "DX" #71-15:   WELL
 FLD .           N P R #3:   FIELD
 LOC .      S15 T38N R78W:   LOCATION
 CNTY.            NATRONA:   COUNTY
 STAT.            WYOMING:   STATE
 CTRY. UNITED STATES OF AMERICA:   COUNTRY
 SRVC.              WELEX:   SERVICE COMPANY
 DATE.        23-MAR-1979:   LOGDATE
 API .     49025106090000:   API NUMBER
~CURVE INFORMATION
#MNEM.UNIT       API CODE    CURVE DESCRIPTION
#----------   ------------   ------------------------------
 DEPT.F                  :   
 SFL .OHMM   07 220 01 00:   SHALLOW FOCUSED LOG RESISTIVITY
 ILD .OHMM   07 120 46 00:   DEEP INDUCTION RESISTIVITY
 ILM .OHMM   07 120 44 00:   INDUCTION LOG MEDIUM RESISTIVITY
 SPR .MV     07 010 01 00:   SPONTANEOUS POTENTIAL
 CALD.IN     45 280 60 00:   CALIPER FROM DENSITY LOG
 GRD .GAPI   45 310 01 00:   GAMMA RAY FROM DENSITY LOG
 RHOB.G/C3   45 350 01 00:   BULK DENSITY
 CORR.G/C3   45 356 01 00:   DENSITY CORRECTION
 NPHI.DEC    42 890 03 00:   NEUTRON POROSITY SANDSTONE
~PARAMETER INFORMATION
#MNEM.UNIT          VALUE    DESCRIPTION
#----------   ------------   ------------------------------
 EKB .F         5259.0000:   Kelly bushing
 EGL .F         5249.0000:   Ground level
 EDF .F            0.0000:   Drilling floor
 TD  .F         3963.0000:   Total depth
 DATE.        23-MAR-1979:   Date logged
 CLNT.            A2DTECH:   Client Code
 SL  . 380' FNL & 733' FEL:   Surface Location
 PD  .                 GL:   Permanent Datum
 DD  .F              3963:   Depth driller
 DL  .F              3954:   Depth logger
 BLI .F              3952:   Bottom log interval
 CS1 .IN            9.625:   Casing size
 CBD1.      9.625" @ 686':   Casing driller 1
 CBL1.F               672:   Casing logger 1
 BS1 .IN            7.875:   Bit size
 DFT .           CHEM-GEL:   Type fluid in hole
 DFD .                8.9:   Density
 DFV .                 44:   Viscosity
 DFPH.                 10:   pH
 DFL .                6.8:   Fluid loss
 MSS .            MUD PIT:   Source of sample
 RMS .OHMM              2:   Rm
 MST .F                62:   Rm Meas. temp.
 RMF .OHMM           1.80:   Rmf
 MFST.F                62:   Rmf Meas. temp.
 RMC .OHMM            2.6:   Rmc
 MCST.F                62:   Rmc Meas. temp.
 MFSS.               FANN:   Source Rmf.
 RMB .OHMM           0.97:   Rm. at BHT
 BHT .F               128:   BHT.
 TCS .HRS               2:   Time Circ. stopped
 MRT .F               128:   Maximum recorded temp.
 LUN .               1892:   Logging unit number
 LUL .             CASPER:   Logging unit location
 ENGI.         C. TOTHILL:   Recorded By
 WITN.              AMEND:   Witnessed by
 ORIG.     2.5", 5" PRINT:   Origin of data
 UWI .     49025106090000:   Unique Well ID
 DICO. A2D TECHNOLOGIES, INC.:   Digitizing Company
 BSD1.               3963:   Depth drilled with bit1
 MCSS.               TEST:   Source Rmc.
 EPD .               5249:   Elevation Permanent Datum
 LMF .                 KB:   Log Measured From
 DMF .                 KB:   Drilling Measured From
 TLI .                672:   Top log interval
~OTHER INFORMATION
~A   DEPT      SFL        ILD        ILM        SPR       CALD         GRD      RHOB       CORR         NPHI 
# ...
 1090.5000    10.4970     9.0990     9.8060   -35.0170    10.1330    99.1730     2.5050     0.0320     0.2600
 1091.0000    10.4030     9.1170     9.8060   -35.2190    10.1330   101.4810     2.4960     0.0280     0.2630
 1091.5000    10.3100     9.1350     9.7780   -35.0440    10.1330   101.1440     2.4920     0.0270     0.2640
 1092.0000    10.2160     9.1530     9.7290   -34.6960    10.1330   101.5930     2.4920     0.0270     0.2650
 1092.5000    10.1230     9.1710     9.6800   -34.3450    10.1330    97.1780     2.4970     0.0270     0.2660
 1093.0000    10.0290     9.1900     9.6310   -33.9940    10.1330    97.2800     2.5070     0.0280     0.2650
 1093.5000     9.9360     9.1770     9.5810   -33.6440    10.1330    97.2460     2.5180     0.0340     0.2660
 1094.0000     9.8420     9.1500     9.5320   -33.3190    10.1330    95.8800     2.5280     0.0390     0.2690
 1094.5000     9.8040     9.1230     9.4830   -33.1300    10.1330    94.8390     2.5400     0.0450     0.2720
 1095.0000     9.7960     9.0960     9.4340   -33.6050    10.1340    95.7730     2.5510     0.0510     0.2750
 1095.5000     9.7890     9.0700     9.3850   -34.0840    10.1450    96.4850     2.5620     0.0570     0.2760
 1096.0000     9.7810     9.0430     9.3180   -34.4720    10.1560    96.9590     2.5680     0.0630     0.2750
 1096.5000     9.7730     8.9390     9.2350   -33.9770    10.1670    94.6310     2.5750     0.0690     0.2740
 1097.0000     9.7660     8.8050     9.1520   -33.4640    10.1780    92.4590     2.5750     0.0750     0.2730
 1097.5000     9.7580     8.6720     9.0690   -33.1040    10.1890    90.0730     2.5620     0.0690     0.2710
 1098.0000     9.7500     8.5390     8.9870   -33.9380    10.1990    89.0510     2.5360     0.0600     0.2720
 1098.5000     9.7430     8.4060     8.9040   -34.8160    10.2100    90.9210     2.5200     0.0510     0.2720
 1099.0000     9.7350     8.3010     8.8210   -34.1890    10.2210    93.3520     2.5190     0.0440     0.2730
 1099.5000     9.7270     8.2240     8.6940   -33.4750    10.2320    95.7590     2.5190     0.0410     0.2720
 1100.0000     9.7190     8.2240     8.7180   -32.7510    10.2430    98.1910     2.5200     0.0400     0.2710
 1100.5000     9.7120     8.2240     8.7460   -32.8780    10.2530   100.5960     2.5180     0.0380     0.2690
 1101.0000     9.7040     8.2240     8.7750   -33.0720    10.2540   102.9950     2.5090     0.0340     0.2700
 1101.5000     9.6960     8.2240     8.8030   -33.2610    10.2520   105.9010     2.5020     0.0260     0.2710
 1102.0000     9.6890     8.2240     8.8310   -33.4500    10.2450   105.9600     2.4930     0.0280     0.2740
 1102.5000     9.6810     8.2240     8.8590   -33.6380    10.2390   104.1820     2.4940     0.0270     0.2780
 1103.0000     9.6730     8.2240     8.8870   -33.8260    10.2320   102.2140     2.4980     0.0240     0.2820
 1103.5000     9.6660     8.2240     8.9150   -34.0150    10.2260   103.1250     2.5080     0.0120     0.2860
 1104.0000     9.6580     8.2240     8.9390   -34.2020    10.2190   104.5600     2.5230     0.0160     0.2910
 1104.5000     9.6500     8.2240     8.9310   -34.1500    10.2130   104.7540     2.5410     0.0180     0.2890
 1105.0000     9.6430     8.2240     8.9240   -33.8350    10.2060   103.1660     2.5370     0.0230     0.2860
 1105.5000     9.6350     8.2240     8.9170   -33.5210    10.2000   101.8120     2.5240     0.0080     0.2820
 1106.0000     9.6270     8.2240     8.9100   -33.2070    10.1930   100.3120     2.5130     0.0060     0.2810
 1106.5000     9.6190     8.2240     8.9030   -32.8970    10.1870    99.5100     2.5030     0.0030     0.2810
 1107.0000     9.6120     8.2240     8.8960   -32.5210    10.1800    99.8290     2.5020     0.0050     0.2810
 1107.5000     9.6040     8.2240     8.8890   -32.7890    10.1740   100.5700     2.5020     0.0090     0.2830
 1108.0000     9.5960     8.2240     8.8820   -33.5110    10.1670   101.3530     2.5090     0.0130     0.2840
 1108.5000     9.5890     8.2240     8.8750   -33.8500    10.1610   102.1550     2.5160     0.0220     0.2850
 1109.0000     9.5810     8.2240     8.8680   -33.7230    10.1540   102.8260     2.5180     0.0270     0.2870
 1109.5000     9.5730     8.2240     8.8610   -33.5960    10.1480   103.8290     2.5170     0.0240     0.2900
 1110.0000     9.5660     8.2240     8.8540   -33.4690    10.1420   101.4150     2.5130     0.0270     0.2940
 1110.5000     9.5580     8.2240     8.8470   -33.3440    10.1340    97.7980     2.5170     0.0330     0.2970
 1111.0000     9.5500     8.2240     8.8400   -33.4670    10.1470    95.3310     2.5240     0.0410     0.3000
 1111.5000     9.5430     8.2240     8.8330   -33.8180    10.1720    94.6890     2.5190     0.0490     0.3000
 1112.0000     9.5370     8.2240     8.8270   -34.1670    10.1950    93.8830     2.5020     0.0450     0.3000
 1112.5000     9.5370     8.2240     8.8200   -34.5180    10.2180    93.1830     2.4860     0.0340     0.3000
 1113.0000     9.5150     8.2110     8.8130   -34.8690    10.2410    92.4860     2.4700     0.0260     0.2990
 1113.5000     9.4920     8.1750     8.8060   -35.0710    10.2640    91.7320     2.4560     0.0240     0.2990
 1114.0000     9.4690     8.1390     8.7990   -34.6810    10.2870    91.8580     2.4590     0.0280     0.2990
 1114.5000     9.4460     8.1030     8.7920   -34.2470    10.3090    92.4490     2.4690     0.0310     0.2990
 1115.0000     9.4220     8.0670     8.7850   -33.8110    10.3340    94.0100     2.4790     0.0350     0.2990
 1115.5000     9.3990     8.0310     8.7780   -33.3770    10.3340    96.6480     2.4800     0.0390     0.3000
 1116.0000     9.3760     7.9950     8.7260   -32.9440    10.3350   100.0150     2.4990     0.0430     0.3000
 1116.5000     9.3180     7.9590     8.6410   -32.7050    10.3420    99.6930     2.5180     0.0470     0.2970
 1117.0000     9.2080     7.9250     8.5550   -33.0020    10.3860    95.5450     2.5110     0.0450     0.2940
 1117.5000     9.0990     7.8630     8.4700   -33.3260    10.4020    94.7490     2.5050     0.0410     0.2940
 1118.0000     8.9890     7.7800     8.3780   -33.6510    10.4250    94.9090     2.4990     0.0370     0.2930
 1118.5000     8.9390     7.7080     8.4140   -33.9780    10.4450    97.9520     2.5120     0.0350     0.2940
 1119.0000     9.0170     7.7860     8.4530   -34.2820    10.4660    99.9710     2.5110     0.0380     0.2940
 1119.5000     9.0980     7.8440     8.4920   -34.4870    10.4880   101.6920     2.5170     0.0430     0.2950
 1120.0000     9.1800     7.9020     8.5310   -34.3410    10.5090   101.1700     2.5270     0.0430     0.2930
 1120.5000     9.2610     7.9600     8.5700   -33.9060    10.5300    98.5330     2.5360     0.0410     0.2900
 1121.0000     9.3430     8.0180     8.6090   -33.4810    10.5510    96.0480     2.5370     0.0390     0.2880
 1121.5000     9.4240     8.0760     8.6470   -33.0540    10.5720    94.0080     2.5340     0.0360     0.2880
 1122.0000     9.5050     8.1340     8.6940   -33.1040    10.5750    93.8400     2.5340     0.0390     0.2870
 1122.5000     9.5370     8.1920     8.6880   -33.5150    10.5720    93.0040     2.5410     0.0440     0.2870
 1123.0000     9.5210     8.2240     8.6810   -33.9270    10.5690    93.2240     2.5420     0.0480     0.2840
 1123.5000     9.5080     8.2150     8.6740   -34.3410    10.5660    93.3720     2.5410     0.0530     0.2790
 1124.0000     9.4950     8.2060     8.6670   -34.7520    10.5630    98.0060     2.5430     0.0560     0.2760
 1124.5000     9.4820     8.1970     8.6600   -34.9850    10.5610   101.9280     2.5470     0.0560     0.2740
 1125.0000     9.4700     8.1880     8.6530   -34.6040    10.5580   101.4360     2.5500     0.0570     0.2720
 1125.5000     9.4570     8.1790     8.6460   -34.2400    10.5550   100.0310     2.5550     0.0570     0.2720
 1126.0000     9.4440     8.1700     8.6390   -33.8770    10.5520    98.4890     2.5610     0.0580     0.2720
 1126.5000     9.4310     8.1610     8.6320   -33.5130    10.5500    97.9670     2.5670     0.0580     0.2720
