~VERSION INFORMATION
 VERS.                2.0:   CWLS LOG ASCII STANDARD - VERSION 2.0
 WRAP.                 NO:   ONE LINE PER DEPTH STEP
~WELL INFORMATION
#MNEM.UNIT      DATA TYPE    INFORMATION
#----------   ------------   ------------------------------
 STRT.F          616.0000:   START DEPTH
 STOP.F         3968.0000:   STOP DEPTH
 STEP.F            0.5000:   STEP LENGTH
 NULL.          -999.2500:   NO VALUE
 COMP.    FENIX & SCISSON:   COMPANY
 WELL.  FENIX "DX" #71-15:   WELL
 FLD .           N P R #3:   FIELD
 LOC .      S15 T38N R78W:   LOCATION
 CNTY.            NATRONA:   COUNTY
 STAT.            WYOMING:   STATE
 CTRY. UNITED STATES OF AMERICA:   COUNTRY
 SRVC.              WELEX:   SERVICE COMPANY
 DATE.        23-MAR-1979:   LOGDATE
 API .     49025106090000:   API NUMBER
~CURVE INFORMATION
#MNEM.UNIT       API CODE    CURVE DESCRIPTION
#----------   ------------   ------------------------------
 DEPT.F                  :   
 SFL .OHMM   07 220 01 00:   SHALLOW FOCUSED LOG RESISTIVITY
 ILD .OHMM   07 120 46 00:   DEEP INDUCTION RESISTIVITY
 ILM .OHMM   07 120 44 00:   INDUCTION LOG MEDIUM RESISTIVITY
 SPR .MV     07 010 01 00:   SPONTANEOUS POTENTIAL
 CALD.IN     45 280 60 00:   CALIPER FROM DENSITY LOG
 GRD .GAPI   45 310 01 00:   GAMMA RAY FROM DENSITY LOG
 RHOB.G/C3   45 350 01 00:   BULK DENSITY
 CORR.G/C3   45 356 01 00:   DENSITY CORRECTION
 NPHI.DEC    42 890 03 00:   NEUTRON POROSITY SANDSTONE
~PARAMETER INFORMATION
#MNEM.UNIT          VALUE    DESCRIPTION
#----------   ------------   ------------------------------
 EKB .F         5259.0000:   Kelly bushing
 EGL .F         5249.0000:   Ground level
 EDF .F            0.0000:   Drilling floor
 TD  .F         3963.0000:   Total depth
 DATE.        23-MAR-1979:   Date logged
 CLNT.            A2DTECH:   Client Code
 SL  . 380' FNL & 733' FEL:   Surface Location
 PD  .                 GL:   Permanent Datum
 DD  .F              3963:   Depth driller
 DL  .F              3954:   Depth logger
 BLI .F              3952:   Bottom log interval
 CS1 .IN            9.625:   Casing size
 CBD1.      9.625" @ 686':   Casing driller 1
 CBL1.F               672:   Casing logger 1
 BS1 .IN            7.875:   Bit size
 DFT .           CHEM-GEL:   Type fluid in hole
 DFD .                8.9:   Density
 DFV .                 44:   Viscosity
 DFPH.                 10:   pH
 DFL .                6.8:   Fluid loss
 MSS .            MUD PIT:   Source of sample
 RMS .OHMM              2:   Rm
 MST .F                62:   Rm Meas. temp.
 RMF .OHMM           1.80:   Rmf
 MFST.F                62:   Rmf Meas. temp.
 RMC .OHMM            2.6:   Rmc
 MCST.F                62:   Rmc Meas. temp.
 MFSS.               FANN:   Source Rmf.
 RMB .OHMM           0.97:   Rm. at BHT
 BHT .F               128:   BHT.
 TCS .HRS               2:   Time Circ. stopped
 MRT .F               128:   Maximum recorded temp.
 LUN .               1892:   Logging unit number
 LUL .             CASPER:   Logging unit location
 ENGI.         C. TOTHILL:   Recorded By
 WITN.              AMEND:   Witnessed by
 ORIG.     2.5", 5" PRINT:   Origin of data
 UWI .     49025106090000:   Unique Well ID
 DICO. A2D TECHNOLOGIES, INC.:   Digitizing Company
 BSD1.               3963:   Depth drilled with bit1
 MCSS.               TEST:   Source Rmc.
 EPD .               5249:   Elevation Permanent Datum
 LMF .                 KB:   Log Measured From
 DMF .                 KB:   Drilling Measured From
 TLI .                672:   Top log interval
~OTHER INFORMATION
~A   DEPT      SFL        ILD        ILM        SPR       CALD         GRD      RHOB       CORR         NPHI 
# ...
 1747.5000     9.1940     7.8390     8.2450   -24.1800    10.1280   115.9980     2.3090     0.1160     0.3090
 1748.0000     9.1140     7.7960     8.1800   -24.2620    10.1600   119.7450     2.3430     0.1310     0.3090
 1748.5000     9.0340     7.7520     8.1490   -24.3440    10.1920   120.7470     2.3380     0.1330     0.3100
 1749.0000     8.9390     7.7080     8.2710   -24.4260    10.2250   118.3840     2.3430     0.1350     0.3070
 1749.5000     9.0090     7.8830     8.4000   -24.5080    10.2550   116.6090     2.3520     0.1460     0.3030
 1750.0000     9.1210     8.0730     8.5280   -24.5900    10.2940   114.3870     2.3560     0.1410     0.3000
 1750.5000     9.2340     8.1490     8.6140   -24.6750    10.2650   116.7250     2.3410     0.1220     0.2910
 1751.0000     9.3460     8.1490     8.4710   -24.6970    10.1820   120.0100     2.3630     0.1170     0.2930
 1751.5000     9.4590     7.9420     8.3470   -24.9030    10.1050   123.4980     2.4090     0.1270     0.2960
 1752.0000     9.5710     7.7930     8.2220   -24.6040    10.0230   123.5890     2.4040     0.1790     0.2960
 1752.5000     9.6260     7.6430     8.0970   -24.3170     9.9800   119.1090     2.3450     0.2100     0.2960
 1753.0000     9.5730     7.4940     7.9720   -24.0300     9.9810   114.2670     2.2350     0.1840     0.2980
 1753.5000     9.5180     7.3440     7.8470   -23.7440    10.0220   109.1580     2.1580     0.1430     0.3000
 1754.0000     9.4620     7.1940     7.7220   -23.5350    10.0650   104.2230     2.1850     0.1050     0.2970
 1754.5000     9.4070     7.0920     7.6370   -23.6330    10.0990   106.9390     2.2810     0.0690     0.2940
 1755.0000     9.3510     7.1550     7.6570   -23.7260    10.1660   111.7070     2.3750     0.0630     0.2900
 1755.5000     9.2950     7.2680     7.6750   -23.8190    10.1760   115.0030     2.4690     0.0740     0.2880
 1756.0000     9.2400     7.3810     7.6930   -23.9110    10.1330   114.7730     2.5030     0.1040     0.2920
 1756.5000     9.1060     7.4940     7.7080   -24.0030    10.0010   112.8170     2.4440     0.1180     0.2960
 1757.0000     9.0220     7.6070     7.9250   -24.0940     9.8490   110.5530     2.3760     0.1040     0.2980
 1757.5000     9.0890     7.7200     8.1040   -24.1860     9.8180   108.5910     2.3370     0.0770     0.2990
 1758.0000     9.2040     7.8330     8.2870   -24.2780     9.8810   111.0060     2.3720    -0.0060     0.3000
 1758.5000     9.3180     7.9460     8.4700   -24.3700    10.0520   116.9130     2.4970    -0.0310     0.2960
 1759.0000     9.4320     8.0600     8.6530   -24.4620     9.9270   117.3310     2.5370    -0.0050     0.2950
 1759.5000     9.5460     8.1730     8.8360   -24.5540     9.8410   113.1520     2.5320    -0.0090     0.2970
 1760.0000     9.6600     8.3010     8.9390   -24.6460     9.7290   115.3110     2.5290    -0.0050     0.2980
 1760.5000     9.7740     8.2200     8.8000   -24.7380     9.6860   122.8320     2.5330     0.0030     0.3000
 1761.0000     9.8970     8.1270     8.7040   -24.8310     9.6910   118.8300     2.5300     0.0090     0.3010
 1761.5000     9.9890     8.0340     8.6080   -24.9240     9.6880   117.0860     2.5210     0.0130     0.2990
 1762.0000     9.9740     7.9990     8.5350   -25.0160     9.7080   114.7040     2.5130     0.0250     0.2960
 1762.5000     9.9630     7.9990     8.5740   -24.9980     9.7610   112.0950     2.5030     0.0430     0.2930
 1763.0000     9.9520     8.1490     8.6060   -24.6100     9.8100   110.7110     2.4900     0.0430     0.2950
 1763.5000     9.9410     8.1580     8.6390   -24.2820     9.8640   111.8530     2.5000     0.0150     0.3000
 1764.0000     9.9300     8.1830     8.6710   -23.9560     9.8950   113.3570     2.5300    -0.0120     0.3010
 1764.5000     9.9190     8.2080     8.7030   -23.6170     9.8720   116.1700     2.5250    -0.0080     0.3030
 1765.0000     9.9080     8.2330     8.7350   -23.5700     9.8380   120.1660     2.5350     0.0020     0.3000
 1765.5000     9.8970     8.2580     8.7670   -23.6350     9.8060   121.1110     2.5540     0.0110     0.2930
 1766.0000     9.8970     8.2830     8.7990   -23.7020     9.7740   119.5360     2.5720     0.0210     0.2920
 1766.5000    10.2080     8.3080     8.8310   -23.7690     9.7410   118.1620     2.5910     0.0290     0.2900
 1767.0000    10.5080     8.3330     8.8630   -23.8350     9.7090   116.7000     2.6140     0.0390     0.2920
 1767.5000    10.8570     8.3580     8.8950   -23.9020     9.6760   115.3310     2.6090     0.0380     0.2950
 1768.0000    11.0600     8.3780     8.9280   -23.9680     9.6450   113.7650     2.6040     0.0360     0.2980
 1768.5000    10.5180     8.3780     8.9390   -24.0350     9.6110   112.4370     2.6110     0.0460     0.3000
 1769.0000    10.0740     8.3100     8.9150   -24.1010     9.6100   112.0880     2.6080     0.0520     0.3000
 1769.5000     9.6290     8.2640     8.8670   -24.1680     9.6100   118.4900     2.6050     0.0480     0.2980
 1770.0000     9.3620     8.2170     8.8190   -24.2340     9.6460   124.6640     2.6090     0.0670     0.2950
 1770.5000     9.2760     8.1710     8.7720   -24.3000     9.6860   125.6840     2.6150     0.0930     0.2950
 1771.0000     9.3050     8.1240     8.7240   -24.3670     9.7270   120.4140     2.6130     0.1200     0.2990
 1771.5000     9.3330     8.0780     8.6760   -24.4330     9.7680   115.4020     2.6050     0.1410     0.2990
 1772.0000     9.3600     8.0310     8.6280   -24.5030     9.8090   113.2410     2.5960     0.1470     0.2990
 1772.5000     9.3880     7.9850     8.5810   -24.3760     9.8490   115.0550     2.5650     0.1530     0.2990
 1773.0000     9.4150     7.9380     8.5330   -24.1650     9.8900   117.5450     2.5320     0.1590     0.3000
 1773.5000     9.4430     7.9250     8.4850   -23.9510     9.9300   119.8600     2.5000     0.1570     0.3020
 1774.0000     9.4490     7.9250     8.4560   -23.7380     9.9710   122.3840     2.4830     0.1540     0.3040
 1774.5000     9.6260     7.9250     8.4560   -23.5590    10.0120   119.9030     2.4590     0.1570     0.3030
 1775.0000     9.6260     7.9260     8.4560   -22.9950    10.0520   115.4460     2.4360     0.1560     0.3000
 1775.5000     9.5140     7.9270     8.4560   -23.0290    10.0930   115.1440     2.4120     0.1420     0.3000
 1776.0000     9.3890     7.7770     8.4560   -23.1040    10.1340   121.3570     2.3940     0.1280     0.2960
 1776.5000     9.2650     7.7830     8.4560   -23.1800    10.1750   116.1850     2.3840     0.1120     0.2900
 1777.0000     9.1410     7.7790     8.4560   -23.2550    10.2150   118.4120     2.3910     0.1010     0.2840
 1777.5000     9.0170     7.8180     8.4560   -23.3290    10.2510   123.7330     2.3970     0.0930     0.2790
 1778.0000     8.9390     7.8520     8.4560   -23.4040    10.2520   122.1890     2.4390     0.0770     0.2780
 1778.5000     8.9390     7.8870     8.4570   -23.4790    10.1860   119.0190     2.5060     0.0580     0.2780
 1779.0000     9.0610     7.9220     8.4560   -23.5530    10.1040   119.0600     2.5100     0.0380     0.2800
 1779.5000     9.5140     7.9240     8.3450   -23.6280    10.0220   123.5180     2.5300     0.0320     0.2830
 1780.0000     9.8060     7.9270     8.2190   -23.7030     9.9410   127.1610     2.5400     0.0360     0.2950
 1780.5000     9.8060     7.8520     8.0940   -23.7770     9.8610   130.3770     2.5360     0.0500     0.3000
 1781.0000     9.6340     7.6480     7.9130   -23.8520     9.7750   122.2580     2.5330     0.0620     0.3050
 1781.5000     9.2550     7.4210     7.7200   -23.9260     9.7790   119.0970     2.5180     0.0830     0.3090
 1782.0000     8.8760     7.1930     7.5280   -24.0010     9.8170   115.6870     2.5050     0.1080     0.3050
 1782.5000     8.4970     6.9660     7.3350   -24.0760     9.8810   112.6130     2.4430     0.1240     0.3000
 1783.0000     8.1180     6.7380     7.1430   -24.1500     9.9590   110.5910     2.3850     0.1070     0.2940
 1783.5000     7.8520     6.5110     6.8980   -24.2250    10.0400   110.5280     2.3200     0.0650     0.2880
