~VERSION INFORMATION
 VERS.                2.0:   CWLS LOG ASCII STANDARD - VERSION 2.0
 WRAP.                 NO:   ONE LINE PER DEPTH STEP
~WELL INFORMATION
#MNEM.UNIT      DATA TYPE    INFORMATION
#----------   ------------   ------------------------------
 STRT.F          616.0000:   START DEPTH
 STOP.F         3968.0000:   STOP DEPTH
 STEP.F            0.5000:   STEP LENGTH
 NULL.          -999.2500:   NO VALUE
 COMP.    FENIX & SCISSON:   COMPANY
 WELL.  FENIX "DX" #71-15:   WELL
 FLD .           N P R #3:   FIELD
 LOC .      S15 T38N R78W:   LOCATION
 CNTY.            NATRONA:   COUNTY
 STAT.            WYOMING:   STATE
 CTRY. UNITED STATES OF AMERICA:   COUNTRY
 SRVC.              WELEX:   SERVICE COMPANY
 DATE.        23-MAR-1979:   LOGDATE
 API .     49025106090000:   API NUMBER
~CURVE INFORMATION
#MNEM.UNIT       API CODE    CURVE DESCRIPTION
#----------   ------------   ------------------------------
 DEPT.F                  :   
 SFL .OHMM   07 220 01 00:   SHALLOW FOCUSED LOG RESISTIVITY
 ILD .OHMM   07 120 46 00:   DEEP INDUCTION RESISTIVITY
 ILM .OHMM   07 120 44 00:   INDUCTION LOG MEDIUM RESISTIVITY
 SPR .MV     07 010 01 00:   SPONTANEOUS POTENTIAL
 CALD.IN     45 280 60 00:   CALIPER FROM DENSITY LOG
 GRD .GAPI   45 310 01 00:   GAMMA RAY FROM DENSITY LOG
 RHOB.G/C3   45 350 01 00:   BULK DENSITY
 CORR.G/C3   45 356 01 00:   DENSITY CORRECTION
 NPHI.DEC    42 890 03 00:   NEUTRON POROSITY SANDSTONE
~PARAMETER INFORMATION
#MNEM.UNIT          VALUE    DESCRIPTION
#----------   ------------   ------------------------------
 EKB .F         5259.0000:   Kelly bushing
 EGL .F         5249.0000:   Ground level
 EDF .F            0.0000:   Drilling floor
 TD  .F         3963.0000:   Total depth
 DATE.        23-MAR-1979:   Date logged
 CLNT.            A2DTECH:   Client Code
 SL  . 380' FNL & 733' FEL:   Surface Location
 PD  .                 GL:   Permanent Datum
 DD  .F              3963:   Depth driller
 DL  .F              3954:   Depth logger
 BLI .F              3952:   Bottom log interval
 CS1 .IN            9.625:   Casing size
 CBD1.      9.625" @ 686':   Casing driller 1
 CBL1.F               672:   Casing logger 1
 BS1 .IN            7.875:   Bit size
 DFT .           CHEM-GEL:   Type fluid in hole
 DFD .                8.9:   Density
 DFV .                 44:   Viscosity
 DFPH.                 10:   pH
 DFL .                6.8:   Fluid loss
 MSS .            MUD PIT:   Source of sample
 RMS .OHMM              2:   Rm
 MST .F                62:   Rm Meas. temp.
 RMF .OHMM           1.80:   Rmf
 MFST.F                62:   Rmf Meas. temp.
 RMC .OHMM            2.6:   Rmc
 MCST.F                62:   Rmc Meas. temp.
 MFSS.               FANN:   Source Rmf.
 RMB .OHMM           0.97:   Rm. at BHT
 BHT .F               128:   BHT.
 TCS .HRS               2:   Time Circ. stopped
 MRT .F               128:   Maximum recorded temp.
 LUN .               1892:   Logging unit number
 LUL .             CASPER:   Logging unit location
 ENGI.         C. TOTHILL:   Recorded By
 WITN.              AMEND:   Witnessed by
 ORIG.     2.5", 5" PRINT:   Origin of data
 UWI .     49025106090000:   Unique Well ID
 DICO. A2D TECHNOLOGIES, INC.:   Digitizing Company
 BSD1.               3963:   Depth drilled with bit1
 MCSS.               TEST:   Source Rmc.
 EPD .               5249:   Elevation Permanent Datum
 LMF .                 KB:   Log Measured From
 DMF .                 KB:   Drilling Measured From
 TLI .                672:   Top log interval
~OTHER INFORMATION
~A   DEPT      SFL        ILD        ILM        SPR       CALD         GRD      RHOB       CORR         NPHI 
# ...
 3463.0000     4.9430     3.8730     4.1180   -17.3450     8.1330   177.8540     2.4850    -0.0240     0.2240
 3463.5000     5.0130     3.8660     4.1260   -16.9260     8.1290   169.9900     2.4930    -0.0130     0.2230
 3464.0000     5.2250     3.8600     4.1340   -16.7130     8.1260   161.3620     2.5160    -0.0020     0.2240
 3464.5000     5.1180     3.8550     4.1420   -16.5100     8.1220   160.8140     2.5400     0.0100     0.2250
 3465.0000     4.9890     3.8480     4.1460   -16.6290     8.1190   162.5830     2.5520     0.0160     0.2260
 3465.5000     5.0890     3.8040     3.9980   -16.8420     8.1160   164.5890     2.5430     0.0110     0.2260
 3466.0000     5.2250     3.7100     3.9220   -17.0590     8.1120   166.2820     2.5170     0.0040     0.2260
 3466.5000     5.2740     3.8430     4.1230   -17.2750     8.1090   168.3910     2.4980    -0.0010     0.2250
 3467.0000     5.2690     3.9950     4.3020   -17.4900     8.1050   167.5340     2.4960     0.0000     0.2240
 3467.5000     5.2440     3.9950     4.2380   -17.7080     8.1020   164.6730     2.4940     0.0030     0.2230
 3468.0000     5.2180     3.8900     4.1730   -17.9280     8.0980   161.9190     2.4920     0.0060     0.2230
 3468.5000     5.1930     3.8060     4.1090   -18.2780     8.0950   160.7680     2.5170     0.0080     0.2250
 3469.0000     5.1300     3.7210     4.0440   -18.2650     8.0910   162.1610     2.5380     0.0110     0.2270
 3469.5000     5.0540     3.6370     3.9950   -18.2610     8.0880   169.1570     2.5250     0.0090     0.2290
 3470.0000     4.9600     3.5670     3.8650   -18.2140     8.0840   166.6670     2.5140     0.0040     0.2320
 3470.5000     4.8200     3.4790     3.7930   -18.0090     8.0810   162.1440     2.5200     0.0030     0.2340
 3471.0000     4.5880     3.3920     3.7210   -17.8130     8.0770   164.0260     2.5290     0.0040     0.2360
 3471.5000     4.3560     3.3050     3.6490   -17.6170     8.0740   172.7340     2.5380     0.0080     0.2360
 3472.0000     4.1460     3.2290     3.5770   -17.4200     8.0700   172.6630     2.5330     0.0120     0.2350
 3472.5000     4.1700     3.1830     3.5050   -17.2240     8.0670   172.3340     2.5270     0.0160     0.2320
 3473.0000     4.1970     3.1530     3.4330   -17.0270     8.0630   171.4730     2.5320     0.0200     0.2290
 3473.5000     4.2230     3.1230     3.3610   -16.8310     8.0600   171.1070     2.5430     0.0230     0.2250
 3474.0000     4.1140     3.0920     3.3420   -16.6390     8.0560   174.5490     2.5380     0.0280     0.2230
 3474.5000     3.9510     3.0620     3.3320   -16.4900     8.0530   181.2400     2.5250     0.0210     0.2240
 3475.0000     3.8500     3.0550     3.3220   -16.7040     8.0490   183.5470     2.5120     0.0090     0.2240
 3475.5000     4.0670     3.0400     3.3110   -16.9650     8.0460   179.4260     2.5000    -0.0020     0.2230
 3476.0000     4.3020     3.0250     3.3010   -17.2990     8.0430   171.4010     2.4870    -0.0010     0.2220
 3476.5000     4.1610     3.0110     3.2910   -17.6310     8.0390   163.2680     2.4820     0.0040     0.2160
 3477.0000     3.9630     2.9960     3.2800   -17.9630     8.0360   166.8010     2.4870     0.0090     0.2100
 3477.5000     3.8500     2.9820     3.2700   -18.2960     8.0330   171.4060     2.4920     0.0110     0.2040
 3478.0000     3.9140     2.9670     3.2590   -18.6240     8.0310   168.6040     2.4860     0.0030     0.1980
 3478.5000     4.0100     2.9530     3.2070   -18.8560     8.0290   162.7580     2.4750     0.0090     0.1970
 3479.0000     4.0700     2.9120     3.1410   -18.8000     8.0260   160.6820     2.4720     0.0210     0.1980
 3479.5000     4.0400     2.8310     3.0750   -18.6600     8.0240   162.8450     2.4770     0.0310     0.2010
 3480.0000     3.9160     2.7490     3.0090   -18.6380     8.0220   173.5430     2.4800     0.0430     0.2040
 3480.5000     3.7910     2.6670     2.9430   -18.3840     8.0190   174.1450     2.4820     0.0530     0.2110
 3481.0000     3.6670     2.5850     2.8900   -18.1350     8.0170   177.0480     2.4750     0.0570     0.2190
 3481.5000     3.5420     2.5380     2.8370   -17.8880     8.0150   181.2260     2.4620     0.0530     0.2220
 3482.0000     3.4130     2.4920     2.8370   -17.6410     8.0120   185.7160     2.4500     0.0750     0.2250
 3482.5000     2.2300     2.5360     2.9100   -17.3950     8.0100   189.9820     2.4340     0.0750     0.2230
 3483.0000     2.2710     2.6190     2.9670   -17.1480     8.0080   192.0370     2.4430     0.0650     0.2200
 3483.5000     3.3930     2.7030     3.0240   -16.9010     8.0050   186.4840     2.4760     0.0540     0.2170
 3484.0000     4.5140     2.7870     3.0810   -16.6540     8.0030   172.6870     2.5080     0.0440     0.2170
 3484.5000     5.6350     2.8630     3.1410   -16.4070     8.0010   159.3570     2.5230     0.0360     0.2190
 3485.0000     6.1160     2.9000     3.2290   -16.1560     7.9980   148.7370     2.5160     0.0390     0.2210
 3485.5000     6.0600     2.9480     3.2690   -16.1150     7.9960   144.3720     2.5180     0.0490     0.2200
 3486.0000     5.3530     2.9960     3.3180   -16.1000     7.9940   144.0560     2.5390     0.0590     0.2190
 3486.5000     4.3770     3.0440     3.3680   -16.3140     7.9910   145.3170     2.5230     0.0670     0.2190
 3487.0000     3.8500     3.0830     3.4170   -16.5520     7.9890   151.4790     2.4850     0.0580     0.2210
 3487.5000     3.8500     3.0830     3.4450   -16.8760     7.9870   162.3510     2.4500     0.0430     0.2190
 3488.0000     4.3510     3.0570     3.4290   -17.1990     7.9840   163.7250     2.4080     0.0120     0.2160
 3488.5000     4.8300     3.0330     3.4090   -17.5210     7.9820   158.7350     2.4330     0.0020     0.2140
 3489.0000     5.0350     3.0080     3.3760   -17.8440     7.9800   154.4610     2.4830     0.0260     0.2140
 3489.5000     4.9890     2.9840     3.3200   -18.1670     7.9770   151.4950     2.4940     0.0460     0.2180
 3490.0000     4.4720     2.9190     3.1360   -18.4560     7.9750   158.6400     2.4950     0.0650     0.2230
 3490.5000     3.5790     2.8110     3.0410   -18.4580     7.9730   169.7420     2.4810     0.0860     0.2290
 3491.0000     2.9990     2.7030     2.9470   -18.4590     7.9700   180.9160     2.4290     0.0960     0.2340
 3491.5000     2.9990     2.5950     2.8520   -18.3520     7.9680   190.2560     2.3750     0.0890     0.2380
 3492.0000     3.0260     2.5380     2.7850   -18.1860     7.9650   200.5830     2.3110     0.0670     0.2350
 3492.5000     3.0260     2.5620     2.7850   -18.0180     7.9630   200.6570     2.3160     0.0520     0.2310
 3493.0000     3.5610     2.6140     2.8530   -17.8500     7.9610   199.7060     2.3410     0.0160     0.2290
 3493.5000     4.4490     2.7600     3.0740   -17.6820     7.9590   186.8280     2.4130     0.0000     0.2270
 3494.0000     5.0820     2.9060     3.2950   -17.5140     7.9560   162.9050     2.4820    -0.0090     0.2270
 3494.5000     5.2300     3.0530     3.5160   -17.3460     7.9560   146.8520     2.5520    -0.0130     0.2290
 3495.0000     5.2620     3.1990     3.7370   -17.1790     7.9560   155.3290     2.5430    -0.0190     0.2320
 3495.5000     5.2940     3.3370     3.8490   -17.0100     7.9640   161.7660     2.5330    -0.0190     0.2360
 3496.0000     5.3230     3.5200     3.9350   -16.8420     7.9700   167.6450     2.5280    -0.0110     0.2370
 3496.5000     5.1540     3.7030     4.0210   -16.6950     7.9770   164.3710     2.5340    -0.0040     0.2360
 3497.0000     4.9990     3.8860     4.1080   -16.6990     7.9840   158.9690     2.5420     0.0000     0.2340
 3497.5000     4.8520     3.9220     4.1140   -16.6990     7.9910   164.9820     2.5390     0.0030     0.2360
 3498.0000     4.8520     3.9220     4.1220   -16.6940     7.9970   165.7030     2.5350     0.0000     0.2370
 3498.5000     5.4470     3.9220     4.1290   -16.9440     8.0040   161.9350     2.5620    -0.0060     0.2340
 3499.0000     5.9480     3.9220     4.1370   -17.2840     8.0110   158.5210     2.5740    -0.0110     0.2310
