~VERSION INFORMATION
 VERS.                2.0:   CWLS LOG ASCII STANDARD - VERSION 2.0
 WRAP.                 NO:   ONE LINE PER DEPTH STEP
~WELL INFORMATION
#MNEM.UNIT      DATA TYPE    INFORMATION
#----------   ------------   ------------------------------
 STRT.F          616.0000:   START DEPTH
 STOP.F         3968.0000:   STOP DEPTH
 STEP.F            0.5000:   STEP LENGTH
 NULL.          -999.2500:   NO VALUE
 COMP.    FENIX & SCISSON:   COMPANY
 WELL.  FENIX "DX" #71-15:   WELL
 FLD .           N P R #3:   FIELD
 LOC .      S15 T38N R78W:   LOCATION
 CNTY.            NATRONA:   COUNTY
 STAT.            WYOMING:   STATE
 CTRY. UNITED STATES OF AMERICA:   COUNTRY
 SRVC.              WELEX:   SERVICE COMPANY
 DATE.        23-MAR-1979:   LOGDATE
 API .     49025106090000:   API NUMBER
~CURVE INFORMATION
#MNEM.UNIT       API CODE    CURVE DESCRIPTION
#----------   ------------   ------------------------------
 DEPT.F                  :   
 SFL .OHMM   07 220 01 00:   SHALLOW FOCUSED LOG RESISTIVITY
 ILD .OHMM   07 120 46 00:   DEEP INDUCTION RESISTIVITY
 ILM .OHMM   07 120 44 00:   INDUCTION LOG MEDIUM RESISTIVITY
 SPR .MV     07 010 01 00:   SPONTANEOUS POTENTIAL
 CALD.IN     45 280 60 00:   CALIPER FROM DENSITY LOG
 GRD .GAPI   45 310 01 00:   GAMMA RAY FROM DENSITY LOG
 RHOB.G/C3   45 350 01 00:   BULK DENSITY
 CORR.G/C3   45 356 01 00:   DENSITY CORRECTION
 NPHI.DEC    42 890 03 00:   NEUTRON POROSITY SANDSTONE
~PARAMETER INFORMATION
#MNEM.UNIT          VALUE    DESCRIPTION
#----------   ------------   ------------------------------
 EKB .F         5259.0000:   Kelly bushing
 EGL .F         5249.0000:   Ground level
 EDF .F            0.0000:   Drilling floor
 TD  .F         3963.0000:   Total depth
 DATE.        23-MAR-1979:   Date logged
 CLNT.            A2DTECH:   Client Code
 SL  . 380' FNL & 733' FEL:   Surface Location
 PD  .                 GL:   Permanent Datum
 DD  .F              3963:   Depth driller
 DL  .F              3954:   Depth logger
 BLI .F              3952:   Bottom log interval
 CS1 .IN            9.625:   Casing size
 CBD1.      9.625" @ 686':   Casing driller 1
 CBL1.F               672:   Casing logger 1
 BS1 .IN            7.875:   Bit size
 DFT .           CHEM-GEL:   Type fluid in hole
 DFD .                8.9:   Density
 DFV .                 44:   Viscosity
 DFPH.                 10:   pH
 DFL .                6.8:   Fluid loss
 MSS .            MUD PIT:   Source of sample
 RMS .OHMM              2:   Rm
 MST .F                62:   Rm Meas. temp.
 RMF .OHMM           1.80:   Rmf
 MFST.F                62:   Rmf Meas. temp.
 RMC .OHMM            2.6:   Rmc
 MCST.F                62:   Rmc Meas. temp.
 MFSS.               FANN:   Source Rmf.
 RMB .OHMM           0.97:   Rm. at BHT
 BHT .F               128:   BHT.
 TCS .HRS               2:   Time Circ. stopped
 MRT .F               128:   Maximum recorded temp.
 LUN .               1892:   Logging unit number
 LUL .             CASPER:   Logging unit location
 ENGI.         C. TOTHILL:   Recorded By
 WITN.              AMEND:   Witnessed by
 ORIG.     2.5", 5" PRINT:   Origin of data
 UWI .     49025106090000:   Unique Well ID
 DICO. A2D TECHNOLOGIES, INC.:   Digitizing Company
 BSD1.               3963:   Depth drilled with bit1
 MCSS.               TEST:   Source Rmc.
 EPD .               5249:   Elevation Permanent Datum
 LMF .                 KB:   Log Measured From
 DMF .                 KB:   Drilling Measured From
 TLI .                672:   Top log interval
~OTHER INFORMATION
~A   DEPT      SFL        ILD        ILM        SPR       CALD         GRD      RHOB       CORR         NPHI 
# ...
 2587.0000    10.0820     7.3850     7.8510   -23.2540     9.1650   125.1030     2.6010     0.0130     0.1880
 2587.5000     9.7070     7.2500     7.7800   -23.3260     9.1650   122.4420     2.5930     0.0120     0.1860
 2588.0000     9.4140     7.2250     7.7800   -23.2600     9.1650   119.1470     2.5840     0.0100     0.1890
 2588.5000     9.1200     7.2310     7.7800   -23.1220     9.1650   119.3110     2.5920     0.0080     0.1920
 2589.0000     8.8260     7.2380     7.7800   -22.9820     9.1650   119.4830     2.5990     0.0070     0.1920
 2589.5000     8.6940     7.2450     7.7800   -22.8430     9.1650   120.4890     2.5940     0.0050     0.1910
 2590.0000     8.9320     7.2520     7.7800   -22.7030     9.1650   119.8200     2.5880     0.0030     0.1900
 2590.5000     9.1750     7.2590     7.7800   -22.5640     9.1650   117.2720     2.5820     0.0030     0.1890
 2591.0000     9.4180     7.2670     7.7800   -22.4240     9.1650   114.5910     2.5740     0.0030     0.1880
 2591.5000     9.6260     7.2740     7.7800   -22.2850     9.1650   113.0630     2.5650     0.0030     0.1870
 2592.0000     9.5370     7.2810     7.7800   -22.1790     9.1650   114.7260     2.5610     0.0050     0.1850
 2592.5000     9.2740     7.2880     7.7790   -22.2820     9.1650   117.2100     2.5710     0.0060     0.1860
 2593.0000     9.0630     7.2920     7.7800   -22.3820     9.1650   119.6310     2.5770     0.0070     0.1880
 2593.5000     8.8530     7.1230     7.6520   -22.4810     9.1650   121.7670     2.5800     0.0090     0.1890
 2594.0000     8.6430     7.0070     7.4730   -22.5810     9.1650   124.3250     2.5730     0.0100     0.1910
 2594.5000     8.4330     6.8910     7.2950   -22.6800     9.1650   120.5780     2.5600     0.0120     0.1910
 2595.0000     8.2220     6.7760     7.1160   -22.7790     9.1670   119.0140     2.5580     0.0130     0.1920
 2595.5000     7.9990     6.6600     7.0600   -22.8790     9.1470   123.2870     2.5740     0.0140     0.1930
 2596.0000     8.1860     6.5440     6.9480   -22.9780     9.1000   125.3920     2.5790     0.0230     0.1960
 2596.5000     8.5430     6.4290     6.8360   -23.0770     9.0560   118.9670     2.5810     0.0370     0.1930
 2597.0000     8.8560     6.3470     6.7710   -23.1770     9.0110   114.2710     2.5890     0.0500     0.1880
 2597.5000     8.6710     6.5540     7.1880   -23.2760     8.9660   120.9300     2.6000     0.0630     0.1830
 2598.0000     8.5120     6.8770     7.3600   -23.3760     8.9210   118.1230     2.6020     0.0700     0.1700
 2598.5000     8.3780     7.0420     7.4280   -23.4710     8.8760   112.1410     2.5810     0.0740     0.1500
 2599.0000     8.3780     7.0840     7.6370   -23.5240     8.8320   111.9500     2.5670     0.0750     0.1360
 2599.5000    10.5150     7.7950     9.3260   -23.8570     8.7870   111.6890     2.5210     0.0700     0.1250
 2600.0000    16.2280    10.1200    11.5840   -24.1580     8.7420    95.9680     2.4460     0.0560     0.1250
 2600.5000    29.7780    12.1770    13.0650   -24.5190     8.6970    81.1490     2.4520     0.0500     0.1250
 2601.0000    29.7780    12.5090    13.1860   -24.3740     8.6520    61.6600     2.4590     0.0530     0.1250
 2601.5000    29.5040    12.7070    15.4910   -24.2310     8.6070    64.8130     2.4770     0.0640     0.1240
 2602.0000    23.8610    16.5770    18.7450   -24.0860     8.5630    68.9840     2.4940     0.0740     0.1280
 2602.5000    21.5370    17.6210    19.3300   -23.9410     8.5140    73.3700     2.4840     0.0760     0.1320
 2603.0000    21.5370    18.2360    20.0050   -23.7960     8.4690    68.7430     2.4690     0.0720     0.1350
 2603.5000    26.8100    18.7450    20.7540   -23.6510     8.4350    63.1170     2.4530     0.0680     0.1390
 2604.0000    30.3340    19.8660    21.7380   -23.5050     8.4570    66.3400     2.4350     0.0640     0.1410
 2604.5000    29.4330    21.4530    23.0640   -23.3650     8.4820    73.3030     2.4400     0.0640     0.1410
 2605.0000    28.4310    23.1930    24.5170   -23.4800     8.5080    79.8840     2.4510     0.0640     0.1400
 2605.5000    29.5860    23.1570    25.2080   -23.7670     8.5330    81.0330     2.4470     0.0640     0.1380
 2606.0000    30.6160    23.0870    24.7940   -24.0240     8.5590    83.1900     2.4380     0.0730     0.1360
 2606.5000    28.9420    23.0180    24.0680   -24.2830     8.5850    86.4600     2.4420     0.0850     0.1360
 2607.0000    28.6960    22.9790    24.4620   -24.5420     8.6100    89.9400     2.4470     0.0950     0.1370
 2607.5000    30.0550    23.5830    24.9380   -24.8020     8.6350    95.0030     2.4510     0.0790     0.1370
 2608.0000    30.6160    24.1550    25.4420   -25.0610     8.6610    92.9900     2.4310     0.0700     0.1340
 2608.5000    28.2820    24.5170    25.6740   -25.3190     8.6860    83.1680     2.4070     0.0600     0.1300
 2609.0000    26.8950    24.2890    25.9170   -25.5770     8.7120    85.0040     2.3860     0.0520     0.1260
 2609.5000    26.8950    24.0560    25.6790   -25.7290     8.7390    79.0240     2.4250     0.0560     0.1210
 2610.0000    27.1450    23.8460    25.6790   -25.8730     8.7560    82.3830     2.4610     0.0720     0.1170
 2610.5000    28.5620    24.4430    25.9170   -25.8850     8.7970    89.1970     2.4630     0.0740     0.1130
 2611.0000    29.8550    25.1050    26.1590   -26.0280     8.7720    82.2260     2.4530     0.0660     0.1100
 2611.5000    31.1470    25.7660    27.0380   -25.8970     8.6970    87.8870     2.4390     0.0490     0.1070
 2612.0000    32.3650    26.4270    27.9340   -25.5660     8.6220    85.9610     2.4250     0.0420     0.1040
 2612.5000    32.9540    27.0880    28.8310   -25.2370     8.5500    78.7970     2.4060     0.0320     0.1000
 2613.0000    33.6350    27.7500    29.7270   -24.9090     8.4800    77.4730     2.3980     0.0310     0.0970
 2613.5000    34.3160    28.4670    30.6240   -24.5810     8.3950    82.7150     2.4040     0.0320     0.0940
 2614.0000    34.8530    29.2810    31.5200   -24.2510     8.3520    80.0150     2.4110     0.0250     0.0910
 2614.5000    36.5040    30.0960    32.3650   -23.9360     8.2830    71.7940     2.4190     0.0240     0.0900
 2615.0000    38.0570    30.9100    34.3790   -23.9570     8.2800    65.4880     2.4280     0.0310     0.0890
 2615.5000    43.1220    31.7710    37.3720   -23.9930     8.2760    60.2830     2.4600     0.0400     0.0910
 2616.0000    49.5500    35.0410    40.3650   -24.0270     8.2790    54.6490     2.4900     0.0470     0.0980
 2616.5000    56.3710    40.7920    42.7250   -24.0610     8.2780    56.3500     2.4810     0.0550     0.1010
 2617.0000    60.1760    38.7330    41.5490   -24.0950     8.2780    61.5550     2.4600     0.0550     0.1030
 2617.5000    58.7020    31.9980    40.4160   -24.1590     8.2780    57.5940     2.4430     0.0540     0.1040
 2618.0000    57.4540    30.0550    33.8980   -24.3510     8.2780    49.0250     2.4250     0.0540     0.1040
 2618.5000    63.8160    32.3700    34.4470   -24.5400     8.2780    48.7650     2.4310     0.0530     0.1050
 2619.0000    69.1390    33.6790    35.4300   -24.7290     8.2780    50.0980     2.4390     0.0530     0.1050
 2619.5000    61.8700    34.1180    36.1670   -24.9170     8.2780    52.9260     2.4340     0.0520     0.1060
 2620.0000    61.3000    34.5570    36.5040   -25.1060     8.2780    55.8340     2.4380     0.0590     0.1030
 2620.5000    85.6450    35.3390    37.5080   -25.2950     8.2780    58.6590     2.4640     0.0680     0.1000
 2621.0000    86.4010    36.5440    38.4240   -25.4850     8.2780    61.8320     2.4670     0.0660     0.0940
 2621.5000    87.1420    37.7490    39.3400   -25.6740     8.2780    64.2550     2.4520     0.0600     0.0860
 2622.0000   110.8440    38.9550    40.7920   -25.6060     8.2780    69.8250     2.4710     0.0600     0.0820
 2622.5000   113.9750    40.0440    45.9610   -25.5200     8.2780    66.6990     2.4970     0.0610     0.0790
 2623.0000    91.2700    89.0610    52.2300   -25.4360     8.2780    64.9860     2.5220     0.0780     0.0780
