~VERSION INFORMATION
 VERS.                2.0:   CWLS LOG ASCII STANDARD - VERSION 2.0
 WRAP.                 NO:   ONE LINE PER DEPTH STEP
~WELL INFORMATION
#MNEM.UNIT      DATA TYPE    INFORMATION
#----------   ------------   ------------------------------
 STRT.F          616.0000:   START DEPTH
 STOP.F         3968.0000:   STOP DEPTH
 STEP.F            0.5000:   STEP LENGTH
 NULL.          -999.2500:   NO VALUE
 COMP.    FENIX & SCISSON:   COMPANY
 WELL.  FENIX "DX" #71-15:   WELL
 FLD .           N P R #3:   FIELD
 LOC .      S15 T38N R78W:   LOCATION
 CNTY.            NATRONA:   COUNTY
 STAT.            WYOMING:   STATE
 CTRY. UNITED STATES OF AMERICA:   COUNTRY
 SRVC.              WELEX:   SERVICE COMPANY
 DATE.        23-MAR-1979:   LOGDATE
 API .     49025106090000:   API NUMBER
~CURVE INFORMATION
#MNEM.UNIT       API CODE    CURVE DESCRIPTION
#----------   ------------   ------------------------------
 DEPT.F                  :   
 SFL .OHMM   07 220 01 00:   SHALLOW FOCUSED LOG RESISTIVITY
 ILD .OHMM   07 120 46 00:   DEEP INDUCTION RESISTIVITY
 ILM .OHMM   07 120 44 00:   INDUCTION LOG MEDIUM RESISTIVITY
 SPR .MV     07 010 01 00:   SPONTANEOUS POTENTIAL
 CALD.IN     45 280 60 00:   CALIPER FROM DENSITY LOG
 GRD .GAPI   45 310 01 00:   GAMMA RAY FROM DENSITY LOG
 RHOB.G/C3   45 350 01 00:   BULK DENSITY
 CORR.G/C3   45 356 01 00:   DENSITY CORRECTION
 NPHI.DEC    42 890 03 00:   NEUTRON POROSITY SANDSTONE
~PARAMETER INFORMATION
#MNEM.UNIT          VALUE    DESCRIPTION
#----------   ------------   ------------------------------
 EKB .F         5259.0000:   Kelly bushing
 EGL .F         5249.0000:   Ground level
 EDF .F            0.0000:   Drilling floor
 TD  .F         3963.0000:   Total depth
 DATE.        23-MAR-1979:   Date logged
 CLNT.            A2DTECH:   Client Code
 SL  . 380' FNL & 733' FEL:   Surface Location
 PD  .                 GL:   Permanent Datum
 DD  .F              3963:   Depth driller
 DL  .F              3954:   Depth logger
 BLI .F              3952:   Bottom log interval
 CS1 .IN            9.625:   Casing size
 CBD1.      9.625" @ 686':   Casing driller 1
 CBL1.F               672:   Casing logger 1
 BS1 .IN            7.875:   Bit size
 DFT .           CHEM-GEL:   Type fluid in hole
 DFD .                8.9:   Density
 DFV .                 44:   Viscosity
 DFPH.                 10:   pH
 DFL .                6.8:   Fluid loss
 MSS .            MUD PIT:   Source of sample
 RMS .OHMM              2:   Rm
 MST .F                62:   Rm Meas. temp.
 RMF .OHMM           1.80:   Rmf
 MFST.F                62:   Rmf Meas. temp.
 RMC .OHMM            2.6:   Rmc
 MCST.F                62:   Rmc Meas. temp.
 MFSS.               FANN:   Source Rmf.
 RMB .OHMM           0.97:   Rm. at BHT
 BHT .F               128:   BHT.
 TCS .HRS               2:   Time Circ. stopped
 MRT .F               128:   Maximum recorded temp.
 LUN .               1892:   Logging unit number
 LUL .             CASPER:   Logging unit location
 ENGI.         C. TOTHILL:   Recorded By
 WITN.              AMEND:   Witnessed by
 ORIG.     2.5", 5" PRINT:   Origin of data
 UWI .     49025106090000:   Unique Well ID
 DICO. A2D TECHNOLOGIES, INC.:   Digitizing Company
 BSD1.               3963:   Depth drilled with bit1
 MCSS.               TEST:   Source Rmc.
 EPD .               5249:   Elevation Permanent Datum
 LMF .                 KB:   Log Measured From
 DMF .                 KB:   Drilling Measured From
 TLI .                672:   Top log interval
~OTHER INFORMATION
~A   DEPT      SFL        ILD        ILM        SPR       CALD         GRD      RHOB       CORR         NPHI 
# ...
 3901.0000     7.7200     6.9240     7.4660   -18.4230     7.6900   134.3530     2.6450     0.0960     0.2000
 3901.5000     7.3450     6.4370     6.9080   -18.1940     7.7030   131.2260     2.6380     0.0970     0.2040
 3902.0000     6.9700     5.9500     6.3500   -18.0480     7.7160   128.4750     2.6320     0.0980     0.2050
 3902.5000     6.7710     5.4630     5.8760   -18.4820     7.7290   125.7060     2.6260     0.0990     0.2060
 3903.0000     7.0720     5.0470     5.6190   -18.8220     7.7420   122.8860     2.6240     0.0990     0.2060
 3903.5000     7.3600     4.7860     5.3620   -19.1620     7.7530   120.8000     2.6300     0.1000     0.2050
 3904.0000     7.2590     4.5240     5.1040   -19.5000     7.7540   123.1880     2.6380     0.0980     0.2030
 3904.5000     7.0860     4.2630     4.8470   -19.8380     7.7540   125.0370     2.6450     0.0930     0.2000
 3905.0000     6.9620     4.1840     4.8080   -20.1760     7.7540   122.0530     2.6540     0.0900     0.1980
 3905.5000     8.1220     4.3350     4.8080   -20.5140     7.7540   119.1940     2.6540     0.0850     0.1960
 3906.0000     8.8560     4.5050     4.9120   -20.8520     7.7540   117.3960     2.6520     0.0910     0.1920
 3906.5000     7.1580     4.6740     5.1080   -21.1900     7.7550   117.3740     2.6410     0.1060     0.1880
 3907.0000     7.0920     4.8440     5.3030   -21.5280     7.7440   117.2270     2.6290     0.1130     0.1840
 3907.5000     7.0920     5.0140     6.1540   -21.8690     7.7120   118.3870     2.6160     0.1100     0.1760
 3908.0000     7.9170     6.0470     7.3650   -21.9260     7.6820   120.8040     2.6040     0.1090     0.1670
 3908.5000    12.6160     7.2040     8.5760   -21.7370     7.6500   123.3410     2.5930     0.1030     0.1630
 3909.0000    16.6880     8.3780     9.8060   -21.5550     7.6190   126.0980     2.5890     0.0740     0.1640
 3909.5000    19.6900     8.4560     9.6100   -21.3730     7.5920   127.5170     2.5890     0.0490     0.1650
 3910.0000    21.9400     8.3780     9.4490   -21.1910     7.5970   129.9120     2.5940     0.0210     0.1650
 3910.5000    19.7720     8.8310     9.4490   -21.0090     7.5600   132.5700     2.6150     0.0160     0.1660
 3911.0000    18.0390     9.2650     9.9870   -20.8260     7.5540   135.4060     2.6460     0.0470     0.1670
 3911.5000    16.8010     9.6980    10.4790   -20.6330     7.5850   137.9820     2.6410     0.0560     0.1670
 3912.0000    16.0270    10.1320    10.9710   -20.9020     7.6200   140.3870     2.6250     0.0560     0.1660
 3912.5000    15.2910    10.5660    11.3750   -21.2810     7.6540   137.1890     2.6090     0.0540     0.1610
 3913.0000    13.9440    10.9990    12.2550   -21.6630     7.6880   133.9000     2.6080     0.0650     0.1570
 3913.5000    10.2850    11.4330    13.1360   -22.0430     7.7130   130.3050     2.6080     0.0740     0.1520
 3914.0000     8.0510    11.8670    14.0160   -22.4230     7.7140   126.9950     2.6020     0.0840     0.1490
 3914.5000     7.9990    12.5670    14.8960   -22.8030     7.7020   123.1590     2.5860     0.0920     0.1440
 3915.0000    11.6040    13.6900    15.7770   -23.1840     7.6540   120.0030     2.5720     0.0910     0.1370
 3915.5000    14.6220    14.8130    16.6570   -23.5640     7.6070   117.1340     2.5530     0.0840     0.1310
 3916.0000    17.6390    15.9360    17.4870   -23.9450     7.5590   119.8680     2.5670     0.0670     0.1160
 3916.5000    20.6570    17.0590    18.2900   -24.3270     7.5140   127.0670     2.6020     0.0770     0.0960
 3917.0000    23.6750    18.1820    19.0940   -24.6930     7.4610   122.6540     2.6080     0.0910     0.0930
 3917.5000    48.6360    19.2730    19.8970   -24.5220     7.4210   116.6660     2.5810     0.0930     0.0950
 3918.0000    45.0440    19.7470    20.7000   -24.0590     7.3890   120.1530     2.5400     0.0780     0.1000
 3918.5000    39.4620    20.1900    21.5030   -23.6010     7.4140   126.7260     2.4960     0.0650     0.1070
 3919.0000    37.8810    20.6330    22.3500   -23.1420     7.4300   126.4840     2.5050     0.0520     0.1160
 3919.5000    43.9210    21.0750    22.5580   -22.6840     7.4490   126.0540     2.5210     0.0370     0.1580
 3920.0000    51.4140    21.3390    22.1730   -22.2260     7.4680   128.4720     2.5700     0.0310     0.2360
 3920.5000    41.8800    20.9810    21.9490   -21.7680     7.4860   133.3870     2.6260     0.0390  -999.2500
 3921.0000    30.3460    20.6140    21.7250   -21.3100     7.5050   137.9430     2.6490     0.0470  -999.2500
 3921.5000    24.3830    20.2480    21.5020   -20.8510     7.5240   142.7300     2.6400     0.0480  -999.2500
 3922.0000    23.7960    19.8820    21.2780   -20.3930     7.5430   146.1110     2.6310     0.0430  -999.2500
 3922.5000    23.1930    19.5150    21.0540   -19.9350     7.5610   146.1700     2.6230     0.0340  -999.2500
 3923.0000    22.8260    19.1490    20.8300   -19.4760     7.5800   138.7700     2.6210     0.0240  -999.2500
 3923.5000    22.4620    18.7090    20.4890   -19.0170     7.5990   138.0990     2.6260     0.0270  -999.2500
 3924.0000    22.0980    18.3290    19.9220   -18.5640     7.6170   142.2950     2.6370     0.0350  -999.2500
 3924.5000    21.7350    17.7210    19.3550   -18.2570     7.6360   148.6440     2.6420     0.0430  -999.2500
 3925.0000    21.3710    17.1130    18.7870   -18.2620     7.6550   146.1620     2.6400     0.0470  -999.2500
 3925.5000    21.0080    16.5060    18.2200   -18.2610     7.6730   139.6490     2.6410     0.0480  -999.2500
 3926.0000    20.6440    15.8980    17.6530   -18.2620     7.6920   114.4020     2.6540     0.0470  -999.2500
 3926.5000    20.2810    15.2900    17.0860   -18.2620     7.7110   101.1470     2.6710     0.0580  -999.2500
 3927.0000    19.9170    14.6830    16.5190   -18.2620     7.7290   102.8790     2.6870     0.0850  -999.2500
 3927.5000    19.5530    14.0690    15.7560   -18.2620     7.7480   108.4450     2.7040     0.0910  -999.2500
 3928.0000    19.1900    12.7040    14.6680   -18.2620     7.7540   107.1150     2.7090     0.0740  -999.2500
 3928.5000    18.4110    11.3250    13.5800   -18.2620     7.7510   104.9480     2.6990     0.0600  -999.2500
 3929.0000    16.4270     9.9460    12.4920   -18.2630     7.7470   103.4060     2.6880     0.0490  -999.2500
 3929.5000    14.3320     8.8210    11.4040   -18.2580     7.7430   104.6060     2.6660     0.0410  -999.2500
 3930.0000    12.4560     8.2130    10.3160   -17.9850     7.7390   108.6750     2.6300     0.0320  -999.2500
 3930.5000    10.1760     7.6040     9.2280   -17.6900     7.7350   112.2560     2.6360     0.0320  -999.2500
 3931.0000     9.9890     7.1380     8.1410   -17.3950     7.7310   116.0780     2.6480     0.0400  -999.2500
 3931.5000    10.3660     6.6780     7.3500   -17.1010     7.7280   119.9120     2.6480     0.0470  -999.2500
 3932.0000     9.3740     6.2190     6.7070   -16.8010     7.7240   123.1370     2.6390     0.0520  -999.2500
 3932.5000     7.4400     5.7600     6.0650   -16.5190     7.7200   123.0110     2.6300     0.0540  -999.2500
 3933.0000     5.8940     5.3000     5.4220   -16.0860     7.7160   123.4770     2.6340     0.0590  -999.2500
 3933.5000     5.8550     4.8410     4.8080   -16.1170     7.7120   125.5430     2.6420     0.0630  -999.2500
 3934.0000     5.8090     4.3820     4.4800   -16.1220     7.7080    98.3870     2.6510     0.0640  -999.2500
 3934.5000     5.6820     3.9220     4.1660   -16.1260     7.7050     0.4520     2.6530     0.0640  -999.2500
 3935.0000     5.3470     3.4450     3.8520   -16.1300     7.7010     5.0340     2.6420     0.0640  -999.2500
 3935.5000     5.0120     3.3160     3.6700   -16.1340     7.6970     2.5620     2.6490     0.0750  -999.2500
 3936.0000     4.6770     3.1820     3.5280   -16.1380     7.6930    99.2910     2.6570     0.0800  -999.2500
 3936.5000     4.3420     3.0480     3.3870   -16.1420     7.6890   135.3300     2.6510     0.0800  -999.2500
 3937.0000     4.0070     2.9140     3.2450   -16.1460     7.6850   145.3130     2.6400     0.0800  -999.2500
