~VERSION INFORMATION
 VERS.                2.0:   CWLS LOG ASCII STANDARD - VERSION 2.0
 WRAP.                 NO:   ONE LINE PER DEPTH STEP
~WELL INFORMATION
#MNEM.UNIT      DATA TYPE    INFORMATION
#----------   ------------   ------------------------------
 STRT.F          616.0000:   START DEPTH
 STOP.F         3968.0000:   STOP DEPTH
 STEP.F            0.5000:   STEP LENGTH
 NULL.          -999.2500:   NO VALUE
 COMP.    FENIX & SCISSON:   COMPANY
 WELL.  FENIX "DX" #71-15:   WELL
 FLD .           N P R #3:   FIELD
 LOC .      S15 T38N R78W:   LOCATION
 CNTY.            NATRONA:   COUNTY
 STAT.            WYOMING:   STATE
 CTRY. UNITED STATES OF AMERICA:   COUNTRY
 SRVC.              WELEX:   SERVICE COMPANY
 DATE.        23-MAR-1979:   LOGDATE
 API .     49025106090000:   API NUMBER
~CURVE INFORMATION
#MNEM.UNIT       API CODE    CURVE DESCRIPTION
#----------   ------------   ------------------------------
 DEPT.F                  :   
 SFL .OHMM   07 220 01 00:   SHALLOW FOCUSED LOG RESISTIVITY
 ILD .OHMM   07 120 46 00:   DEEP INDUCTION RESISTIVITY
 ILM .OHMM   07 120 44 00:   INDUCTION LOG MEDIUM RESISTIVITY
 SPR .MV     07 010 01 00:   SPONTANEOUS POTENTIAL
 CALD.IN     45 280 60 00:   CALIPER FROM DENSITY LOG
 GRD .GAPI   45 310 01 00:   GAMMA RAY FROM DENSITY LOG
 RHOB.G/C3   45 350 01 00:   BULK DENSITY
 CORR.G/C3   45 356 01 00:   DENSITY CORRECTION
 NPHI.DEC    42 890 03 00:   NEUTRON POROSITY SANDSTONE
~PARAMETER INFORMATION
#MNEM.UNIT          VALUE    DESCRIPTION
#----------   ------------   ------------------------------
 EKB .F         5259.0000:   Kelly bushing
 EGL .F         5249.0000:   Ground level
 EDF .F            0.0000:   Drilling floor
 TD  .F         3963.0000:   Total depth
 DATE.        23-MAR-1979:   Date logged
 CLNT.            A2DTECH:   Client Code
 SL  . 380' FNL & 733' FEL:   Surface Location
 PD  .                 GL:   Permanent Datum
 DD  .F              3963:   Depth driller
 DL  .F              3954:   Depth logger
 BLI .F              3952:   Bottom log interval
 CS1 .IN            9.625:   Casing size
 CBD1.      9.625" @ 686':   Casing driller 1
 CBL1.F               672:   Casing logger 1
 BS1 .IN            7.875:   Bit size
 DFT .           CHEM-GEL:   Type fluid in hole
 DFD .                8.9:   Density
 DFV .                 44:   Viscosity
 DFPH.                 10:   pH
 DFL .                6.8:   Fluid loss
 MSS .            MUD PIT:   Source of sample
 RMS .OHMM              2:   Rm
 MST .F                62:   Rm Meas. temp.
 RMF .OHMM           1.80:   Rmf
 MFST.F                62:   Rmf Meas. temp.
 RMC .OHMM            2.6:   Rmc
 MCST.F                62:   Rmc Meas. temp.
 MFSS.               FANN:   Source Rmf.
 RMB .OHMM           0.97:   Rm. at BHT
 BHT .F               128:   BHT.
 TCS .HRS               2:   Time Circ. stopped
 MRT .F               128:   Maximum recorded temp.
 LUN .               1892:   Logging unit number
 LUL .             CASPER:   Logging unit location
 ENGI.         C. TOTHILL:   Recorded By
 WITN.              AMEND:   Witnessed by
 ORIG.     2.5", 5" PRINT:   Origin of data
 UWI .     49025106090000:   Unique Well ID
 DICO. A2D TECHNOLOGIES, INC.:   Digitizing Company
 BSD1.               3963:   Depth drilled with bit1
 MCSS.               TEST:   Source Rmc.
 EPD .               5249:   Elevation Permanent Datum
 LMF .                 KB:   Log Measured From
 DMF .                 KB:   Drilling Measured From
 TLI .                672:   Top log interval
~OTHER INFORMATION
~A   DEPT      SFL        ILD        ILM        SPR       CALD         GRD      RHOB       CORR         NPHI 
# ...
 2368.0000     5.6260     4.4130     4.7350   -24.8220     9.1470   119.4230     2.5640     0.0940     0.2740
 2368.5000     5.2740     4.3380     4.6790   -24.5760     9.1260   116.0780     2.5670     0.1010     0.2670
 2369.0000     5.3160     4.2630     4.5480   -24.3330     9.1240   112.5170     2.5680     0.1120     0.2620
 2369.5000     5.4220     4.1890     4.4180   -24.0900     9.1430   109.7130     2.5530     0.1190     0.2580
 2370.0000     5.1840     4.1140     4.2880   -23.8470     9.1820   113.1520     2.5360     0.1220     0.2550
 2370.5000     4.9890     4.0320     4.1460   -23.6030     9.2170   115.3360     2.5240     0.1240     0.2510
 2371.0000     5.0450     3.9800     4.1460   -23.3590     9.2530   112.6840     2.5170     0.1140     0.2500
 2371.5000     5.0820     3.9220     4.1190   -23.1180     9.2900   111.7350     2.5010     0.1050     0.2500
 2372.0000     4.8070     3.8640     4.0910   -22.9930     9.3260   114.7520     2.4800     0.0950     0.2480
 2372.5000     4.7630     3.8060     4.0700   -23.3950     9.3620   118.7950     2.4590     0.0860     0.2460
 2373.0000     4.8590     3.7440     3.9760   -23.7950     9.3980   122.3100     2.4430     0.0780     0.2450
 2373.5000     4.9240     3.5830     3.8160   -24.1970     9.4340   124.9670     2.4980     0.0960     0.2450
 2374.0000     4.9890     3.4120     3.6560   -24.6190     9.4700   129.3340     2.4900     0.0830     0.2480
 2374.5000     4.8980     3.2420     3.4960   -24.9170     9.5090   120.0200     2.4310     0.0680     0.2500
 2375.0000     4.5010     3.0550     3.3360   -24.8790     9.5300   114.7990     2.4380     0.0840     0.2490
 2375.5000     4.0920     3.0550     3.2290   -24.7140     9.5270   118.2020     2.4510     0.1000     0.2520
 2376.0000     3.6840     3.0660     3.2460   -24.5550     9.5300   121.2830     2.4380     0.0890     0.2540
 2376.5000     3.4450     3.0870     3.2640   -24.3970     9.5090   120.3030     2.4540     0.0630     0.2540
 2377.0000     4.1630     3.1080     3.2830   -24.2380     9.4700   116.6080     2.4800     0.0370     0.2480
 2377.5000     4.8080     3.1290     3.3010   -24.0800     9.4350   112.8220     2.5550     0.0430     0.2420
 2378.0000     4.4470     3.1490     3.3190   -23.9210     9.4000   115.2230     2.5430     0.0490     0.2350
 2378.5000     4.1460     3.1700     3.3370   -23.7620     9.3630   120.1560     2.5310     0.0570     0.2350
 2379.0000     4.2230     3.1910     3.3550   -23.6040     9.3270   119.7320     2.5160     0.0590     0.2370
 2379.5000     3.9850     3.2120     3.3730   -23.4470     9.2930   118.2780     2.5010     0.0470     0.2420
 2380.0000     3.6760     3.2320     3.3920   -23.2860     9.2540   120.0550     2.4860     0.0320     0.2480
 2380.5000     4.9890     3.2530     3.4100   -22.9480     9.2480   122.2710     2.4820     0.0170     0.2530
 2381.0000     4.4890     3.2740     3.4130   -22.8390     9.2590   125.4900     2.5090     0.0230     0.2570
 2381.5000     4.0650     3.3200     3.4150   -22.9560     9.2700   123.5820     2.5200     0.0320     0.2600
 2382.0000     3.8140     3.3030     3.4210   -23.0780     9.2800   119.7540     2.4930     0.0420     0.2630
 2382.5000     4.2630     3.2770     3.4270   -23.1980     9.2910   116.7170     2.5010     0.0520     0.2660
 2383.0000     4.3020     3.2520     3.4330   -23.3170     9.3020   113.5440     2.5180     0.0610     0.2660
 2383.5000     4.1870     3.2270     3.4400   -23.4370     9.3130   112.8770     2.5350     0.0710     0.2590
 2384.0000     4.0450     3.2010     3.4460   -23.5560     9.3190   115.2650     2.5430     0.0680     0.2540
 2384.5000     3.9220     3.1760     3.4270   -23.6760     9.3670   114.4970     2.5410     0.0650     0.2480
 2385.0000     4.1540     3.1700     3.4080   -23.7950     9.4110   112.3670     2.5340     0.0600     0.2450
 2385.5000     4.4020     3.1700     3.3880   -23.9140     9.3940   110.3500     2.5280     0.0560     0.2420
 2386.0000     4.6330     3.1700     3.3680   -24.0340     9.3830   112.8780     2.5230     0.0520     0.2400
 2386.5000     4.0390     3.1700     3.3510   -24.1530     9.3720   115.9440     2.5210     0.0480     0.2410
 2387.0000     3.8860     3.2160     3.4110   -24.2730     9.3600   119.3780     2.5220     0.0400     0.2420
 2387.5000     4.3110     3.2790     3.4760   -24.3930     9.3490   122.2700     2.5240     0.0300     0.2400
 2388.0000     4.6760     3.3430     3.5420   -24.5100     9.3380   124.6490     2.5250     0.0210     0.2380
 2388.5000     4.1080     3.4070     3.6070   -24.5050     9.3260   126.2730     2.5120     0.0110     0.2350
 2389.0000     3.9580     3.4700     3.6720   -24.3010     9.3150   123.7840     2.5000     0.0010     0.2380
 2389.5000     3.9580     3.5340     3.7380   -24.0950     9.3030   121.2730     2.4970    -0.0140     0.2410
 2390.0000     5.6270     3.6080     3.8030   -23.8910     9.2920   119.0520     2.5090    -0.0020     0.2400
 2390.5000     5.6790     3.5280     3.8140   -23.6860     9.2800   120.5620     2.5330     0.0220     0.2380
 2391.0000     5.0050     3.4310     3.7040   -23.4810     9.2690   122.8510     2.5290     0.0330     0.2390
 2391.5000     4.5380     3.3330     3.5780   -23.2790     9.2570   125.2370     2.5210     0.0350     0.2410
 2392.0000     4.0700     3.2360     3.4510   -23.1440     9.2460   126.1270     2.5140     0.0370     0.2400
 2392.5000     3.6430     3.1390     3.3250   -23.2160     9.2340   124.2600     2.5060     0.0390     0.2390
 2393.0000     3.3820     3.0410     3.1980   -23.2900     9.2230   122.6820     2.5000     0.0200     0.2350
 2393.5000     3.4720     2.9440     3.0830   -23.3640     9.2120   121.3800     2.5010     0.0160     0.2360
 2394.0000     4.2050     2.8370     3.1170   -23.4380     9.2000   120.7020     2.5170     0.0270     0.2370
 2394.5000     4.5060     2.8960     3.1410   -23.5120     9.1890   123.9330     2.5340     0.0390     0.2390
 2395.0000     3.8400     2.9710     3.0970   -23.5860     9.1770   126.1440     2.5180     0.0400     0.2420
 2395.5000     3.2890     2.9300     3.0550   -23.6600     9.1660   121.6770     2.5010     0.0390     0.2460
 2396.0000     4.2630     2.8830     3.0260   -23.7340     9.1660   124.4440     2.5220     0.0480     0.2420
 2396.5000     4.0920     2.8630     3.1490   -23.8080     9.1630   127.2570     2.5470     0.0660     0.2390
 2397.0000     3.7920     3.0110     3.3120   -23.8820     9.1700   124.2030     2.5460     0.0730     0.2350
 2397.5000     3.7100     3.1600     3.4740   -23.9560     9.1330   121.5230     2.5390     0.0750     0.2310
 2398.0000     4.4650     3.3080     3.6360   -24.0310     9.1250   121.0610     2.5410     0.0760     0.2230
 2398.5000     4.3680     3.4570     3.7980   -24.1000     9.1240   122.1310     2.5520     0.0750     0.2150
 2399.0000     4.2230     3.6060     3.9580   -24.4820     9.1260   123.1480     2.5450     0.0540     0.2090
 2399.5000     4.3830     3.7550     4.1080   -24.3060     9.1250   120.8250     2.5440     0.0310     0.2110
 2400.0000     5.9130     3.9040     4.1890   -24.0490     9.1250   114.7020     2.5570     0.0290     0.2180
 2400.5000     7.3650     4.0340     4.1990   -23.7910     9.1250   109.1760     2.5760     0.0430     0.2250
 2401.0000     8.2240     4.0470     4.2100   -23.5360     9.1270   102.0370     2.5640     0.0500     0.2300
 2401.5000     7.4030     4.0600     4.2200   -23.2810     9.1210   101.6570     2.5300     0.0520     0.2310
 2402.0000     6.1720     4.0700     4.2230   -23.1440     9.1580   109.5890     2.5010     0.0560     0.2300
 2402.5000     5.0820     4.2130     4.3410   -23.2040     9.1670   117.1800     2.4750     0.0590     0.2300
 2403.0000     5.0350     4.3080     4.4550   -23.3190     9.1870   120.5980     2.4670     0.0590     0.2290
 2403.5000     4.9890     4.4020     4.5680   -23.4350     9.2050   120.2540     2.4560     0.0350     0.2290
 2404.0000     5.7890     4.4970     4.6820   -23.5510     9.2260   115.8630     2.5020     0.0120     0.2300
