~VERSION INFORMATION
 VERS.                2.0:   CWLS LOG ASCII STANDARD - VERSION 2.0
 WRAP.                 NO:   ONE LINE PER DEPTH STEP
~WELL INFORMATION
#MNEM.UNIT      DATA TYPE    INFORMATION
#----------   ------------   ------------------------------
 STRT.F          616.0000:   START DEPTH
 STOP.F         3968.0000:   STOP DEPTH
 STEP.F            0.5000:   STEP LENGTH
 NULL.          -999.2500:   NO VALUE
 COMP.    FENIX & SCISSON:   COMPANY
 WELL.  FENIX "DX" #71-15:   WELL
 FLD .           N P R #3:   FIELD
 LOC .      S15 T38N R78W:   LOCATION
 CNTY.            NATRONA:   COUNTY
 STAT.            WYOMING:   STATE
 CTRY. UNITED STATES OF AMERICA:   COUNTRY
 SRVC.              WELEX:   SERVICE COMPANY
 DATE.        23-MAR-1979:   LOGDATE
 API .     49025106090000:   API NUMBER
~CURVE INFORMATION
#MNEM.UNIT       API CODE    CURVE DESCRIPTION
#----------   ------------   ------------------------------
 DEPT.F                  :   
 SFL .OHMM   07 220 01 00:   SHALLOW FOCUSED LOG RESISTIVITY
 ILD .OHMM   07 120 46 00:   DEEP INDUCTION RESISTIVITY
 ILM .OHMM   07 120 44 00:   INDUCTION LOG MEDIUM RESISTIVITY
 SPR .MV     07 010 01 00:   SPONTANEOUS POTENTIAL
 CALD.IN     45 280 60 00:   CALIPER FROM DENSITY LOG
 GRD .GAPI   45 310 01 00:   GAMMA RAY FROM DENSITY LOG
 RHOB.G/C3   45 350 01 00:   BULK DENSITY
 CORR.G/C3   45 356 01 00:   DENSITY CORRECTION
 NPHI.DEC    42 890 03 00:   NEUTRON POROSITY SANDSTONE
~PARAMETER INFORMATION
#MNEM.UNIT          VALUE    DESCRIPTION
#----------   ------------   ------------------------------
 EKB .F         5259.0000:   Kelly bushing
 EGL .F         5249.0000:   Ground level
 EDF .F            0.0000:   Drilling floor
 TD  .F         3963.0000:   Total depth
 DATE.        23-MAR-1979:   Date logged
 CLNT.            A2DTECH:   Client Code
 SL  . 380' FNL & 733' FEL:   Surface Location
 PD  .                 GL:   Permanent Datum
 DD  .F              3963:   Depth driller
 DL  .F              3954:   Depth logger
 BLI .F              3952:   Bottom log interval
 CS1 .IN            9.625:   Casing size
 CBD1.      9.625" @ 686':   Casing driller 1
 CBL1.F               672:   Casing logger 1
 BS1 .IN            7.875:   Bit size
 DFT .           CHEM-GEL:   Type fluid in hole
 DFD .                8.9:   Density
 DFV .                 44:   Viscosity
 DFPH.                 10:   pH
 DFL .                6.8:   Fluid loss
 MSS .            MUD PIT:   Source of sample
 RMS .OHMM              2:   Rm
 MST .F                62:   Rm Meas. temp.
 RMF .OHMM           1.80:   Rmf
 MFST.F                62:   Rmf Meas. temp.
 RMC .OHMM            2.6:   Rmc
 MCST.F                62:   Rmc Meas. temp.
 MFSS.               FANN:   Source Rmf.
 RMB .OHMM           0.97:   Rm. at BHT
 BHT .F               128:   BHT.
 TCS .HRS               2:   Time Circ. stopped
 MRT .F               128:   Maximum recorded temp.
 LUN .               1892:   Logging unit number
 LUL .             CASPER:   Logging unit location
 ENGI.         C. TOTHILL:   Recorded By
 WITN.              AMEND:   Witnessed by
 ORIG.     2.5", 5" PRINT:   Origin of data
 UWI .     49025106090000:   Unique Well ID
 DICO. A2D TECHNOLOGIES, INC.:   Digitizing Company
 BSD1.               3963:   Depth drilled with bit1
 MCSS.               TEST:   Source Rmc.
 EPD .               5249:   Elevation Permanent Datum
 LMF .                 KB:   Log Measured From
 DMF .                 KB:   Drilling Measured From
 TLI .                672:   Top log interval
~OTHER INFORMATION
~A   DEPT      SFL        ILD        ILM        SPR       CALD         GRD      RHOB       CORR         NPHI 
# ...
 2185.5000     8.1490     5.7790     6.6270   -23.6960     9.1540    98.1490     2.4580     0.0420     0.3090
 2186.0000     8.0920     5.9810     6.7810   -23.8120     9.4270   101.2780     2.4900     0.0780     0.3000
 2186.5000     8.0310     6.1820     6.9340   -23.9190     9.3410   105.3830     2.5070     0.0980     0.3000
 2187.0000     7.9990     6.3840     7.0870   -23.7850     9.2560   108.0020     2.5020     0.1090     0.3000
 2187.5000     9.6560     6.5850     7.2400   -23.6390     9.1570   106.2000     2.4920     0.1270     0.3000
 2188.0000    11.6670     6.7870     7.3930   -23.4940     9.0670   103.0580     2.4670     0.1480     0.3000
 2188.5000    13.3090     6.9880     7.5670   -23.3500     8.9670   101.8430     2.3650     0.1290     0.3000
 2189.0000    13.4330     7.2250     7.5500   -23.2060     9.0190   102.0210     2.2690     0.0940     0.3100
 2189.5000    10.9290     7.2250     7.5260   -23.0610     9.2760    95.6110     2.1950     0.0340     0.3110
 2190.0000     9.2760     7.2250     7.5020   -22.9170     9.4670    85.9590     2.2340    -0.0450     0.3110
 2190.5000     9.1060     7.2250     7.4770   -22.7720     9.2620    82.5780     2.4790    -0.0300     0.3070
 2191.0000     9.7010     7.2250     7.4530   -22.6290     9.0970    87.0320     2.4590    -0.0090     0.3000
 2191.5000    10.2700     7.2220     7.4280   -22.6420     8.9240    89.8990     2.5030     0.0030     0.3000
 2192.0000    10.0370     7.2320     7.4280   -22.9010     9.4290    88.7600     2.5130     0.0030     0.2990
 2192.5000     9.6510     7.1610     7.6380   -23.1590     9.9950    86.3810     2.5250     0.0010     0.2870
 2193.0000     9.4490     7.2580     7.8100   -23.4170    10.9100    84.0710     2.5180    -0.0010     0.2960
 2193.5000    11.8000     7.4510     7.9810   -23.6750    10.7720    83.4260     2.5090    -0.0080     0.3000
 2194.0000    10.8680     7.6440     8.1530   -23.9330    10.0370    83.3420     2.5020    -0.0030     0.3090
 2194.5000    10.0830     7.9990     8.3240   -24.1900     9.3870    82.5790     2.5000     0.0030     0.3020
 2195.0000     9.7150     7.9860     8.4960   -24.4480     9.2050    85.6120     2.5010     0.0090     0.2990
 2195.5000    10.1870     7.9690     8.5350   -24.7060     8.8960    89.7240     2.5080     0.0160     0.2700
 2196.0000    10.6770     7.9510     8.4030   -24.9650     8.8060    94.1310     2.5160     0.0230     0.2640
 2196.5000    11.1670     7.9330     8.3010   -25.2310     8.8970    96.1310     2.5240     0.0170     0.2590
 2197.0000    11.6560     7.8280     8.1890   -25.1990     8.9720    94.5270     2.5230     0.0080     0.2540
 2197.5000    12.2450     7.5560     7.9770   -24.9170     9.0520    93.2960     2.5130     0.0060     0.2490
 2198.0000     9.6260     7.2830     7.7640   -24.6350     9.0790    92.1420     2.5040     0.0150     0.2430
 2198.5000     9.7500     7.0110     7.5520   -24.3540     8.9620    90.5990     2.4950     0.0240     0.2440
 2199.0000     9.9920     6.7390     7.3400   -24.0740     8.8580    91.0590     2.4860     0.0200     0.2450
 2199.5000    10.2350     6.4660     7.1270   -23.7930     8.8560    92.3840     2.4770     0.0190     0.2470
 2200.0000    10.4620     6.1160     6.9150   -23.5120     9.0690   101.0500     2.4670     0.0170     0.2470
 2200.5000     7.7710     6.1730     6.7030   -23.2330     8.9830   100.3710     2.4590     0.0150     0.2470
 2201.0000     7.4970     5.9300     6.4900   -22.9730     8.8620    99.9990     2.4490     0.0130     0.2480
 2201.5000     7.4970     5.7710     6.2880   -22.7570     8.7310   102.6480     2.4450     0.0130     0.2500
 2202.0000    11.2660     5.6440     6.1730   -22.6210     8.6080   106.8120     2.4760     0.0330     0.2520
 2202.5000     9.7920     5.8250     6.2460   -22.4470     8.4890   110.8070     2.5330     0.0550     0.2520
 2203.0000     8.1630     5.9000     6.2960   -22.6060     8.4900   113.8060     2.5150     0.0610     0.2500
 2203.5000     7.5670     5.9750     6.3460   -22.7670     8.6360   116.9930     2.4960     0.0400     0.2480
 2204.0000     7.4970     6.0510     6.3960   -22.9290     8.6540   114.4140     2.4710     0.0300     0.2450
 2204.5000     8.9390     6.1260     6.4460   -23.0900     8.5910   110.5390     2.4680     0.0320     0.2430
 2205.0000     8.5040     6.1730     6.4950   -23.2510     8.5340   114.1320     2.4650     0.0270     0.2430
 2205.5000     7.9250     6.1730     6.5450   -23.4130     8.5310   110.0540     2.4590     0.0180     0.2450
 2206.0000     7.7080     6.1730     6.5950   -23.5740     8.5450   102.6830     2.4480     0.0110     0.2480
 2206.5000    10.1710     6.1730     6.6470   -23.7360     8.5600    98.2760     2.4620     0.0020     0.2530
 2207.0000    11.8390     6.1730     6.6470   -23.8970     8.5540    99.8650     2.4800     0.0040     0.2590
 2207.5000    12.4740     6.1730     6.5730   -24.0570     8.5490   103.1200     2.4990     0.0220     0.2620
 2208.0000     7.7080     6.1730     6.4530   -23.9590     8.5420   112.7460     2.5070     0.0360     0.2650
 2208.5000     8.0470     6.0960     6.3330   -23.5640     8.5360   123.2020     2.5060     0.0430     0.2680
 2209.0000     8.6930     5.9500     6.2130   -23.1720     8.5300   133.7100     2.5060     0.0510     0.2720
 2209.5000     9.0220     5.8040     6.0920   -22.7780     8.5220   141.5690     2.5040     0.0580     0.2770
 2210.0000     6.5860     5.6570     5.9720   -22.3860     8.5300   141.9570     2.4880     0.0630     0.2830
 2210.5000     7.2540     5.5110     5.8520   -22.1720     8.5510   136.6770     2.4720     0.0520     0.2800
 2211.0000     7.8520     5.3650     5.7320   -22.2920     8.5710   132.6510     2.4650     0.0520     0.2780
 2211.5000     6.6390     5.2250     5.6790   -22.4100     8.5910   130.2240     2.4590     0.0590     0.2780
 2212.0000     6.0040     5.1770     5.6600   -22.5280     8.6110   127.9130     2.4420     0.0410     0.2780
 2212.5000     8.0730     5.1770     5.6370   -22.6450     8.6320   125.7210     2.4240     0.0450     0.2750
 2213.0000     7.5060     5.1770     5.6140   -22.7620     8.6420   123.6240     2.4060     0.0520     0.2700
 2213.5000     6.7620     5.2410     5.5910   -22.8800     8.6450   121.4460     2.3900     0.0530     0.2640
 2214.0000     6.0880     5.3200     5.5750   -22.9970     8.6490   121.0770     2.3890     0.0440     0.2600
 2214.5000     9.8970     5.3990     5.8280   -23.1150     8.6540   122.6100     2.4090     0.0340     0.2580
 2215.0000     8.4380     5.4790     6.0110   -23.2320     8.6580   123.8600     2.4310     0.0350     0.2560
 2215.5000     8.0730     5.6780     6.1730   -23.3490     8.6620   125.3380     2.4530     0.0400     0.2550
 2216.0000    10.4620     6.0390     6.5020   -23.4670     8.6660   124.7260     2.4440     0.0360     0.2560
 2216.5000     8.3010     6.4000     6.8150   -23.5840     8.6700   123.0170     2.4410     0.0390     0.2570
 2217.0000     8.8560     6.7610     7.1290   -23.7020     8.6740   119.3660     2.4420     0.0120     0.2580
 2217.5000     9.5560     7.0270     7.4280   -23.8190     8.6780   121.0750     2.4500     0.0020     0.2590
 2218.0000    10.2570     7.0780     7.4500   -23.9370     8.6820   125.1970     2.4580     0.0080     0.2640
 2218.5000    10.9580     7.0920     7.4830   -24.0520     8.6860   127.4010     2.4660     0.0200     0.2670
 2219.0000    10.1770     7.1090     7.5160   -24.0350     8.6900   125.6110     2.4760     0.0260     0.2680
 2219.5000     8.6140     7.1260     7.5490   -23.8290     8.6940   123.9380     2.4690     0.0170     0.2680
 2220.0000    10.5590     7.1440     7.5820   -23.6250     8.6980   121.6360     2.4520     0.0100     0.2670
 2220.5000     9.7470     7.1610     7.6150   -23.4210     8.7020   123.5960     2.4360    -0.0110     0.2650
 2221.0000     9.1060     7.1780     7.6480   -23.2160     8.7060   125.2030     2.4360    -0.0170     0.2650
 2221.5000    10.2700     7.1960     7.6810   -23.0120     8.7100   128.2290     2.4470    -0.0090     0.2660
