~VERSION INFORMATION
 VERS.                2.0:   CWLS LOG ASCII STANDARD - VERSION 2.0
 WRAP.                 NO:   ONE LINE PER DEPTH STEP
~WELL INFORMATION
#MNEM.UNIT      DATA TYPE    INFORMATION
#----------   ------------   ------------------------------
 STRT.F          616.0000:   START DEPTH
 STOP.F         3968.0000:   STOP DEPTH
 STEP.F            0.5000:   STEP LENGTH
 NULL.          -999.2500:   NO VALUE
 COMP.    FENIX & SCISSON:   COMPANY
 WELL.  FENIX "DX" #71-15:   WELL
 FLD .           N P R #3:   FIELD
 LOC .      S15 T38N R78W:   LOCATION
 CNTY.            NATRONA:   COUNTY
 STAT.            WYOMING:   STATE
 CTRY. UNITED STATES OF AMERICA:   COUNTRY
 SRVC.              WELEX:   SERVICE COMPANY
 DATE.        23-MAR-1979:   LOGDATE
 API .     49025106090000:   API NUMBER
~CURVE INFORMATION
#MNEM.UNIT       API CODE    CURVE DESCRIPTION
#----------   ------------   ------------------------------
 DEPT.F                  :   
 SFL .OHMM   07 220 01 00:   SHALLOW FOCUSED LOG RESISTIVITY
 ILD .OHMM   07 120 46 00:   DEEP INDUCTION RESISTIVITY
 ILM .OHMM   07 120 44 00:   INDUCTION LOG MEDIUM RESISTIVITY
 SPR .MV     07 010 01 00:   SPONTANEOUS POTENTIAL
 CALD.IN     45 280 60 00:   CALIPER FROM DENSITY LOG
 GRD .GAPI   45 310 01 00:   GAMMA RAY FROM DENSITY LOG
 RHOB.G/C3   45 350 01 00:   BULK DENSITY
 CORR.G/C3   45 356 01 00:   DENSITY CORRECTION
 NPHI.DEC    42 890 03 00:   NEUTRON POROSITY SANDSTONE
~PARAMETER INFORMATION
#MNEM.UNIT          VALUE    DESCRIPTION
#----------   ------------   ------------------------------
 EKB .F         5259.0000:   Kelly bushing
 EGL .F         5249.0000:   Ground level
 EDF .F            0.0000:   Drilling floor
 TD  .F         3963.0000:   Total depth
 DATE.        23-MAR-1979:   Date logged
 CLNT.            A2DTECH:   Client Code
 SL  . 380' FNL & 733' FEL:   Surface Location
 PD  .                 GL:   Permanent Datum
 DD  .F              3963:   Depth driller
 DL  .F              3954:   Depth logger
 BLI .F              3952:   Bottom log interval
 CS1 .IN            9.625:   Casing size
 CBD1.      9.625" @ 686':   Casing driller 1
 CBL1.F               672:   Casing logger 1
 BS1 .IN            7.875:   Bit size
 DFT .           CHEM-GEL:   Type fluid in hole
 DFD .                8.9:   Density
 DFV .                 44:   Viscosity
 DFPH.                 10:   pH
 DFL .                6.8:   Fluid loss
 MSS .            MUD PIT:   Source of sample
 RMS .OHMM              2:   Rm
 MST .F                62:   Rm Meas. temp.
 RMF .OHMM           1.80:   Rmf
 MFST.F                62:   Rmf Meas. temp.
 RMC .OHMM            2.6:   Rmc
 MCST.F                62:   Rmc Meas. temp.
 MFSS.               FANN:   Source Rmf.
 RMB .OHMM           0.97:   Rm. at BHT
 BHT .F               128:   BHT.
 TCS .HRS               2:   Time Circ. stopped
 MRT .F               128:   Maximum recorded temp.
 LUN .               1892:   Logging unit number
 LUL .             CASPER:   Logging unit location
 ENGI.         C. TOTHILL:   Recorded By
 WITN.              AMEND:   Witnessed by
 ORIG.     2.5", 5" PRINT:   Origin of data
 UWI .     49025106090000:   Unique Well ID
 DICO. A2D TECHNOLOGIES, INC.:   Digitizing Company
 BSD1.               3963:   Depth drilled with bit1
 MCSS.               TEST:   Source Rmc.
 EPD .               5249:   Elevation Permanent Datum
 LMF .                 KB:   Log Measured From
 DMF .                 KB:   Drilling Measured From
 TLI .                672:   Top log interval
~OTHER INFORMATION
~A   DEPT      SFL        ILD        ILM        SPR       CALD         GRD      RHOB       CORR         NPHI 
# ...
  652.5000  -999.2500  -999.2500  -999.2500  -999.2500  -999.2500    74.6920  -999.2500  -999.2500     0.3740
  653.0000  -999.2500  -999.2500  -999.2500  -999.2500  -999.2500    72.6870  -999.2500  -999.2500     0.3690
  653.5000  -999.2500  -999.2500  -999.2500  -999.2500  -999.2500    70.7480  -999.2500  -999.2500     0.3630
  654.0000  -999.2500  -999.2500  -999.2500  -999.2500  -999.2500    71.4240  -999.2500  -999.2500     0.3610
  654.5000  -999.2500  -999.2500  -999.2500  -999.2500  -999.2500    72.2480  -999.2500  -999.2500     0.3610
  655.0000  -999.2500  -999.2500  -999.2500  -999.2500  -999.2500    73.2640  -999.2500  -999.2500     0.3600
  655.5000  -999.2500  -999.2500  -999.2500  -999.2500  -999.2500    73.8370  -999.2500  -999.2500     0.3600
  656.0000  -999.2500  -999.2500  -999.2500  -999.2500  -999.2500    73.7880  -999.2500  -999.2500     0.3620
  656.5000  -999.2500  -999.2500  -999.2500  -999.2500  -999.2500    73.7360  -999.2500  -999.2500     0.3670
  657.0000  -999.2500  -999.2500  -999.2500  -999.2500  -999.2500    74.4450  -999.2500  -999.2500     0.3720
  657.5000  -999.2500  -999.2500  -999.2500  -999.2500  -999.2500    75.9890  -999.2500  -999.2500     0.3770
  658.0000  -999.2500  -999.2500  -999.2500  -999.2500  -999.2500    77.3950  -999.2500  -999.2500     0.3780
  658.5000  -999.2500  -999.2500  -999.2500  -999.2500  -999.2500    78.8700  -999.2500  -999.2500     0.3770
  659.0000  -999.2500  -999.2500  -999.2500  -999.2500  -999.2500    80.3500  -999.2500  -999.2500     0.3780
  659.5000  -999.2500  -999.2500  -999.2500  -999.2500  -999.2500    80.0930  -999.2500  -999.2500     0.3810
  660.0000  -999.2500  -999.2500  -999.2500  -999.2500  -999.2500    77.7270  -999.2500  -999.2500     0.3800
  660.5000  -999.2500  -999.2500  -999.2500  -999.2500  -999.2500    75.5530  -999.2500  -999.2500     0.3770
  661.0000  -999.2500  -999.2500  -999.2500  -999.2500  -999.2500    75.6010  -999.2500  -999.2500     0.3720
  661.5000  -999.2500  -999.2500  -999.2500  -999.2500  -999.2500    76.6050  -999.2500  -999.2500     0.3680
  662.0000  -999.2500  -999.2500  -999.2500  -999.2500  -999.2500    78.6040  -999.2500  -999.2500     0.3640
  662.5000  -999.2500  -999.2500  -999.2500  -999.2500  -999.2500    77.2560  -999.2500  -999.2500     0.3590
  663.0000  -999.2500  -999.2500  -999.2500  -999.2500  -999.2500    76.5680  -999.2500  -999.2500     0.3550
  663.5000  -999.2500  -999.2500  -999.2500  -999.2500  -999.2500    76.6270  -999.2500  -999.2500     0.3510
  664.0000  -999.2500  -999.2500  -999.2500  -999.2500  -999.2500    79.3890  -999.2500  -999.2500     0.3480
  664.5000  -999.2500  -999.2500  -999.2500  -999.2500  -999.2500    80.5990  -999.2500  -999.2500     0.3460
  665.0000  -999.2500  -999.2500  -999.2500  -999.2500  -999.2500    81.1050  -999.2500  -999.2500     0.3430
  665.5000  -999.2500  -999.2500  -999.2500  -999.2500  -999.2500    81.0100  -999.2500  -999.2500     0.3430
  666.0000     0.3840  -999.2500  1918.4020  -999.2500  -999.2500    81.5550  -999.2500  -999.2500     0.3430
  666.5000     0.3630  -999.2500  1918.4020  -999.2500  -999.2500    83.3370  -999.2500  -999.2500     0.3430
  667.0000     0.3760  -999.2500  1918.4020  -999.2500  -999.2500    84.5130  -999.2500  -999.2500     0.3410
  667.5000     0.3730  -999.2500  1942.1930  -999.2500  -999.2500    84.9410  -999.2500  -999.2500     0.3390
  668.0000     0.3660  -999.2500  1918.4020  -999.2500  -999.2500    84.7400  -999.2500  -999.2500     0.3350
  668.5000     0.3630  -999.2500  1918.4020  -999.2500  -999.2500    83.5650  -999.2500  -999.2500     0.3300
  669.0000     0.3740  -999.2500  1918.4020  -999.2500  -999.2500    82.4450  -999.2500  -999.2500     0.3250
  669.5000     0.3820  -999.2500  1918.4020  -999.2500  -999.2500    81.2730  -999.2500  -999.2500     0.3180
  670.0000     0.3900  -999.2500  1918.3810    -0.0980  -999.2500    80.1560  -999.2500  -999.2500     0.3110
  670.5000     0.3990  -999.2500  1918.3610    -0.0980  -999.2500    79.0550  -999.2500    -0.4880     0.3030
  671.0000     0.3400  -999.2500  1918.6840    -0.0980  -999.2500    78.3910  -999.2500    -0.4270     0.3010
  671.5000     0.2800  -999.2500  1918.1370   -29.3950  -999.2500    80.8340  -999.2500    -0.2960     0.3000
  672.0000     0.2580  -999.2500  1951.9399   -11.8190     9.2470    85.1750     2.3500    -0.2040     0.2980
  672.5000     1.3380  -999.2500  1954.2480   -27.9370     9.3030    88.9110     2.4490     0.1080     0.2940
  673.0000     2.3650  -999.2500  1564.4240   -32.9840     9.3580    92.7590     2.4170     0.0960     0.2960
  673.5000     3.8500  -999.2500  1340.0341   -37.0980     9.4140    96.6670     2.3620     0.0900     0.2950
  674.0000     3.1800     9.3770   514.5940   -41.2150     9.4700    99.2690     2.3750     0.0810     0.2930
  674.5000     1.9720     7.4010     7.9250   -45.3310     9.5250    98.0910     2.3880     0.0810     0.2890
  675.0000     0.7980     5.8640     8.4090   -49.3720     9.5810    97.1320     2.4000     0.0800     0.2840
  675.5000     0.9060     4.3420     8.8920   -53.3890     9.6190    98.3190     2.4060     0.0900     0.2830
  676.0000     1.0250     6.6190     9.3750   -55.3680     9.6630   100.3300     2.4160     0.0970     0.2830
  676.5000     0.3530     7.0080     9.8970   -56.2250     9.7210   101.5730     2.4050     0.0960     0.2830
  677.0000     0.3470     7.4140     9.6530   -56.8560     9.7750   101.6060     2.3910     0.0960     0.2810
  677.5000     0.6110     7.8200     9.3880   -57.4890     9.8470   100.6620     2.3760     0.0900     0.2780
  678.0000     1.3150     8.2250     9.1230   -58.1260     9.8490    99.8240     2.3510     0.0850     0.2740
  678.5000     1.9950     8.7750     9.0220   -58.7640     9.8530    99.7810     2.3260     0.0790     0.2720
  679.0000     5.3750     8.3780     9.0650   -59.4000     9.8560    99.9840     2.3050     0.0740     0.2700
  679.5000     8.0110     8.6050     9.2330   -60.0380     9.9390   100.4420     2.3030     0.0680     0.2700
  680.0000     9.0690     8.7850     9.4010   -60.5960    10.0090    98.8360     2.3200     0.0640     0.2680
  680.5000    10.1760     9.0220     9.5690   -61.0030    10.0870    95.2300     2.3430     0.0680     0.2650
  681.0000    10.6470     9.0730     9.7380   -61.0390    10.0880    92.0640     2.3650     0.0710     0.2610
  681.5000    12.7730     9.1270     9.9660   -61.0360    10.0380    88.5320     2.3870     0.0740     0.2590
  682.0000    14.8990     9.1800    10.2350   -61.0390     9.9860    88.6800     2.4060     0.0770     0.2600
  682.5000    16.6200     9.2340    10.5040   -60.8610     9.9930    89.3790     2.4220     0.0800     0.2650
  683.0000    16.7740     9.2870    10.7730   -60.6170    10.0340    90.1700     2.4370     0.0840     0.2730
  683.5000    14.6070     9.3410    11.0420   -60.3720    10.0770    91.6340     2.4530     0.0840     0.2730
  684.0000    13.9390     9.3950    11.3110   -60.1270    10.0690    95.0460     2.4660     0.0760     0.2740
  684.5000    14.2870     9.4480    11.5840   -59.8820    10.0010    98.6930     2.4780     0.0620     0.2740
  685.0000    14.4650     9.5020    11.4450   -59.6420     9.9700   100.2440     2.4880     0.0410     0.2740
  685.5000    13.5130     9.5550    11.2710   -59.5850     9.9830    99.1410     2.4880     0.0360     0.2710
  686.0000    11.8000     9.6090    11.0970   -59.9650     9.9920    99.0140     2.4930     0.0300     0.2670
  686.5000    11.4770     9.6260    10.9230   -60.3360    10.0040    99.5990     2.4960     0.0270     0.2630
  687.0000    11.4770     9.6260    10.7490   -60.7130    10.0030    98.5500     2.4860     0.0130     0.2640
  687.5000    11.6930     9.6410    10.5750   -60.8380     9.9580    97.2940     2.4810     0.0090     0.2640
  688.0000    12.2450     9.6610    10.4010   -60.7410     9.8510    96.0270     2.4740     0.0060     0.2650
  688.5000    11.8400     9.6810    10.2700   -60.3190     9.7530    94.6780     2.4790     0.0040     0.2640
