~VERSION INFORMATION
 VERS.                2.0:   CWLS LOG ASCII STANDARD - VERSION 2.0
 WRAP.                 NO:   ONE LINE PER DEPTH STEP
~WELL INFORMATION
#MNEM.UNIT      DATA TYPE    INFORMATION
#----------   ------------   ------------------------------
 STRT.F           50.0000:   START DEPTH
 STOP.F         4097.5000:   STOP DEPTH
 STEP.F            0.5000:   STEP LENGTH
 NULL.          -999.2500:   NO VALUE
 COMP.   TESORO PETROLEUM:   COMPANY
 WELL. TESORO NPR 3 "DX" #77-29:   WELL
 FLD .        TEAPOT DOME:   FIELD
 LOC .      S29 T39N R78W:   LOCATION
 CNTY.            NATRONA:   COUNTY
 STAT.            WYOMING:   STATE
 CTRY. UNITED STATES OF AMERICA:   COUNTRY
 SRVC.      DRESSER ATLAS:   SERVICE COMPANY
 DATE.        30-JUL-1976:   LOGDATE
 API .     49025102650000:   API NUMBER
~CURVE INFORMATION
#MNEM.UNIT       API CODE    CURVE DESCRIPTION
#----------   ------------   ------------------------------
 DEPT.F                  :   
 CORR.G/C3   45 356 01 00:   DENSITY CORRECTION
 RHOB.G/C3   45 350 01 00:   BULK DENSITY
 CALD.IN     45 280 60 00:   CALIPER FROM DENSITY LOG
 NPHI.DEC    42 890 03 00:   NEUTRON POROSITY SANDSTONE
 GRD .GAPI   45 310 01 00:   GAMMA RAY FROM DENSITY LOG
 SPR .MV     07 010 01 00:   SPONTANEOUS POTENTIAL
 ILD .OHMM   07 120 46 00:   DEEP INDUCTION RESISTIVITY
 SFL .OHMM   07 220 01 00:   SHALLOW FOCUSED LOG RESISTIVITY
 ILM .OHMM   07 120 44 00:   INDUCTION LOG MEDIUM RESISTIVITY
~PARAMETER INFORMATION
#MNEM.UNIT          VALUE    DESCRIPTION
#----------   ------------   ------------------------------
 EKB .F         5084.5000:   Kelly bushing
 EGL .F         5073.0000:   Ground level
 EDF .F         5083.0000:   Drilling floor
 TD  .F         4102.0000:   Total depth
 DATE.        30-JUL-1976:   Date logged
 CLNT.            A2DTECH:   Client Code
 SL  . 660' FSL & 660' FEL:   Surface Location
 PD  .                 GL:   Permanent Datum
 EPD .F              5073:   Elevation Permanent Datum
 LMF .                 KB:   Log Measured From
 DMF .                 KB:   Drilling Measured From
 DD  .F              4102:   Depth driller
 DL  .F              4097:   Depth logger
 BLI .F              4095:   Bottom log interval
 TLI .F               604:   Top log interval
 CS1 .IN            8.625:   Casing size
 CBD1.      8.625" @ 599':   Casing driller 1
 CBL1.F               604:   Casing logger 1
 BS1 .IN            7.875:   Bit size
 DFT .           CHEM/GEL:   Type fluid in hole
 DFD .                9.5:   Density
 DFV .                 46:   Viscosity
 DFPH.                9.8:   pH
 DFL .                6.6:   Fluid loss
 MSS .           FLOWLINE:   Source of sample
 RMS .OHMM           1.48:   Rm
 MST .F                78:   Rm Meas. temp.
 RMF .OHMM           1.07:   Rmf
 MFST.F                78:   Rmf Meas. temp.
 RMC .OHMM           1.57:   Rmc
 MCST.F                78:   Rmc Meas. temp.
 MFSS.               MEAS:   Source Rmf.
 RMB .OHMM            .87:   Rm. at BHT
 BHT .F               132:   BHT.
 TCS .HRS               7:   Time Circ. stopped
 MRT .F               132:   Maximum recorded temp.
 LUN .               6134:   Logging unit number
 LUL .              GLTTE:   Logging unit location
 ENGI.             VAUGHN:   Recorded By
 WITN.               WOLF:   Witnessed by
 ORIG.           5" PRINT:   Origin of data
 UWI .     49025102650000:   Unique Well ID
 DICO. A2D TECHNOLOGIES, INC.:   Digitizing Company
 DAPD.F              11.5:   Feet Above Permanent Datum
 BSD1.F              4102:   Depth drilled with bit1
~OTHER INFORMATION
~A   DEPT     CORR       RHOB       CALD       NPHI        GRD         SPR         ILD        SFL        ILM 
# ...
 3590.5000     0.0530     2.3510     8.4890     0.2520   116.1240   -41.9940     2.1170     5.1640     2.0470
 3591.0000     0.0450     2.3650     8.3130     0.2280   115.6490   -41.8210     1.9730     3.1380     2.0470
 3591.5000     0.0380     2.4090     8.0810     0.2310   118.2970   -41.6480     2.1000     2.4610     2.1240
 3592.0000     0.0300     2.4530     8.0330     0.2400   122.6440   -41.4910     2.5000     2.8640     2.2110
 3592.5000     0.0230     2.4480     8.1710     0.2370   129.1560   -41.5370     2.9000     6.8240     2.2890
 3593.0000     0.0150     2.4440     8.2090     0.2310   136.4180   -41.5860     3.4270    11.1440     2.5490
 3593.5000     0.0130     2.4460     8.2050     0.2300   142.9840   -41.6350     4.0250     9.6500     2.8090
 3594.0000     0.0150     2.4460     8.1880     0.2370   144.9430   -41.6950     4.6220     6.9670     3.3080
 3594.5000     0.0170     2.4340     8.1710     0.2430   141.7300   -42.0350     5.2190     7.4170     4.1310
 3595.0000     0.0190     2.4390     8.1530     0.2520   141.2360   -42.3820     5.3340     7.8530     4.9550
 3595.5000     0.0210     2.4460     8.1350     0.2480   146.2780   -42.7290     5.3340     6.1810     5.0280
 3596.0000     0.0230     2.4430     8.1180     0.2410   150.4600   -42.9500     5.1150     5.8560     5.1020
 3596.5000     0.0240     2.4380     8.1000     0.2450   152.7960   -43.0450     4.8940     5.5290     5.1750
 3597.0000     0.0230     2.4330     8.0830     0.2530   156.2710   -42.8830     4.6730     5.1880     5.2360
 3597.5000     0.0220     2.4260     8.0650     0.2530   158.7490   -42.7220     4.3960     5.8920     5.0640
 3598.0000     0.0210     2.4230     8.0480     0.2490   159.2080   -42.5630     4.4150     6.9670     4.8400
 3598.5000     0.0200     2.4240     8.0300     0.2430   157.9210   -42.4030     4.4360     6.6110     4.6030
 3599.0000     0.0240     2.4280     8.0130     0.2400   156.9500   -42.2440     4.3270     5.7340     4.5550
 3599.5000     0.0280     2.4330     7.9950     0.2440   148.8290   -42.0840     4.2090     5.0340     4.5040
 3600.0000     0.0320     2.4370     7.9780     0.2470   141.0240   -41.9260     4.0900     5.9570     4.3730
 3600.5000     0.0350     2.4340     7.9600     0.2500   133.0290   -41.7660     3.9720     5.9380     4.2410
 3601.0000     0.0390     2.4300     7.9720     0.2430   131.3720   -41.7650     3.8540     5.9020     4.1210
 3601.5000     0.0360     2.4230     7.9880     0.2340   132.4130   -41.9290     3.7930     5.5480     4.0830
 3602.0000     0.0310     2.4230     8.0040     0.2270   133.3690   -42.0920     3.9890     4.9290     4.4460
 3602.5000     0.0260     2.4150     8.0200     0.2290   135.7900   -42.2560     4.1410     4.6030     4.8580
 3603.0000     0.0200     2.4170     8.0360     0.2290   137.0300   -42.4200     4.2930     6.5970     5.2700
 3603.5000     0.0110     2.4220     8.0400     0.2320   133.9250   -42.5840     4.4360     8.0730     5.6820
 3604.0000     0.0050     2.4300     8.0430     0.2340   137.9440   -42.7480     4.8730     7.9430     6.0940
 3604.5000     0.0090     2.4400     8.0460     0.2310   144.0350   -42.9120     5.2860     7.8200     6.4210
 3605.0000     0.0120     2.4370     8.0490     0.2260   147.7970   -43.0760     5.7830     7.6970     6.7030
 3605.5000     0.0160     2.4420     8.0520     0.2230   144.4410   -43.2390     6.3280     7.5750     6.9840
 3606.0000     0.0200     2.4520     8.0550     0.2270   139.0360   -43.2640     6.9670     7.4310     7.1130
 3606.5000     0.0240     2.4620     8.0580     0.2330   134.4330   -43.2150     6.9290     7.9340     7.2110
 3607.0000     0.0220     2.4620     8.0600     0.2370   132.5210   -42.9670     6.8840     9.2830     7.2280
 3607.5000     0.0190     2.4570     8.0630     0.2380   132.6550   -42.7200     6.8400     8.9660     7.2280
 3608.0000     0.0160     2.4480     8.0660     0.2400   130.5280   -42.4740     6.8520     8.3320     7.2280
 3608.5000     0.0140     2.4410     8.0690     0.2400   128.7510   -42.2280     6.8840     7.5690     7.2660
 3609.0000     0.0110     2.4330     8.0720     0.2400   134.5540   -41.9820     6.9160     7.7200     7.3290
 3609.5000     0.0090     2.4250     8.0750     0.2400   141.1210   -41.7360     6.9630     7.9260     7.3920
 3610.0000     0.0060     2.4250     8.0790     0.2410   154.7910   -41.4950     6.8330     7.7530     7.4310
 3610.5000     0.0060     2.4380     8.0380     0.2380   159.9460   -41.4850     6.4460     7.6390     7.3630
 3611.0000     0.0150     2.4430     7.9900     0.2300   160.3040   -41.4850     5.9960     7.9000     6.8970
 3611.5000     0.0240     2.4410     7.9420     0.2330   160.4590   -41.4850     5.2370     8.1680     6.1230
 3612.0000     0.0330     2.4570     7.8940     0.2390   150.3560   -41.4850     4.4780     8.4350     5.0780
 3612.5000     0.0390     2.4290     7.8450     0.2350   132.8540   -41.4920     3.7190     8.7710     4.0320
 3613.0000     0.0360     2.3740     7.7970     0.2290   108.9850   -41.7400     2.9600     8.0580     2.9860
 3613.5000     0.0330     2.3500     7.7490     0.2210   113.6190   -42.0080     2.3030     5.3300     2.4730
 3614.0000     0.0330     2.3550     7.7040     0.2110   120.7910   -42.2760     2.2650     2.4160     2.4120
 3614.5000     0.0360     2.3970     7.6630     0.1980   130.5200   -42.5440     2.3630     2.4160     2.3720
 3615.0000     0.0360     2.4440     7.6220     0.2090   140.2860   -42.6710     2.4970     3.2670     3.1600
 3615.5000     0.0360     2.4840     7.5810     0.2200   150.2480   -42.6710     2.6300     5.8410     3.7540
 3616.0000     0.0360     2.5180     7.5600     0.2310   159.5700   -42.5760     2.9020    22.8580     4.3480
 3616.5000     0.0360     2.5100     7.5400     0.2400   159.9380   -42.3890     3.4810    22.4400     4.9420
 3617.0000     0.0360     2.4940     7.5190     0.2530   159.6010   -42.2020     4.0600    15.7120     5.5360
 3617.5000     0.0330     2.4530     7.4990     0.2650   150.9600   -42.0150     4.6390    10.1630     5.9570
 3618.0000     0.0310     2.4220     7.4810     0.2550   149.0380   -41.8280     5.2850     9.3300     5.6160
 3618.5000     0.0300     2.4050     7.5050     0.2470   150.7190   -41.6400     5.2000     8.4870     5.3520
 3619.0000     0.0280     2.4050     7.5310     0.2410   154.2600   -41.4530     4.9550     6.0470     5.0880
 3619.5000     0.0260     2.4160     7.5560     0.2400   157.7900   -41.2660     5.1310     3.8290     4.9550
 3620.0000     0.0240     2.4280     7.5820     0.2420   160.1870   -41.0950     5.4830     5.1040     5.2390
 3620.5000     0.0300     2.4430     7.6070     0.2430   160.1060   -41.1250     5.3380     7.9990     5.4630
 3621.0000     0.0320     2.4650     7.6330     0.2400   160.0700   -41.1590     4.9090     7.9100     5.6880
 3621.5000     0.0310     2.4540     7.6590     0.2380   160.0360   -41.1930     5.0660     7.7680     5.9120
 3622.0000     0.0310     2.4470     7.6600     0.2350   159.9990   -41.2270     5.4180     7.4310     6.1360
 3622.5000     0.0300     2.4470     7.6600     0.2370   159.9640   -41.2630     5.6890     7.4570     6.3540
 3623.0000     0.0290     2.4500     7.6600     0.2410   159.9230   -41.3400     5.7420     7.4950     6.2080
 3623.5000     0.0290     2.4550     7.6600     0.2450   159.8600   -41.5880     5.4960     7.2970     6.0670
 3624.0000     0.0280     2.4450     7.6600     0.2500   159.8520   -41.8340     5.1620     6.9720     5.8430
 3624.5000     0.0270     2.4350     7.6570     0.2520   156.5350   -42.0770     4.8280     6.6530     5.5690
 3625.0000     0.0260     2.4250     7.6520     0.2460   154.0330   -42.2560     4.5610     6.5520     5.2950
 3625.5000     0.0250     2.4160     7.6470     0.2390   156.0160   -42.1090     4.5230     6.4130     4.9090
 3626.0000     0.0240     2.4070     7.6420     0.2340   159.7250   -41.9670     4.4850     5.7990     4.9170
 3626.5000     0.0320     2.4150     7.6370     0.2350   160.2220   -41.8270     4.4460     4.9550     4.9370
