~VERSION INFORMATION
 VERS.                2.0:   CWLS LOG ASCII STANDARD - VERSION 2.0
 WRAP.                 NO:   ONE LINE PER DEPTH STEP
~WELL INFORMATION
#MNEM.UNIT      DATA TYPE    INFORMATION
#----------   ------------   ------------------------------
 STRT.F           50.0000:   START DEPTH
 STOP.F         4097.5000:   STOP DEPTH
 STEP.F            0.5000:   STEP LENGTH
 NULL.          -999.2500:   NO VALUE
 COMP.   TESORO PETROLEUM:   COMPANY
 WELL. TESORO NPR 3 "DX" #77-29:   WELL
 FLD .        TEAPOT DOME:   FIELD
 LOC .      S29 T39N R78W:   LOCATION
 CNTY.            NATRONA:   COUNTY
 STAT.            WYOMING:   STATE
 CTRY. UNITED STATES OF AMERICA:   COUNTRY
 SRVC.      DRESSER ATLAS:   SERVICE COMPANY
 DATE.        30-JUL-1976:   LOGDATE
 API .     49025102650000:   API NUMBER
~CURVE INFORMATION
#MNEM.UNIT       API CODE    CURVE DESCRIPTION
#----------   ------------   ------------------------------
 DEPT.F                  :   
 CORR.G/C3   45 356 01 00:   DENSITY CORRECTION
 RHOB.G/C3   45 350 01 00:   BULK DENSITY
 CALD.IN     45 280 60 00:   CALIPER FROM DENSITY LOG
 NPHI.DEC    42 890 03 00:   NEUTRON POROSITY SANDSTONE
 GRD .GAPI   45 310 01 00:   GAMMA RAY FROM DENSITY LOG
 SPR .MV     07 010 01 00:   SPONTANEOUS POTENTIAL
 ILD .OHMM   07 120 46 00:   DEEP INDUCTION RESISTIVITY
 SFL .OHMM   07 220 01 00:   SHALLOW FOCUSED LOG RESISTIVITY
 ILM .OHMM   07 120 44 00:   INDUCTION LOG MEDIUM RESISTIVITY
~PARAMETER INFORMATION
#MNEM.UNIT          VALUE    DESCRIPTION
#----------   ------------   ------------------------------
 EKB .F         5084.5000:   Kelly bushing
 EGL .F         5073.0000:   Ground level
 EDF .F         5083.0000:   Drilling floor
 TD  .F         4102.0000:   Total depth
 DATE.        30-JUL-1976:   Date logged
 CLNT.            A2DTECH:   Client Code
 SL  . 660' FSL & 660' FEL:   Surface Location
 PD  .                 GL:   Permanent Datum
 EPD .F              5073:   Elevation Permanent Datum
 LMF .                 KB:   Log Measured From
 DMF .                 KB:   Drilling Measured From
 DD  .F              4102:   Depth driller
 DL  .F              4097:   Depth logger
 BLI .F              4095:   Bottom log interval
 TLI .F               604:   Top log interval
 CS1 .IN            8.625:   Casing size
 CBD1.      8.625" @ 599':   Casing driller 1
 CBL1.F               604:   Casing logger 1
 BS1 .IN            7.875:   Bit size
 DFT .           CHEM/GEL:   Type fluid in hole
 DFD .                9.5:   Density
 DFV .                 46:   Viscosity
 DFPH.                9.8:   pH
 DFL .                6.6:   Fluid loss
 MSS .           FLOWLINE:   Source of sample
 RMS .OHMM           1.48:   Rm
 MST .F                78:   Rm Meas. temp.
 RMF .OHMM           1.07:   Rmf
 MFST.F                78:   Rmf Meas. temp.
 RMC .OHMM           1.57:   Rmc
 MCST.F                78:   Rmc Meas. temp.
 MFSS.               MEAS:   Source Rmf.
 RMB .OHMM            .87:   Rm. at BHT
 BHT .F               132:   BHT.
 TCS .HRS               7:   Time Circ. stopped
 MRT .F               132:   Maximum recorded temp.
 LUN .               6134:   Logging unit number
 LUL .              GLTTE:   Logging unit location
 ENGI.             VAUGHN:   Recorded By
 WITN.               WOLF:   Witnessed by
 ORIG.           5" PRINT:   Origin of data
 UWI .     49025102650000:   Unique Well ID
 DICO. A2D TECHNOLOGIES, INC.:   Digitizing Company
 DAPD.F              11.5:   Feet Above Permanent Datum
 BSD1.F              4102:   Depth drilled with bit1
~OTHER INFORMATION
~A   DEPT     CORR       RHOB       CALD       NPHI        GRD         SPR         ILD        SFL        ILM 
# ...
 1510.0000     0.0110     2.6000     8.6650     0.2400    97.7940   -46.6000     6.5920     7.0680     6.9350
 1510.5000     0.0060     2.5870     8.6590     0.2390   100.4260   -46.8190     6.5920     7.0920     6.9410
 1511.0000     0.0020     2.5730     8.6530     0.2380   103.8200   -46.6650     6.5920     7.2250     6.9460
 1511.5000    -0.0040     2.5640     8.6480     0.2390   106.9930   -46.5100     6.5920     7.5180     6.9510
 1512.0000    -0.0020     2.5710     8.6420     0.2430   107.6620   -46.3560     6.5920     7.8840     6.9570
 1512.5000    -0.0010     2.5810     8.6360     0.2440   108.3330   -46.2030     6.5920     7.7170     6.9620
 1513.0000     0.0000     2.5900     8.6340     0.2410   105.2940   -46.0490     6.5920     7.3800     6.9670
 1513.5000     0.0000     2.5960     8.6340     0.2390   101.9330   -45.8950     6.5920     6.9670     6.9670
 1514.0000     0.0000     2.5890     8.6340     0.2370    99.3890   -45.7420     6.5920     7.0260     6.9670
 1514.5000     0.0000     2.5760     8.6340     0.2370    97.4910   -45.5880     6.5910     7.1300     6.9670
 1515.0000     0.0000     2.5650     8.6340     0.2380    97.7270   -45.4330     6.5910     7.2350     6.9670
 1515.5000     0.0000     2.5660     8.6340     0.2400    99.2380   -45.2750     6.5920     7.3390     6.9670
 1516.0000     0.0020     2.5660     8.6340     0.2450   100.8930   -45.3880     6.2950     7.4310     6.9380
 1516.5000     0.0040     2.5730     8.6380     0.2490   102.5620   -45.5600     6.3280     7.3180     6.8830
 1517.0000     0.0050     2.5820     8.6430     0.2510   103.3300   -45.7340     6.3730     7.1950     6.8280
 1517.5000     0.0070     2.5890     8.6490     0.2480   102.8590   -45.9080     6.4180     6.9670     6.7770
 1518.0000     0.0080     2.5830     8.6540     0.2450   102.3900   -46.0820     6.4630     7.0150     6.7770
 1518.5000     0.0080     2.5750     8.6460     0.2430   102.0170   -46.2560     6.5080     7.1160     6.7770
 1519.0000     0.0080     2.5740     8.6350     0.2430   103.7120   -46.4300     6.5530     7.2180     6.7770
 1519.5000     0.0080     2.5660     8.6250     0.2440   105.4390   -46.6050     6.5980     7.3690     6.7770
 1520.0000     0.0080     2.5650     8.6150     0.2410   106.6480   -46.7850     6.6430     7.6850     6.7770
 1520.5000     0.0080     2.5760     8.6040     0.2430   107.6120   -46.7600     6.7150     7.9990     6.7770
 1521.0000     0.0130     2.5870     8.5940     0.2460   106.6150   -46.6640     6.6930     7.5320     6.7770
 1521.5000     0.0190     2.5860     8.6030     0.2450   105.7640   -46.5670     6.6400     6.9670     6.7770
 1522.0000     0.0250     2.5870     8.6140     0.2400   105.9280   -46.4690     6.5870     7.0500     6.7770
 1522.5000     0.0300     2.5890     8.6250     0.2400   106.1400   -46.3710     6.5330     7.0960     6.7800
 1523.0000     0.0350     2.5670     8.6360     0.2410   103.6340   -46.2740     6.4800     7.1270     6.7990
 1523.5000     0.0320     2.5530     8.6460     0.2370   100.7080   -46.1070     6.4130     7.1620     6.8190
 1524.0000     0.0280     2.5430     8.6530     0.2310   102.2140   -45.9030     6.5140     7.2710     6.8400
 1524.5000     0.0320     2.5370     8.6470     0.2280   105.2300   -45.7000     6.6520     7.6120     6.8540
 1525.0000     0.0360     2.5500     8.6400     0.2370   108.0500   -45.4950     6.7770     7.7810     6.8830
 1525.5000     0.0270     2.5480     8.6340     0.2430   109.2700   -45.2860     6.6840     7.4330     6.9110
 1526.0000     0.0190     2.5540     8.6300     0.2410   111.3980   -45.3440     6.5810     7.2950     6.9400
 1526.5000     0.0110     2.5660     8.6260     0.2430   111.4020   -45.4590     6.4780     7.3610     6.9670
 1527.0000     0.0090     2.5730     8.6210     0.2460   112.1200   -45.5760     6.3750     7.4310     6.8880
 1527.5000     0.0130     2.5660     8.6180     0.2490   112.3920   -45.6930     6.2720     7.3320     6.8140
 1528.0000     0.0150     2.5580     8.6560     0.2510   107.7620   -45.8120     6.1690     7.1810     6.7400
 1528.5000     0.0190     2.5560     8.7650     0.2510   106.4440   -45.9080     6.0680     7.0310     6.6660
 1529.0000     0.0210     2.5590     8.8150     0.2470   106.6010   -45.9970     6.0680     7.0310     6.5920
 1529.5000     0.0200     2.5610     8.7620     0.2410   106.4250   -46.2660     6.0680     7.0310     6.5180
 1530.0000     0.0110     2.5670     8.7060     0.2400   104.6880   -46.7170     6.0680     7.0310     6.4130
 1530.5000     0.0290     2.6060     8.6500     0.2450   102.9480   -46.7220     6.0680     7.0960     6.4250
 1531.0000     0.0320     2.6010     8.6170     0.2470   102.3160   -46.5790     6.0680     7.0960     6.4570
 1531.5000     0.0320     2.5780     8.6260     0.2370   101.9570   -46.4320     6.0940     7.0960     6.4900
 1532.0000     0.0320     2.5750     8.6350     0.2300   101.6060   -46.2850     6.1670     6.9780     6.5230
 1532.5000     0.0320     2.5720     8.6740     0.2270   100.9990   -46.1370     6.2410     6.8400     6.5770
 1533.0000     0.0320     2.5780     8.6050     0.2330    99.1330   -45.9890     6.3150     7.1080     6.6620
 1533.5000     0.0360     2.5820     8.5190     0.2400    99.7850   -45.8410     6.3890     7.4310     6.7470
 1534.0000     0.0410     2.5790     8.5550     0.2350    99.8570   -45.6930     6.4630     7.3680     6.8320
 1534.5000     0.0450     2.5890     8.5640     0.2300    99.8690   -45.5450     6.5320     7.2770     6.9170
 1535.0000     0.0500     2.6000     8.5340     0.2300   100.3010   -45.3970     6.7240     7.2280     7.0020
 1535.5000     0.0440     2.6090     8.5140     0.2270   100.7300   -45.2570     6.9670     7.4390     7.0310
 1536.0000     0.0280     2.5980     8.5090     0.2250   101.5440   -45.3510     6.9480     7.6850     7.0310
 1536.5000     0.0130     2.5890     8.5040     0.2280   103.3690   -45.4560     6.9190     7.9260     7.0310
 1537.0000     0.0130     2.5910     8.4990     0.2320   105.6880   -45.5620     6.8900     7.7470     7.0310
 1537.5000     0.0200     2.5940     8.4940     0.2330   107.2650   -45.6670     6.8610     7.5770     7.0310
 1538.0000     0.0280     2.5910     8.4890     0.2340   107.1760   -45.7740     6.8320     7.4060     7.0310
 1538.5000     0.0350     2.5760     8.4840     0.2370   105.7610   -45.9150     6.8030     7.1620     7.0310
 1539.0000     0.0420     2.5700     8.4790     0.2390   104.9540   -46.1680     6.7740     7.1840     7.0310
 1539.5000     0.0500     2.5810     8.4760     0.2390   105.5200   -46.4130     6.7450     7.2230     7.0320
 1540.0000     0.0440     2.5880     8.5130     0.2390   105.3200   -46.6550     6.7150     7.2610     7.0080
 1540.5000     0.0290     2.5790     8.5530     0.2390   104.5360   -46.8040     6.6720     7.2950     6.9660
 1541.0000     0.0160     2.5680     8.5390     0.2350   104.8760   -46.6810     6.6270     7.4110     6.9240
 1541.5000     0.0040     2.5600     8.5210     0.2310   105.9970   -46.5640     6.5810     7.5710     6.8810
 1542.0000     0.0090     2.5530     8.5030     0.2390   104.3560   -46.4480     6.5360     7.7810     6.8390
 1542.5000     0.0170     2.5480     8.5020     0.2520   101.7140   -46.3320     6.4900     7.6570     6.7970
 1543.0000     0.0240     2.5440     8.5150     0.2480   101.6620   -46.2160     6.4450     7.4020     6.7550
 1543.5000     0.0320     2.5400     8.5280     0.2430   105.1150   -46.1000     6.3990     7.1620     6.7150
 1544.0000     0.0400     2.5580     8.5160     0.2410   108.2750   -45.9840     6.3540     7.2120     6.6950
 1544.5000     0.0390     2.5800     8.4810     0.2430   110.1680   -45.8670     6.3080     7.2590     6.6730
 1545.0000     0.0270     2.5700     8.4450     0.2410   110.9170   -45.7510     6.2630     7.2950     6.6500
 1545.5000     0.0160     2.5430     8.4270     0.2410   108.6990   -45.6350     6.2170     7.1620     6.6280
 1546.0000     0.0120     2.5370     8.4160     0.2400   107.7500   -45.5200     6.1810     7.0310     6.6050
