~VERSION INFORMATION
 VERS.                2.0:   CWLS LOG ASCII STANDARD - VERSION 2.0
 WRAP.                 NO:   ONE LINE PER DEPTH STEP
~WELL INFORMATION
#MNEM.UNIT      DATA TYPE    INFORMATION
#----------   ------------   ------------------------------
 STRT.F           50.0000:   START DEPTH
 STOP.F         4097.5000:   STOP DEPTH
 STEP.F            0.5000:   STEP LENGTH
 NULL.          -999.2500:   NO VALUE
 COMP.   TESORO PETROLEUM:   COMPANY
 WELL. TESORO NPR 3 "DX" #77-29:   WELL
 FLD .        TEAPOT DOME:   FIELD
 LOC .      S29 T39N R78W:   LOCATION
 CNTY.            NATRONA:   COUNTY
 STAT.            WYOMING:   STATE
 CTRY. UNITED STATES OF AMERICA:   COUNTRY
 SRVC.      DRESSER ATLAS:   SERVICE COMPANY
 DATE.        30-JUL-1976:   LOGDATE
 API .     49025102650000:   API NUMBER
~CURVE INFORMATION
#MNEM.UNIT       API CODE    CURVE DESCRIPTION
#----------   ------------   ------------------------------
 DEPT.F                  :   
 CORR.G/C3   45 356 01 00:   DENSITY CORRECTION
 RHOB.G/C3   45 350 01 00:   BULK DENSITY
 CALD.IN     45 280 60 00:   CALIPER FROM DENSITY LOG
 NPHI.DEC    42 890 03 00:   NEUTRON POROSITY SANDSTONE
 GRD .GAPI   45 310 01 00:   GAMMA RAY FROM DENSITY LOG
 SPR .MV     07 010 01 00:   SPONTANEOUS POTENTIAL
 ILD .OHMM   07 120 46 00:   DEEP INDUCTION RESISTIVITY
 SFL .OHMM   07 220 01 00:   SHALLOW FOCUSED LOG RESISTIVITY
 ILM .OHMM   07 120 44 00:   INDUCTION LOG MEDIUM RESISTIVITY
~PARAMETER INFORMATION
#MNEM.UNIT          VALUE    DESCRIPTION
#----------   ------------   ------------------------------
 EKB .F         5084.5000:   Kelly bushing
 EGL .F         5073.0000:   Ground level
 EDF .F         5083.0000:   Drilling floor
 TD  .F         4102.0000:   Total depth
 DATE.        30-JUL-1976:   Date logged
 CLNT.            A2DTECH:   Client Code
 SL  . 660' FSL & 660' FEL:   Surface Location
 PD  .                 GL:   Permanent Datum
 EPD .F              5073:   Elevation Permanent Datum
 LMF .                 KB:   Log Measured From
 DMF .                 KB:   Drilling Measured From
 DD  .F              4102:   Depth driller
 DL  .F              4097:   Depth logger
 BLI .F              4095:   Bottom log interval
 TLI .F               604:   Top log interval
 CS1 .IN            8.625:   Casing size
 CBD1.      8.625" @ 599':   Casing driller 1
 CBL1.F               604:   Casing logger 1
 BS1 .IN            7.875:   Bit size
 DFT .           CHEM/GEL:   Type fluid in hole
 DFD .                9.5:   Density
 DFV .                 46:   Viscosity
 DFPH.                9.8:   pH
 DFL .                6.6:   Fluid loss
 MSS .           FLOWLINE:   Source of sample
 RMS .OHMM           1.48:   Rm
 MST .F                78:   Rm Meas. temp.
 RMF .OHMM           1.07:   Rmf
 MFST.F                78:   Rmf Meas. temp.
 RMC .OHMM           1.57:   Rmc
 MCST.F                78:   Rmc Meas. temp.
 MFSS.               MEAS:   Source Rmf.
 RMB .OHMM            .87:   Rm. at BHT
 BHT .F               132:   BHT.
 TCS .HRS               7:   Time Circ. stopped
 MRT .F               132:   Maximum recorded temp.
 LUN .               6134:   Logging unit number
 LUL .              GLTTE:   Logging unit location
 ENGI.             VAUGHN:   Recorded By
 WITN.               WOLF:   Witnessed by
 ORIG.           5" PRINT:   Origin of data
 UWI .     49025102650000:   Unique Well ID
 DICO. A2D TECHNOLOGIES, INC.:   Digitizing Company
 DAPD.F              11.5:   Feet Above Permanent Datum
 BSD1.F              4102:   Depth drilled with bit1
~OTHER INFORMATION
~A   DEPT     CORR       RHOB       CALD       NPHI        GRD         SPR         ILD        SFL        ILM 
# ...
  780.0000     0.1090     2.4640    11.2870     0.2990   111.4240   -45.2190     5.0570     5.7120     4.8810
  780.5000     0.1220     2.4700    11.7430     0.2990   109.8010   -45.3840     5.0690     5.7950     4.8910
  781.0000     0.1140     2.4820    11.5020     0.2970   108.2960   -45.5500     5.0820     5.7390     4.9010
  781.5000     0.1050     2.4730    11.3540     0.2940   107.0470   -45.9060     5.0940     5.6810     4.9110
  782.0000     0.1010     2.4390    10.7450     0.2900   106.1520   -46.5320     5.1060     5.6230     4.9160
  782.5000     0.1050     2.4120    10.9750     0.2870   105.9230   -46.5530     5.1190     5.5850     4.9230
  783.0000     0.1100     2.3860    11.5200     0.2830   108.8780   -46.4650     5.1310     5.7050     4.9290
  783.5000     0.1160     2.4080    11.2450     0.2790   109.5580   -46.3730     5.1440     5.7940     4.9350
  784.0000     0.1250     2.4290    10.3900     0.2740   108.3990   -46.2820     5.1560     5.9020     4.9410
  784.5000     0.1350     2.4390     9.8990     0.2680   108.1470   -46.1900     5.1690     5.8030     4.9470
  785.0000     0.1460     2.4080     9.8550     0.2630   107.7770   -46.0980     5.1810     5.7240     4.9530
  785.5000     0.1560     2.3750    10.1260     0.2580   106.4120   -46.0060     5.2940     5.6450     5.1120
  786.0000     0.1680     2.3430    11.0510     0.2530   106.5970   -45.9150     5.5710     5.5340     5.3130
  786.5000     0.1650     2.3080    10.8660     0.2480   106.6790   -45.8230     5.8480     5.6220     5.5150
  787.0000     0.1510     2.3490    10.4800     0.2420   104.3440   -45.7310     6.1250     5.8060     5.7870
  787.5000     0.1400     2.4420     9.8330     0.2320   102.3290   -45.6460     6.4020     6.1370     6.1690
  788.0000     0.1290     2.4660     9.9800     0.2270   101.2530   -45.6440     6.6790     6.4690     6.5510
  788.5000     0.1370     2.4900     9.7860     0.2230   101.1700   -45.6430     6.9560     6.8000     6.9330
  789.0000     0.1460     2.5100    10.0370     0.2210   101.0640   -45.6360     7.2330     7.1310     7.3150
  789.5000     0.1440     2.5260    10.0180     0.2240   100.6180   -45.8770     7.5100     7.4620     7.6970
  790.0000     0.1400     2.5120     9.9090     0.2250    98.2090   -46.1420     7.7870     7.8530     8.0780
  790.5000     0.1360     2.5100     9.9060     0.2260    96.9160   -46.4090     8.2230     7.7610     8.5320
  791.0000     0.1330     2.5070     9.8820     0.2310    97.3040   -46.6770     8.1950     7.6490     8.4700
  791.5000     0.1280     2.4990     9.8560     0.2360    98.4700   -46.9450     8.1290     7.5370     8.3250
  792.0000     0.1340     2.4650     9.8270     0.2390    98.6400   -47.2130     8.0640     7.4250     8.1810
  792.5000     0.1560     2.3930    10.0100     0.2380    97.9320   -47.4800     7.9980     7.3130     8.0360
  793.0000     0.1680     2.3510     9.8170     0.2370    97.8800   -47.6980     7.9320     7.2360     7.8920
  793.5000     0.1690     2.3170     9.8010     0.2400    98.7390   -47.7880     7.8670     7.1450     7.7470
  794.0000     0.1740     2.2980     9.8770     0.2440    98.3660   -47.6410     7.8010     7.0530     7.6290
  794.5000     0.1790     2.3080     9.8950     0.2490    97.9600   -47.4990     7.7350     6.9620     7.5880
  795.0000     0.1830     2.3270    10.1490     0.2520    97.5580   -47.3580     7.6700     6.8400     7.5470
  795.5000     0.1860     2.3750    10.4750     0.2480    97.1710   -47.2160     7.6040     6.8770     7.5060
  796.0000     0.1710     2.4130    10.3840     0.2430    98.1180   -47.0740     7.5690     6.9340     7.4650
  796.5000     0.1570     2.4040    10.6610     0.2380    99.5080   -46.9330     7.5860     6.9900     7.4250
  797.0000     0.1540     2.3840    10.4580     0.2390    98.6490   -46.7910     7.6000     7.0310     7.3840
  797.5000     0.1670     2.3670    10.1340     0.2390    97.5870   -46.6490     7.6140     7.0310     7.3630
  798.0000     0.1700     2.3640     9.7280     0.2390    99.1700   -46.5080     7.6280     7.0310     7.3630
  798.5000     0.1730     2.3750     9.8280     0.2400    99.8290   -46.3660     7.6420     7.0310     7.3630
  799.0000     0.1790     2.3740     9.9950     0.2460    99.4560   -46.2240     7.6550     7.0140     7.3630
  799.5000     0.1740     2.3600    10.1660     0.2470   101.0250   -46.0760     7.6690     6.9780     7.3630
  800.0000     0.1680     2.3590    10.2290     0.2480   102.8500   -46.1720     7.6830     6.9420     7.3630
  800.5000     0.1630     2.3680    10.2800     0.2540   104.4510   -46.3540     7.6970     6.9030     7.3630
  801.0000     0.1560     2.3730    10.3270     0.2520   103.9250   -46.5380     7.7090     6.9310     7.3630
  801.5000     0.1590     2.3590    10.0810     0.2510   103.6270   -46.7230     7.6940     6.9640     7.3630
  802.0000     0.1700     2.3680     9.9580     0.2510   102.9970   -46.9070     7.6810     6.9960     7.3750
  802.5000     0.1790     2.3870    10.0190     0.2530   101.1570   -47.0900     7.6670     7.0280     7.4010
  803.0000     0.1860     2.3600    10.1140     0.2560   101.6570   -47.2200     7.6530     7.0600     7.4270
  803.5000     0.1690     2.3310    10.2520     0.2590   103.0350   -47.1700     7.6390     7.0920     7.4540
  804.0000     0.1550     2.3030    10.3560     0.2570   103.6880   -47.1240     7.6250     7.0960     7.4800
  804.5000     0.1410     2.2250    10.4130     0.2490   104.1640   -47.0780     7.6110     7.0960     7.4990
  805.0000     0.1250     2.2360    10.2850     0.2470   103.4340   -47.0320     7.5970     7.0960     7.4690
  805.5000     0.1350     2.3210     9.8920     0.2480   101.4410   -46.9870     7.5840     7.0960     7.4450
  806.0000     0.1490     2.3650    10.3200     0.2490    99.7260   -46.9400     7.5700     7.0960     7.4210
  806.5000     0.1630     2.3960    10.1560     0.2470    97.6070   -46.8950     7.5560     7.0960     7.3960
  807.0000     0.1630     2.4080     9.9260     0.2470    97.8520   -46.8510     7.5420     7.0960     7.3720
  807.5000     0.1650     2.4060    10.2910     0.2490    99.4310   -46.6390     7.5280     7.0960     7.3630
  808.0000     0.1660     2.3930    10.6630     0.2510   100.8560   -46.3300     7.5140     7.0960     7.3630
  808.5000     0.1670     2.3730    10.8570     0.2620   101.7630   -46.0180     7.5000     7.0960     7.3630
  809.0000     0.1670     2.3540    10.6090     0.2660   102.5310   -45.7020     7.4870     7.0960     7.3630
  809.5000     0.1560     2.3370    10.4820     0.2650   103.9030   -45.7830     7.4730     7.0960     7.3630
  810.0000     0.1480     2.3180    10.3930     0.2630   104.2350   -45.9500     7.4590     7.0950     7.3630
  810.5000     0.1400     2.3300    10.1900     0.2610   103.1020   -46.1190     7.4450     7.0880     7.3630
  811.0000     0.1460     2.3530     9.9840     0.2590   102.4930   -46.2890     7.4310     7.0810     7.3630
  811.5000     0.1540     2.3550     9.8060     0.2580   103.7490   -46.4600     7.4370     7.0750     7.3630
  812.0000     0.1600     2.3560    10.2440     0.2560   104.5630   -46.6300     7.4450     7.0680     7.3630
  812.5000     0.1660     2.4070    10.4600     0.2540   105.3990   -46.8000     7.4540     7.0610     7.3630
  813.0000     0.1420     2.4450    10.2730     0.2490   106.1080   -46.9700     7.4620     7.0540     7.3630
  813.5000     0.1170     2.4700     9.9970     0.2430   105.7230   -47.1400     7.4700     7.0480     7.3530
  814.0000     0.1080     2.4620     9.9310     0.2400   103.3410   -47.3070     7.4790     7.0410     7.3410
  814.5000     0.1270     2.4440     9.7720     0.2330   101.1800   -47.3720     7.4870     7.0340     7.3280
  815.0000     0.1410     2.4180     9.4530     0.2340   101.2110   -47.1710     7.4990     7.0270     7.3150
  815.5000     0.1580     2.4260     9.3990     0.2360   101.8390   -46.9780     7.4870     7.0210     7.3030
  816.0000     0.1600     2.4630     9.8970     0.2370   101.4900   -46.7860     7.4630     7.0140     7.2900
