~VERSION INFORMATION
 VERS.                2.0:   CWLS LOG ASCII STANDARD - VERSION 2.0
 WRAP.                 NO:   ONE LINE PER DEPTH STEP
~WELL INFORMATION
#MNEM.UNIT      DATA TYPE    INFORMATION
#----------   ------------   ------------------------------
 STRT.F           50.0000:   START DEPTH
 STOP.F         4097.5000:   STOP DEPTH
 STEP.F            0.5000:   STEP LENGTH
 NULL.          -999.2500:   NO VALUE
 COMP.   TESORO PETROLEUM:   COMPANY
 WELL. TESORO NPR 3 "DX" #77-29:   WELL
 FLD .        TEAPOT DOME:   FIELD
 LOC .      S29 T39N R78W:   LOCATION
 CNTY.            NATRONA:   COUNTY
 STAT.            WYOMING:   STATE
 CTRY. UNITED STATES OF AMERICA:   COUNTRY
 SRVC.      DRESSER ATLAS:   SERVICE COMPANY
 DATE.        30-JUL-1976:   LOGDATE
 API .     49025102650000:   API NUMBER
~CURVE INFORMATION
#MNEM.UNIT       API CODE    CURVE DESCRIPTION
#----------   ------------   ------------------------------
 DEPT.F                  :   
 CORR.G/C3   45 356 01 00:   DENSITY CORRECTION
 RHOB.G/C3   45 350 01 00:   BULK DENSITY
 CALD.IN     45 280 60 00:   CALIPER FROM DENSITY LOG
 NPHI.DEC    42 890 03 00:   NEUTRON POROSITY SANDSTONE
 GRD .GAPI   45 310 01 00:   GAMMA RAY FROM DENSITY LOG
 SPR .MV     07 010 01 00:   SPONTANEOUS POTENTIAL
 ILD .OHMM   07 120 46 00:   DEEP INDUCTION RESISTIVITY
 SFL .OHMM   07 220 01 00:   SHALLOW FOCUSED LOG RESISTIVITY
 ILM .OHMM   07 120 44 00:   INDUCTION LOG MEDIUM RESISTIVITY
~PARAMETER INFORMATION
#MNEM.UNIT          VALUE    DESCRIPTION
#----------   ------------   ------------------------------
 EKB .F         5084.5000:   Kelly bushing
 EGL .F         5073.0000:   Ground level
 EDF .F         5083.0000:   Drilling floor
 TD  .F         4102.0000:   Total depth
 DATE.        30-JUL-1976:   Date logged
 CLNT.            A2DTECH:   Client Code
 SL  . 660' FSL & 660' FEL:   Surface Location
 PD  .                 GL:   Permanent Datum
 EPD .F              5073:   Elevation Permanent Datum
 LMF .                 KB:   Log Measured From
 DMF .                 KB:   Drilling Measured From
 DD  .F              4102:   Depth driller
 DL  .F              4097:   Depth logger
 BLI .F              4095:   Bottom log interval
 TLI .F               604:   Top log interval
 CS1 .IN            8.625:   Casing size
 CBD1.      8.625" @ 599':   Casing driller 1
 CBL1.F               604:   Casing logger 1
 BS1 .IN            7.875:   Bit size
 DFT .           CHEM/GEL:   Type fluid in hole
 DFD .                9.5:   Density
 DFV .                 46:   Viscosity
 DFPH.                9.8:   pH
 DFL .                6.6:   Fluid loss
 MSS .           FLOWLINE:   Source of sample
 RMS .OHMM           1.48:   Rm
 MST .F                78:   Rm Meas. temp.
 RMF .OHMM           1.07:   Rmf
 MFST.F                78:   Rmf Meas. temp.
 RMC .OHMM           1.57:   Rmc
 MCST.F                78:   Rmc Meas. temp.
 MFSS.               MEAS:   Source Rmf.
 RMB .OHMM            .87:   Rm. at BHT
 BHT .F               132:   BHT.
 TCS .HRS               7:   Time Circ. stopped
 MRT .F               132:   Maximum recorded temp.
 LUN .               6134:   Logging unit number
 LUL .              GLTTE:   Logging unit location
 ENGI.             VAUGHN:   Recorded By
 WITN.               WOLF:   Witnessed by
 ORIG.           5" PRINT:   Origin of data
 UWI .     49025102650000:   Unique Well ID
 DICO. A2D TECHNOLOGIES, INC.:   Digitizing Company
 DAPD.F              11.5:   Feet Above Permanent Datum
 BSD1.F              4102:   Depth drilled with bit1
~OTHER INFORMATION
~A   DEPT     CORR       RHOB       CALD       NPHI        GRD         SPR         ILD        SFL        ILM 
# ...
 2422.5000     0.0190     2.6100     8.4360     0.2410   116.3430   -45.5070     3.8160     5.0330     4.3400
 2423.0000     0.0130     2.5970     8.4350     0.2370   115.4830   -45.4350     3.9170     5.5370     4.4530
 2423.5000     0.0170     2.6010     8.4350     0.2330   111.5450   -45.3630     4.0430     5.6890     4.5660
 2424.0000     0.0200     2.6210     8.4350     0.2310   108.3640   -45.2910     4.1690     5.4030     4.6660
 2424.5000     0.0230     2.6310     8.4350     0.2250   107.2530   -45.2190     4.2960     5.1430     4.7340
 2425.0000     0.0260     2.6280     8.4350     0.2190   109.9350   -45.1470     4.4220     4.8870     4.8020
 2425.5000     0.0260     2.6250     8.4350     0.2210   110.5380   -45.0750     4.5610     4.8200     4.8700
 2426.0000     0.0190     2.6200     8.4350     0.2240   109.6140   -45.0030     4.6160     5.3810     4.9380
 2426.5000     0.0130     2.6130     8.4350     0.2270   109.9070   -44.9300     4.6940     5.6370     5.0060
 2427.0000     0.0080     2.6060     8.4370     0.2280   110.4990   -44.8570     4.7720     5.4170     5.0740
 2427.5000     0.0050     2.6030     8.4440     0.2260   112.2120   -44.9220     4.8510     5.2360     5.1420
 2428.0000     0.0020     2.5950     8.4510     0.2280   113.9300   -45.0000     4.9290     5.4400     5.2100
 2428.5000    -0.0010     2.5850     8.4590     0.2300   114.8690   -45.0780     5.0080     5.6890     5.2850
 2429.0000    -0.0040     2.5750     8.4660     0.2330   116.2240   -45.1560     5.0470     5.6570     5.2440
 2429.5000    -0.0070     2.5650     8.4730     0.2360   119.4760   -45.2350     4.9440     5.5920     5.1990
 2430.0000    -0.0100     2.5570     8.4810     0.2410   121.8180   -45.3130     4.8650     5.5340     5.1540
 2430.5000    -0.0090     2.5600     8.4880     0.2490   122.9100   -45.3940     4.7860     5.5340     5.0610
 2431.0000    -0.0010     2.5670     8.4950     0.2460   122.7090   -45.5200     4.7070     5.5340     4.9470
 2431.5000     0.0070     2.5740     8.5020     0.2490   121.2110   -45.7960     4.6280     5.5340     4.8330
 2432.0000     0.0050     2.5650     8.5090     0.2530   117.4750   -46.0260     4.5490     5.3860     4.7320
 2432.5000     0.0020     2.5430     8.5160     0.2430   118.9880   -45.8410     4.4770     5.0900     4.5610
 2433.0000     0.0000     2.5240     8.5220     0.2330   122.0830   -45.6570     4.4360     4.7940     4.5870
 2433.5000     0.0010     2.5330     8.5290     0.2280   128.3880   -45.4740     4.3980     4.6030     4.6410
 2434.0000     0.0010     2.5510     8.5360     0.2320   128.3270   -45.2920     4.3600     5.0250     4.6940
 2434.5000     0.0020     2.5680     8.5430     0.2370   127.9890   -45.1100     4.3230     6.0120     4.7760
 2435.0000     0.0030     2.5890     8.5490     0.2410   129.2140   -44.9280     4.2850     5.8940     4.6350
 2435.5000     0.0030     2.5850     8.5500     0.2390   127.0210   -44.7460     4.2470     5.7150     4.4790
 2436.0000     0.0060     2.5730     8.5210     0.2330   123.5610   -44.6550     4.1980     5.2820     4.3230
 2436.5000     0.0100     2.5700     8.4930     0.2270   119.9230   -44.6560     4.2840     4.8290     4.2760
 2437.0000     0.0150     2.5750     8.4650     0.2220   116.2450   -44.6860     4.4080     4.6030     4.5800
 2437.5000     0.0190     2.5950     8.4370     0.2200   112.5840   -44.8080     4.5310     4.8750     4.8140
 2438.0000     0.0230     2.6060     8.4490     0.2190   113.0830   -44.9270     4.6550     5.4180     5.0470
 2438.5000     0.0180     2.6090     8.4640     0.2200   116.0610   -45.0460     4.7780     5.9620     5.2810
 2439.0000     0.0130     2.6080     8.4780     0.2230   119.2890   -45.1670     4.9020     6.7770     5.5150
 2439.5000     0.0070     2.6080     8.4930     0.2260   118.5410   -45.3200     5.0250     6.6380     5.5850
 2440.0000     0.0040     2.5920     8.5070     0.2300   118.6660   -45.5850     5.1490     6.3830     5.5850
 2440.5000     0.0050     2.5900     8.4970     0.2310   118.8240   -45.8450     5.2720     6.1270     5.5850
 2441.0000     0.0050     2.5980     8.4610     0.2310   118.9880   -46.1060     5.3830     5.7950     5.5340
 2441.5000     0.0050     2.6010     8.4250     0.2330   119.0600   -46.1530     5.4000     5.8220     5.5620
 2442.0000     0.0050     2.6000     8.3870     0.2340   117.9490   -45.9880     5.4160     5.8770     5.6180
 2442.5000     0.0060     2.5980     8.3760     0.2330   115.6390   -45.8250     5.4320     5.9320     5.6740
 2443.0000     0.0060     2.5870     8.3760     0.2340   114.7200   -45.6600     5.4470     5.9870     5.7300
 2443.5000     0.0060     2.5810     8.3760     0.2330   114.3430   -45.4890     5.4630     6.0410     5.7870
 2444.0000     0.0070     2.5880     8.3760     0.2280   114.4030   -45.4870     5.4780     6.0960     5.8480
 2444.5000     0.0070     2.5930     8.3610     0.2230   116.8460   -45.5400     5.4960     6.1510     5.8670
 2445.0000     0.0080     2.5980     8.3380     0.2200   115.7050   -45.5950     5.5200     6.2060     5.8880
 2445.5000     0.0080     2.6080     8.3150     0.2220   113.8560   -45.6260     5.5450     6.2610     5.9090
 2446.0000     0.0090     2.6180     8.2960     0.2260   113.5400   -45.3200     5.5700     6.3150     5.9300
 2446.5000     0.0110     2.6160     8.3000     0.2310   114.9550   -45.0540     5.5950     6.3540     5.9510
 2447.0000     0.0130     2.6170     8.3040     0.2360   116.5220   -45.0500     5.6190     6.2840     5.9720
 2447.5000     0.0160     2.6240     8.3080     0.2370   118.1030   -45.0510     5.6370     6.2310     5.9930
 2448.0000     0.0140     2.6310     8.3110     0.2390   117.2800   -45.0510     5.6130     6.1780     6.0120
 2448.5000     0.0090     2.6140     8.3150     0.2370   116.5090   -45.1700     5.5920     6.1240     5.9690
 2449.0000     0.0050     2.5890     8.3190     0.2340   115.6130   -45.4090     5.5710     6.0710     5.9300
 2449.5000     0.0010     2.5810     8.3220     0.2330   114.4180   -45.6480     5.5490     6.0120     5.8910
 2450.0000    -0.0040     2.5830     8.3260     0.2360   115.8450   -45.8860     5.5280     6.0120     5.8480
 2450.5000     0.0000     2.5850     8.3300     0.2350   115.2620   -46.1260     5.5070     6.0650     5.8760
 2451.0000     0.0040     2.5930     8.3330     0.2280   113.8250   -46.3740     5.4830     6.2410     5.9310
 2451.5000     0.0090     2.6060     8.3350     0.2240   113.4570   -46.3210     5.5060     6.4170     5.9860
 2452.0000     0.0140     2.6130     8.3290     0.2210   113.5020   -46.1690     5.5300     6.5930     6.0410
 2452.5000     0.0130     2.6090     8.3230     0.2210   113.5650   -46.0140     5.5550     6.7150     6.0680
 2453.0000     0.0030     2.5960     8.3170     0.2200   113.6190   -45.8590     5.5800     6.5390     6.0140
 2453.5000    -0.0050     2.5810     8.3110     0.2200   113.6800   -45.7040     5.6050     6.4040     5.9650
 2454.0000    -0.0150     2.5700     8.3050     0.2200   112.4720   -45.5480     5.6300     6.2690     5.9160
 2454.5000    -0.0130     2.5770     8.2990     0.2190   110.4230   -45.3920     5.6970     6.0680     5.8480
 2455.0000    -0.0080     2.5840     8.2930     0.2150   108.8010   -45.2370     5.7240     6.1010     5.9580
 2455.5000    -0.0090     2.5850     8.2870     0.2130   111.6100   -45.0820     5.7510     6.1440     6.0410
 2456.0000    -0.0090     2.5790     8.2810     0.2190   116.1050   -44.9260     5.7780     6.3070     6.1240
 2456.5000    -0.0100     2.5780     8.2750     0.2250   118.6700   -44.8820     5.8040     6.4700     6.2070
 2457.0000    -0.0110     2.5880     8.2690     0.2300   120.1870   -44.9370     5.8310     6.6330     6.2950
 2457.5000    -0.0120     2.5980     8.2630     0.2280   121.1920   -44.9910     5.8580     6.8400     6.3540
 2458.0000    -0.0110     2.6010     8.2570     0.2260   119.3020   -45.0460     5.8850     6.7710     6.2330
 2458.5000    -0.0090     2.6030     8.2560     0.2280   115.8030   -45.1010     5.9020     6.6780     6.1260
