~VERSION INFORMATION
 VERS.                2.0:   CWLS LOG ASCII STANDARD - VERSION 2.0
 WRAP.                 NO:   ONE LINE PER DEPTH STEP
~WELL INFORMATION
#MNEM.UNIT      DATA TYPE    INFORMATION
#----------   ------------   ------------------------------
 STRT.F           50.0000:   START DEPTH
 STOP.F         4097.5000:   STOP DEPTH
 STEP.F            0.5000:   STEP LENGTH
 NULL.          -999.2500:   NO VALUE
 COMP.   TESORO PETROLEUM:   COMPANY
 WELL. TESORO NPR 3 "DX" #77-29:   WELL
 FLD .        TEAPOT DOME:   FIELD
 LOC .      S29 T39N R78W:   LOCATION
 CNTY.            NATRONA:   COUNTY
 STAT.            WYOMING:   STATE
 CTRY. UNITED STATES OF AMERICA:   COUNTRY
 SRVC.      DRESSER ATLAS:   SERVICE COMPANY
 DATE.        30-JUL-1976:   LOGDATE
 API .     49025102650000:   API NUMBER
~CURVE INFORMATION
#MNEM.UNIT       API CODE    CURVE DESCRIPTION
#----------   ------------   ------------------------------
 DEPT.F                  :   
 CORR.G/C3   45 356 01 00:   DENSITY CORRECTION
 RHOB.G/C3   45 350 01 00:   BULK DENSITY
 CALD.IN     45 280 60 00:   CALIPER FROM DENSITY LOG
 NPHI.DEC    42 890 03 00:   NEUTRON POROSITY SANDSTONE
 GRD .GAPI   45 310 01 00:   GAMMA RAY FROM DENSITY LOG
 SPR .MV     07 010 01 00:   SPONTANEOUS POTENTIAL
 ILD .OHMM   07 120 46 00:   DEEP INDUCTION RESISTIVITY
 SFL .OHMM   07 220 01 00:   SHALLOW FOCUSED LOG RESISTIVITY
 ILM .OHMM   07 120 44 00:   INDUCTION LOG MEDIUM RESISTIVITY
~PARAMETER INFORMATION
#MNEM.UNIT          VALUE    DESCRIPTION
#----------   ------------   ------------------------------
 EKB .F         5084.5000:   Kelly bushing
 EGL .F         5073.0000:   Ground level
 EDF .F         5083.0000:   Drilling floor
 TD  .F         4102.0000:   Total depth
 DATE.        30-JUL-1976:   Date logged
 CLNT.            A2DTECH:   Client Code
 SL  . 660' FSL & 660' FEL:   Surface Location
 PD  .                 GL:   Permanent Datum
 EPD .F              5073:   Elevation Permanent Datum
 LMF .                 KB:   Log Measured From
 DMF .                 KB:   Drilling Measured From
 DD  .F              4102:   Depth driller
 DL  .F              4097:   Depth logger
 BLI .F              4095:   Bottom log interval
 TLI .F               604:   Top log interval
 CS1 .IN            8.625:   Casing size
 CBD1.      8.625" @ 599':   Casing driller 1
 CBL1.F               604:   Casing logger 1
 BS1 .IN            7.875:   Bit size
 DFT .           CHEM/GEL:   Type fluid in hole
 DFD .                9.5:   Density
 DFV .                 46:   Viscosity
 DFPH.                9.8:   pH
 DFL .                6.6:   Fluid loss
 MSS .           FLOWLINE:   Source of sample
 RMS .OHMM           1.48:   Rm
 MST .F                78:   Rm Meas. temp.
 RMF .OHMM           1.07:   Rmf
 MFST.F                78:   Rmf Meas. temp.
 RMC .OHMM           1.57:   Rmc
 MCST.F                78:   Rmc Meas. temp.
 MFSS.               MEAS:   Source Rmf.
 RMB .OHMM            .87:   Rm. at BHT
 BHT .F               132:   BHT.
 TCS .HRS               7:   Time Circ. stopped
 MRT .F               132:   Maximum recorded temp.
 LUN .               6134:   Logging unit number
 LUL .              GLTTE:   Logging unit location
 ENGI.             VAUGHN:   Recorded By
 WITN.               WOLF:   Witnessed by
 ORIG.           5" PRINT:   Origin of data
 UWI .     49025102650000:   Unique Well ID
 DICO. A2D TECHNOLOGIES, INC.:   Digitizing Company
 DAPD.F              11.5:   Feet Above Permanent Datum
 BSD1.F              4102:   Depth drilled with bit1
~OTHER INFORMATION
~A   DEPT     CORR       RHOB       CALD       NPHI        GRD         SPR         ILD        SFL        ILM 
# ...
  561.0000  -999.2500  -999.2500  -999.2500  -999.2500  -999.2500   -39.5070     8.1590     7.7730     7.2150
  561.5000  -999.2500  -999.2500  -999.2500  -999.2500  -999.2500   -39.5400     8.1160     7.7600     7.2190
  562.0000  -999.2500  -999.2500  -999.2500  -999.2500  -999.2500   -39.5730     8.0740     7.7470     7.2240
  562.5000  -999.2500  -999.2500  -999.2500  -999.2500  -999.2500   -39.6060     8.0310     7.7330     7.2280
  563.0000  -999.2500  -999.2500  -999.2500  -999.2500  -999.2500   -39.6200     7.9890     7.7200     7.2330
  563.5000  -999.2500  -999.2500  -999.2500  -999.2500  -999.2500   -39.6200     7.9470     7.7070     7.2380
  564.0000  -999.2500  -999.2500  -999.2500  -999.2500  -999.2500   -39.6200     7.8630     7.6930     7.2420
  564.5000  -999.2500  -999.2500  -999.2500  -999.2500  -999.2500   -39.5250     7.8510     7.6800     7.2460
  565.0000  -999.2500  -999.2500  -999.2500  -999.2500  -999.2500   -39.3460     7.8400     7.6660     7.2490
  565.5000  -999.2500  -999.2500  -999.2500  -999.2500  -999.2500   -39.2300     7.8280     7.6530     7.2520
  566.0000  -999.2500  -999.2500  -999.2500  -999.2500  -999.2500   -39.2740     7.8170     7.6400     7.2550
  566.5000  -999.2500  -999.2500  -999.2500  -999.2500  -999.2500   -39.3140     7.8060     7.6260     7.2590
  567.0000  -999.2500  -999.2500  -999.2500  -999.2500  -999.2500   -39.3530     7.7940     7.6130     7.2620
  567.5000  -999.2500  -999.2500  -999.2500  -999.2500  -999.2500   -39.3920     7.7830     7.6000     7.2650
  568.0000  -999.2500  -999.2500  -999.2500  -999.2500  -999.2500   -39.4220     7.7720     7.5860     7.2680
  568.5000  -999.2500  -999.2500  -999.2500  -999.2500  -999.2500   -39.4210     7.7600     7.5730     7.2720
  569.0000  -999.2500  -999.2500  -999.2500  -999.2500  -999.2500   -39.4210     7.7490     7.5590     7.2750
  569.5000  -999.2500  -999.2500  -999.2500  -999.2500  -999.2500   -39.4210     7.7380     7.5460     7.2780
  570.0000  -999.2500  -999.2500  -999.2500  -999.2500  -999.2500   -39.4210     7.7240     7.5330     7.2810
  570.5000  -999.2500  -999.2500  -999.2500  -999.2500  -999.2500   -39.4220     7.7330     7.5160     7.2850
  571.0000  -999.2500  -999.2500  -999.2500  -999.2500  -999.2500   -39.4270     7.7480     7.5520     7.2880
  571.5000  -999.2500  -999.2500  -999.2500  -999.2500  -999.2500   -39.2310     7.7630     7.6130     7.2910
  572.0000  -999.2500  -999.2500  -999.2500  -999.2500  -999.2500   -39.0280     7.7780     7.6740     7.2940
  572.5000  -999.2500  -999.2500  -999.2500  -999.2500  -999.2500   -39.0220     7.7950     7.7350     7.2970
  573.0000  -999.2500  -999.2500  -999.2500  -999.2500  -999.2500   -39.0220     7.7640     7.7960     7.3010
  573.5000  -999.2500  -999.2500  -999.2500  -999.2500  -999.2500   -39.0220     7.6870     7.7350     7.3040
  574.0000  -999.2500  -999.2500  -999.2500  -999.2500  -999.2500   -39.0220     7.6100     7.6760     7.3070
  574.5000  -999.2500  -999.2500  -999.2500  -999.2500  -999.2500   -39.0220     7.5320     7.6160     7.3090
  575.0000  -999.2500  -999.2500  -999.2500  -999.2500  -999.2500   -39.0220     7.4550     7.5570     7.2760
  575.5000  -999.2500  -999.2500  -999.2500  -999.2500  -999.2500   -39.0220     7.3780     7.4970     7.2490
  576.0000  -999.2500  -999.2500  -999.2500  -999.2500  -999.2500   -39.0220     7.3010     7.4370     7.1770
  576.5000  -999.2500  -999.2500  -999.2500  -999.2500  -999.2500   -39.0220     7.2240     7.3770     6.9730
  577.0000  -999.2500  -999.2500  -999.2500  -999.2500  -999.2500   -39.0220     7.0690     7.3460     6.7680
  577.5000  -999.2500  -999.2500  -999.2500  -999.2500  -999.2500   -39.0220     6.7960     7.3140     6.5630
  578.0000  -999.2500  -999.2500  -999.2500  -999.2500  -999.2500   -39.0220     6.5230     7.2820     6.3580
  578.5000  -999.2500  -999.2500  -999.2500  -999.2500  -999.2500   -39.0220     6.2500     7.2500     6.1530
  579.0000  -999.2500  -999.2500  -999.2500  -999.2500  -999.2500   -39.0220     6.0820     7.0730     5.9480
  579.5000  -999.2500  -999.2500  -999.2500  -999.2500  -999.2500   -39.0220     6.1090     6.7830     5.8630
  580.0000  -999.2500  -999.2500  -999.2500  -999.2500  -999.2500   -39.0220     6.1380     6.4930     6.1200
  580.5000  -999.2500  -999.2500  -999.2500  -999.2500  -999.2500   -39.0220     6.4150     6.1380     6.3830
  581.0000  -999.2500  -999.2500  -999.2500  -999.2500  -999.2500   -39.0220     6.7690     6.4670     6.6460
  581.5000  -999.2500  -999.2500  -999.2500  -999.2500  -999.2500   -39.0220     7.1240     6.8900     6.9080
  582.0000  -999.2500  -999.2500  -999.2500  -999.2500  -999.2500   -39.0220     7.4780     7.3130     7.1710
  582.5000  -999.2500  -999.2500  -999.2500  -999.2500  -999.2500   -39.0220     7.8330     7.7360     7.4330
  583.0000  -999.2500  -999.2500  -999.2500  -999.2500  -999.2500   -39.0220     8.1870     8.0930     7.6960
  583.5000  -999.2500  -999.2500  -999.2500  -999.2500  -999.2500   -39.0220     8.5420     8.1270     7.9580
  584.0000  -999.2500  -999.2500  -999.2500  -999.2500  -999.2500   -39.0220     8.7440     8.1610     8.2210
  584.5000  -999.2500  -999.2500  -999.2500  -999.2500  -999.2500   -39.0220     8.9000     8.1950     8.4830
  585.0000  -999.2500  -999.2500  -999.2500  -999.2500  -999.2500   -39.0220     9.0330     8.2290     8.5490
  585.5000  -999.2500  -999.2500  -999.2500  -999.2500  -999.2500   -39.0220     9.0440     8.2630     8.5530
  586.0000    -0.3230     2.2000  -999.2500  -999.2500    75.2290   -39.0220     9.0560     8.2970     8.5580
  586.5000    -0.3230     2.2000  -999.2500  -999.2500    75.2290   -39.0220     9.0680     8.3310     8.5620
  587.0000    -0.3230     2.1720  -999.2500  -999.2500    75.2290   -39.0220     9.0800     8.3650     8.5660
  587.5000    -0.3270     2.1930  -999.2500  -999.2500    75.2290   -39.0220     9.0920     8.3990     8.5700
  588.0000    -0.3270     2.1790  -999.2500  -999.2500    75.9270   -39.0220     9.1040     8.4330     8.5740
  588.5000    -0.3350     2.1710  -999.2500  -999.2500    77.4510   -39.0220     9.1150     8.4670     8.5780
  589.0000    -0.3450     2.1700  -999.2500  -999.2500    76.2420   -39.0220     9.1230     8.5010     8.5820
  589.5000    -0.3510     2.1740  -999.2500  -999.2500    74.9880   -39.0220     9.1310     8.5350     8.5870
  590.0000    -0.3620     2.1750  -999.2500  -999.2500    73.7560   -39.0220     9.1390     8.5690     8.5910
  590.5000    -0.3680     2.1750  -999.2500  -999.2500    73.6960   -39.0220     9.1470     8.6030     8.5950
  591.0000    -0.3780     2.1750  -999.2500  -999.2500    74.2270   -39.0220     9.1550     8.6250     8.5990
  591.5000    -0.3860     2.1990  -999.2500  -999.2500    72.6110   -39.0210     9.1630     8.5830     8.6030
  592.0000    -0.3950     2.2240  -999.2500  -999.2500    71.4910   -38.9240     9.1710     8.5520     8.6070
  592.5000    -0.4040     2.2590  -999.2500  -999.2500    71.8560   -38.7480     9.1790     8.5200     8.6110
  593.0000    -0.4100     2.2500  -999.2500  -999.2500    72.8020   -38.1770     9.1870     8.4890     8.6160
  593.5000    -0.4100     2.2360  -999.2500  -999.2500    71.8820   -38.0390     9.1940     8.4500     8.6200
  594.0000    -0.4110     2.2530  -999.2500  -999.2500    71.0440   -38.0490     9.1990     8.3120     8.6230
  594.5000    -0.4200     2.2120  -999.2500  -999.2500    71.0300   -38.0620     9.2070     8.1730     8.6460
  595.0000    -0.4150     2.1430  -999.2500  -999.2500    72.7660   -38.0760     9.2150     8.0350     8.6760
  595.5000    -0.3970     2.1270  -999.2500  -999.2500    73.0880   -38.0910     9.2220     7.9400     8.7050
  596.0000    -0.3800     2.1460  -999.2500  -999.2500    71.7050   -38.1050     9.2300     8.3600     8.7340
  596.5000    -0.3680     2.1600  -999.2500  -999.2500    71.2120   -38.1200     9.2380     8.9480     8.7640
  597.0000    -0.3790     2.1680     8.4120  -999.2500    71.9260   -38.1350     9.2450     8.9300     8.7930
