~VERSION INFORMATION
 VERS.                2.0:   CWLS LOG ASCII STANDARD - VERSION 2.0
 WRAP.                 NO:   ONE LINE PER DEPTH STEP
~WELL INFORMATION
#MNEM.UNIT      DATA TYPE    INFORMATION
#----------   ------------   ------------------------------
 STRT.F           50.0000:   START DEPTH
 STOP.F         4097.5000:   STOP DEPTH
 STEP.F            0.5000:   STEP LENGTH
 NULL.          -999.2500:   NO VALUE
 COMP.   TESORO PETROLEUM:   COMPANY
 WELL. TESORO NPR 3 "DX" #77-29:   WELL
 FLD .        TEAPOT DOME:   FIELD
 LOC .      S29 T39N R78W:   LOCATION
 CNTY.            NATRONA:   COUNTY
 STAT.            WYOMING:   STATE
 CTRY. UNITED STATES OF AMERICA:   COUNTRY
 SRVC.      DRESSER ATLAS:   SERVICE COMPANY
 DATE.        30-JUL-1976:   LOGDATE
 API .     49025102650000:   API NUMBER
~CURVE INFORMATION
#MNEM.UNIT       API CODE    CURVE DESCRIPTION
#----------   ------------   ------------------------------
 DEPT.F                  :   
 CORR.G/C3   45 356 01 00:   DENSITY CORRECTION
 RHOB.G/C3   45 350 01 00:   BULK DENSITY
 CALD.IN     45 280 60 00:   CALIPER FROM DENSITY LOG
 NPHI.DEC    42 890 03 00:   NEUTRON POROSITY SANDSTONE
 GRD .GAPI   45 310 01 00:   GAMMA RAY FROM DENSITY LOG
 SPR .MV     07 010 01 00:   SPONTANEOUS POTENTIAL
 ILD .OHMM   07 120 46 00:   DEEP INDUCTION RESISTIVITY
 SFL .OHMM   07 220 01 00:   SHALLOW FOCUSED LOG RESISTIVITY
 ILM .OHMM   07 120 44 00:   INDUCTION LOG MEDIUM RESISTIVITY
~PARAMETER INFORMATION
#MNEM.UNIT          VALUE    DESCRIPTION
#----------   ------------   ------------------------------
 EKB .F         5084.5000:   Kelly bushing
 EGL .F         5073.0000:   Ground level
 EDF .F         5083.0000:   Drilling floor
 TD  .F         4102.0000:   Total depth
 DATE.        30-JUL-1976:   Date logged
 CLNT.            A2DTECH:   Client Code
 SL  . 660' FSL & 660' FEL:   Surface Location
 PD  .                 GL:   Permanent Datum
 EPD .F              5073:   Elevation Permanent Datum
 LMF .                 KB:   Log Measured From
 DMF .                 KB:   Drilling Measured From
 DD  .F              4102:   Depth driller
 DL  .F              4097:   Depth logger
 BLI .F              4095:   Bottom log interval
 TLI .F               604:   Top log interval
 CS1 .IN            8.625:   Casing size
 CBD1.      8.625" @ 599':   Casing driller 1
 CBL1.F               604:   Casing logger 1
 BS1 .IN            7.875:   Bit size
 DFT .           CHEM/GEL:   Type fluid in hole
 DFD .                9.5:   Density
 DFV .                 46:   Viscosity
 DFPH.                9.8:   pH
 DFL .                6.6:   Fluid loss
 MSS .           FLOWLINE:   Source of sample
 RMS .OHMM           1.48:   Rm
 MST .F                78:   Rm Meas. temp.
 RMF .OHMM           1.07:   Rmf
 MFST.F                78:   Rmf Meas. temp.
 RMC .OHMM           1.57:   Rmc
 MCST.F                78:   Rmc Meas. temp.
 MFSS.               MEAS:   Source Rmf.
 RMB .OHMM            .87:   Rm. at BHT
 BHT .F               132:   BHT.
 TCS .HRS               7:   Time Circ. stopped
 MRT .F               132:   Maximum recorded temp.
 LUN .               6134:   Logging unit number
 LUL .              GLTTE:   Logging unit location
 ENGI.             VAUGHN:   Recorded By
 WITN.               WOLF:   Witnessed by
 ORIG.           5" PRINT:   Origin of data
 UWI .     49025102650000:   Unique Well ID
 DICO. A2D TECHNOLOGIES, INC.:   Digitizing Company
 DAPD.F              11.5:   Feet Above Permanent Datum
 BSD1.F              4102:   Depth drilled with bit1
~OTHER INFORMATION
~A   DEPT     CORR       RHOB       CALD       NPHI        GRD         SPR         ILD        SFL        ILM 
# ...
 2897.0000     0.0110     2.5680     8.6430     0.2670   142.4370   -43.5550     4.2520     5.3830     4.5890
 2897.5000     0.0110     2.5670     8.6550     0.2660   143.2020   -43.4660     4.1830     5.3940     4.5160
 2898.0000     0.0100     2.5660     8.6680     0.2690   142.2590   -43.4660     4.1130     5.4040     4.4430
 2898.5000     0.0100     2.5650     8.6810     0.2740   140.7900   -43.4630     4.0440     5.4140     4.3700
 2899.0000     0.0100     2.5650     8.6940     0.2760   139.2110   -43.5910     3.9740     5.4240     4.2980
 2899.5000     0.0090     2.5560     8.7070     0.2700   137.5100   -43.7700     3.9050     5.4330     4.2250
 2900.0000     0.0090     2.5460     8.7200     0.2670   135.2230   -43.9500     3.8290     5.3170     4.0920
 2900.5000     0.0090     2.5350     8.7330     0.2630   132.4900   -44.1300     3.8580     5.1880     4.1330
 2901.0000     0.0080     2.5270     8.7460     0.2600   132.1580   -44.3100     3.9000     5.0470     4.1890
 2901.5000     0.0080     2.5300     8.7590     0.2590   132.1470   -44.4900     3.9420     5.2890     4.2440
 2902.0000     0.0050     2.5320     8.7720     0.2590   131.0880   -44.6510     3.9840     5.6890     4.2990
 2902.5000     0.0040     2.5300     8.7530     0.2590   129.5230   -44.6540     4.0260     5.6680     4.3550
 2903.0000     0.0090     2.5230     8.7300     0.2570   130.8080   -44.6560     4.0680     5.6270     4.4100
 2903.5000     0.0150     2.5230     8.7060     0.2550   130.1000   -44.5340     4.1100     5.5860     4.4660
 2904.0000     0.0200     2.5380     8.6830     0.2550   126.7280   -44.3660     4.1520     5.5340     4.5210
 2904.5000     0.0250     2.5500     8.6450     0.2570   125.4580   -44.1980     4.1980     5.5780     4.5760
 2905.0000     0.0310     2.5570     8.5980     0.2550   127.0780   -44.0300     4.2120     5.6390     4.6100
 2905.5000     0.0300     2.5640     8.5510     0.2530   128.5310   -43.8610     4.2330     5.7000     4.6230
 2906.0000     0.0270     2.5600     8.5040     0.2540   127.4290   -43.6930     4.2530     5.7420     4.6360
 2906.5000     0.0160     2.5550     8.4560     0.2600   127.8480   -43.5250     4.2730     5.7150     4.6490
 2907.0000     0.0080     2.5620     8.4340     0.2630   130.1510   -43.3570     4.2930     5.6850     4.6620
 2907.5000     0.0080     2.5680     8.4130     0.2540   132.1560   -43.1910     4.3140     5.6560     4.6750
 2908.0000     0.0080     2.5740     8.3920     0.2530   129.8500   -43.1160     4.3340     5.6370     4.6880
 2908.5000     0.0080     2.5670     8.3700     0.2560   128.3000   -43.3060     4.3550     5.7950     4.7030
 2909.0000     0.0080     2.5630     8.3490     0.2540   130.1440   -43.4890     4.3510     5.7510     4.7220
 2909.5000     0.0080     2.5570     8.3280     0.2510   131.5480   -43.6710     4.3450     5.6890     4.7410
 2910.0000     0.0080     2.5480     8.3060     0.2500   130.0930   -43.8530     4.3390     5.7640     4.7610
 2910.5000     0.0080     2.5390     8.2850     0.2500   128.4940   -44.0360     4.3330     5.8480     4.7800
 2911.0000     0.0080     2.5360     8.2630     0.2500   127.2640   -44.2180     4.3270     5.7820     4.7990
 2911.5000     0.0080     2.5480     8.2630     0.2480   130.7070   -44.4060     4.3210     5.7420     4.8200
 2912.0000     0.0090     2.5620     8.2720     0.2470   130.1140   -44.4540     4.3150     6.0120     4.7210
 2912.5000     0.0100     2.5720     8.2810     0.2490   127.9160   -44.3800     4.2540     5.9130     4.6210
 2913.0000     0.0100     2.5720     8.2910     0.2550   127.8010   -44.2750     4.1900     5.7330     4.5210
 2913.5000     0.0110     2.5630     8.2950     0.2600   128.3310   -44.1690     4.1250     5.5870     4.4220
 2914.0000     0.0110     2.5570     8.2910     0.2580   127.0360   -44.0630     4.0600     5.4510     4.3220
 2914.5000     0.0120     2.5630     8.2880     0.2560   124.3670   -43.9570     3.9960     5.3160     4.1980
 2915.0000     0.0170     2.5680     8.2850     0.2560   124.0650   -43.8520     3.9310     5.1800     4.2180
 2915.5000     0.0230     2.5650     8.2820     0.2570   125.6610   -43.6590     3.8640     5.0940     4.2540
 2916.0000     0.0290     2.5690     8.2780     0.2530   128.5790   -43.0740     3.8640     5.1340     4.2900
 2916.5000     0.0350     2.5800     8.2820     0.2460   131.4670   -42.8800     3.8640     5.2460     4.3260
 2917.0000     0.0410     2.5910     8.3190     0.2370   134.3770   -42.8720     3.8640     5.3570     4.3550
 2917.5000     0.0470     2.5990     8.3560     0.2310   135.4690   -42.8710     3.8640     5.4920     4.3130
 2918.0000     0.0440     2.5850     8.3920     0.2310   132.8410   -42.8730     3.8640     5.6370     4.2690
 2918.5000     0.0400     2.5660     8.4290     0.2250   130.0060   -42.9660     3.9250     5.4160     4.2250
 2919.0000     0.0350     2.5700     8.4650     0.2230   128.0590   -43.0690     4.0050     5.1880     4.1980
 2919.5000     0.0320     2.5710     8.5010     0.2220   130.2120   -43.1730     4.0840     4.9550     4.4240
 2920.0000     0.0330     2.5760     8.5420     0.2150   132.6950   -43.2820     4.1630     5.1180     4.7160
 2920.5000     0.0340     2.5860     8.5730     0.2210   133.3780   -43.5980     4.2430     5.5580     5.0010
 2921.0000     0.0350     2.5910     8.5750     0.2310   134.0180   -43.9050     4.2760     6.1940     4.8890
 2921.5000     0.0350     2.5800     8.5890     0.2390   137.4940   -43.9960     4.2370     6.8400     4.8200
 2922.0000     0.0340     2.5720     8.6020     0.2420   141.3680   -43.8720     4.1980     6.5480     4.7020
 2922.5000     0.0320     2.5640     8.6160     0.2440   145.2500   -43.7490     4.0170     5.7960     4.5100
 2923.0000     0.0300     2.5500     8.6550     0.2470   146.9880   -43.6260     3.6640     5.1880     4.3150
 2923.5000     0.0280     2.5300     8.6950     0.2570   141.7070   -43.5020     3.3110     5.1300     3.8790
 2924.0000     0.0260     2.5100     8.7350     0.2590   134.2580   -43.3790     3.0350     5.0710     3.4400
 2924.5000     0.0240     2.4890     8.7690     0.2560   126.7720   -43.2550     2.8770     4.7430     3.0000
 2925.0000     0.0320     2.4750     8.6780     0.2510   123.8210   -43.1310     2.7190     4.1380     2.6490
 2925.5000     0.0420     2.4850     8.5860     0.2410   122.0210   -43.0060     2.6240     3.5600     2.6000
 2926.0000     0.0500     2.5160     8.4940     0.2160   120.3410   -42.8810     2.6750     3.2740     2.9690
 2926.5000     0.0340     2.5510     8.4390     0.2040   120.1360   -43.0290     2.7370     4.2650     3.3340
 2927.0000     0.0170     2.5740     8.4520     0.2010   118.8880   -43.2030     2.7990     5.4980     3.6570
 2927.5000     0.0160     2.5790     8.4650     0.2030   118.2960   -43.3780     3.1330     6.4720     3.9770
 2928.0000     0.0160     2.5720     8.4770     0.2060   118.6130   -43.5530     3.4650     6.2200     4.2970
 2928.5000     0.0160     2.5650     8.4890     0.2100   121.2890   -43.7270     3.7960     5.8070     4.6170
 2929.0000     0.0160     2.5610     8.4650     0.2080   123.4240   -43.9020     4.1270     5.4830     4.9380
 2929.5000     0.0160     2.5630     8.4100     0.2060   124.6260   -44.0770     4.4590     5.6730     5.1880
 2930.0000     0.0190     2.5690     8.3560     0.2070   127.4780   -44.2510     4.6450     5.8290     5.1210
 2930.5000     0.0290     2.5860     8.3210     0.2120   128.6740   -44.4260     4.6820     6.0120     5.1410
 2931.0000     0.0300     2.5810     8.3450     0.2170   127.7490   -44.6080     4.7270     5.8690     5.0270
 2931.5000     0.0260     2.5720     8.3670     0.2240   128.5540   -44.5340     4.7000     5.7280     4.9340
 2932.0000     0.0230     2.5670     8.3890     0.2310   129.3490   -44.3720     4.6490     5.5860     4.8410
 2932.5000     0.0210     2.5710     8.4110     0.2330   130.1130   -44.2080     4.5980     5.4700     4.7320
 2933.0000     0.0280     2.5800     8.4330     0.2350   130.3710   -44.0430     4.5470     5.3680     4.7350
