~VERSION INFORMATION
 VERS.                2.0:   CWLS LOG ASCII STANDARD - VERSION 2.0
 WRAP.                 NO:   ONE LINE PER DEPTH STEP
~WELL INFORMATION
#MNEM.UNIT      DATA TYPE    INFORMATION
#----------   ------------   ------------------------------
 STRT.F           50.0000:   START DEPTH
 STOP.F         4097.5000:   STOP DEPTH
 STEP.F            0.5000:   STEP LENGTH
 NULL.          -999.2500:   NO VALUE
 COMP.   TESORO PETROLEUM:   COMPANY
 WELL. TESORO NPR 3 "DX" #77-29:   WELL
 FLD .        TEAPOT DOME:   FIELD
 LOC .      S29 T39N R78W:   LOCATION
 CNTY.            NATRONA:   COUNTY
 STAT.            WYOMING:   STATE
 CTRY. UNITED STATES OF AMERICA:   COUNTRY
 SRVC.      DRESSER ATLAS:   SERVICE COMPANY
 DATE.        30-JUL-1976:   LOGDATE
 API .     49025102650000:   API NUMBER
~CURVE INFORMATION
#MNEM.UNIT       API CODE    CURVE DESCRIPTION
#----------   ------------   ------------------------------
 DEPT.F                  :   
 CORR.G/C3   45 356 01 00:   DENSITY CORRECTION
 RHOB.G/C3   45 350 01 00:   BULK DENSITY
 CALD.IN     45 280 60 00:   CALIPER FROM DENSITY LOG
 NPHI.DEC    42 890 03 00:   NEUTRON POROSITY SANDSTONE
 GRD .GAPI   45 310 01 00:   GAMMA RAY FROM DENSITY LOG
 SPR .MV     07 010 01 00:   SPONTANEOUS POTENTIAL
 ILD .OHMM   07 120 46 00:   DEEP INDUCTION RESISTIVITY
 SFL .OHMM   07 220 01 00:   SHALLOW FOCUSED LOG RESISTIVITY
 ILM .OHMM   07 120 44 00:   INDUCTION LOG MEDIUM RESISTIVITY
~PARAMETER INFORMATION
#MNEM.UNIT          VALUE    DESCRIPTION
#----------   ------------   ------------------------------
 EKB .F         5084.5000:   Kelly bushing
 EGL .F         5073.0000:   Ground level
 EDF .F         5083.0000:   Drilling floor
 TD  .F         4102.0000:   Total depth
 DATE.        30-JUL-1976:   Date logged
 CLNT.            A2DTECH:   Client Code
 SL  . 660' FSL & 660' FEL:   Surface Location
 PD  .                 GL:   Permanent Datum
 EPD .F              5073:   Elevation Permanent Datum
 LMF .                 KB:   Log Measured From
 DMF .                 KB:   Drilling Measured From
 DD  .F              4102:   Depth driller
 DL  .F              4097:   Depth logger
 BLI .F              4095:   Bottom log interval
 TLI .F               604:   Top log interval
 CS1 .IN            8.625:   Casing size
 CBD1.      8.625" @ 599':   Casing driller 1
 CBL1.F               604:   Casing logger 1
 BS1 .IN            7.875:   Bit size
 DFT .           CHEM/GEL:   Type fluid in hole
 DFD .                9.5:   Density
 DFV .                 46:   Viscosity
 DFPH.                9.8:   pH
 DFL .                6.6:   Fluid loss
 MSS .           FLOWLINE:   Source of sample
 RMS .OHMM           1.48:   Rm
 MST .F                78:   Rm Meas. temp.
 RMF .OHMM           1.07:   Rmf
 MFST.F                78:   Rmf Meas. temp.
 RMC .OHMM           1.57:   Rmc
 MCST.F                78:   Rmc Meas. temp.
 MFSS.               MEAS:   Source Rmf.
 RMB .OHMM            .87:   Rm. at BHT
 BHT .F               132:   BHT.
 TCS .HRS               7:   Time Circ. stopped
 MRT .F               132:   Maximum recorded temp.
 LUN .               6134:   Logging unit number
 LUL .              GLTTE:   Logging unit location
 ENGI.             VAUGHN:   Recorded By
 WITN.               WOLF:   Witnessed by
 ORIG.           5" PRINT:   Origin of data
 UWI .     49025102650000:   Unique Well ID
 DICO. A2D TECHNOLOGIES, INC.:   Digitizing Company
 DAPD.F              11.5:   Feet Above Permanent Datum
 BSD1.F              4102:   Depth drilled with bit1
~OTHER INFORMATION
~A   DEPT     CORR       RHOB       CALD       NPHI        GRD         SPR         ILD        SFL        ILM 
# ...
 3846.0000     0.0180     2.6320     7.8210     0.2470   144.0710   -42.6680     3.7590     4.7760     4.4990
 3846.5000     0.0140     2.5980     7.8240     0.2490   140.2610   -42.5240     3.7660     6.6740     4.8200
 3847.0000     0.0100     2.5440     7.8260     0.2460   138.8370   -42.3800     3.7800     8.2990     4.7660
 3847.5000     0.0080     2.5360     7.8280     0.2440   135.0810   -42.2370     3.7930     8.0900     4.6700
 3848.0000     0.0090     2.5290     7.8310     0.2440   130.9630   -42.0940     3.7770     6.7120     4.4380
 3848.5000     0.0100     2.5290     7.8330     0.2440   128.4900   -41.9500     3.7560     5.2360     4.1590
 3849.0000     0.0110     2.5310     7.8350     0.2400   129.8730   -41.9770     3.7350     4.8180     3.8810
 3849.5000     0.0120     2.5470     7.8380     0.2330   134.4490   -42.1530     3.7140     4.3680     3.6560
 3850.0000     0.0080     2.5600     7.8370     0.2250   138.2780   -42.3280     3.6900     4.2170     3.8840
 3850.5000     0.0010     2.6310     7.8340     0.2270   141.9220   -42.5040     3.7580     4.1980     4.2070
 3851.0000    -0.0020     2.6230     7.8300     0.2300   140.7900   -42.6800     3.8970     5.4350     4.5290
 3851.5000     0.0050     2.5970     7.8260     0.2340   139.7680   -42.8560     4.1390     6.3910     4.8520
 3852.0000     0.0120     2.5880     7.8230     0.2380   139.2730   -43.0330     4.3800     7.0960     5.1740
 3852.5000     0.0160     2.6010     7.8190     0.2400   141.0750   -43.2160     4.6220     6.5900     5.4040
 3853.0000     0.0170     2.5940     7.8150     0.2410   143.8220   -43.2290     4.8640     6.1240     5.6890
 3853.5000     0.0180     2.5760     7.8120     0.2450   142.2610   -43.1800     5.0010     6.1400     5.6560
 3854.0000     0.0190     2.5590     7.8080     0.2460   143.6970   -43.1290     4.9660     6.1580     5.5790
 3854.5000     0.0200     2.5550     7.8050     0.2470   144.6250   -43.0810     4.8850     6.1770     5.4540
 3855.0000     0.0200     2.5690     7.8010     0.2500   143.2460   -42.9140     4.8030     6.1810     5.3140
 3855.5000     0.0180     2.5810     7.7970     0.2540   141.2850   -42.7450     4.7220     6.0660     5.1750
 3856.0000     0.0170     2.5890     7.7940     0.2550   139.2230   -42.1000     4.6380     5.7750     5.0360
 3856.5000     0.0160     2.5840     7.7900     0.2560   137.3800   -42.0240     4.5070     5.4830     4.8970
 3857.0000     0.0150     2.5770     7.7860     0.2580   139.0320   -41.9780     4.3760     5.4490     4.8210
 3857.5000     0.0130     2.5760     7.7830     0.2590   141.6540   -41.9300     4.2450     5.4140     4.7430
 3858.0000     0.0120     2.5720     7.7790     0.2540   143.1020   -41.8850     4.1130     5.3790     4.6660
 3858.5000     0.0110     2.5630     7.7790     0.2480   143.1960   -41.9310     3.9770     5.3430     4.5210
 3859.0000     0.0090     2.5620     7.7790     0.2410   139.0150   -41.9800     3.8420     5.2980     4.3520
 3859.5000     0.0070     2.5670     7.7790     0.2330   134.2780   -42.0290     3.7060     5.2270     4.1840
 3860.0000     0.0050     2.5670     7.7790     0.2270   126.9550   -42.0830     3.5570     5.1380     4.0150
 3860.5000     0.0040     2.5590     7.7790     0.2260   119.6980   -42.2580     3.5190     5.0270     3.8460
 3861.0000     0.0010     2.5600     7.7790     0.2250   113.4660   -42.4400     3.4660     4.8910     3.7730
 3861.5000    -0.0040     2.5660     7.7790     0.2190   111.3190   -42.6220     3.4280     4.7550     3.7590
 3862.0000    -0.0010     2.5780     7.7790     0.2140   113.9640   -42.8030     3.5480     4.6200     4.0330
 3862.5000     0.0020     2.5970     7.7790     0.2110   119.3720   -42.9860     3.8840     4.4840     4.5390
 3863.0000     0.0060     2.6230     7.7790     0.2130   126.0960   -42.9650     4.2210     4.4360     5.0450
 3863.5000     0.0090     2.6640     7.7790     0.2210   132.8270   -42.7790     4.5570     6.4480     5.5510
 3864.0000     0.0120     2.7540     7.7790     0.2300   139.5650   -42.5940     4.8940     8.0680     6.0570
 3864.5000     0.0100     2.7710     7.7790     0.2400   146.2840   -42.4090     4.9950     9.0160     6.3780
 3865.0000     0.0090     2.7450     7.7790     0.2490   150.9790   -42.2230     5.0440     9.1000     6.4130
 3865.5000     0.0090     2.6820     7.7790     0.2510   153.0960   -42.0370     5.0940    10.1950     5.9330
 3866.0000     0.0120     2.6070     7.7850     0.2570   152.9750   -41.8510     4.9090    10.9400     5.4480
 3866.5000     0.0150     2.5740     7.7950     0.2620   155.6230   -41.6840     4.7760     5.9570     4.9710
 3867.0000     0.0170     2.5820     7.8050     0.2650   154.4060   -41.6510     4.4010     4.4360     4.5270
 3867.5000     0.0200     2.5880     7.8150     0.2690   152.4580   -41.6220     4.0150     4.5130     4.0840
 3868.0000     0.0230     2.5950     7.8250     0.2720   150.7680   -41.5930     3.6290     4.6880     3.6400
 3868.5000     0.0250     2.6070     7.8350     0.2690   148.0190   -41.5650     3.2430     4.6180     3.4440
 3869.0000     0.0270     2.6120     7.8460     0.2650   140.2010   -41.5370     2.8960     4.5220     3.2940
 3869.5000     0.0210     2.5660     7.8560     0.2660   131.6070   -41.5110     2.8250     4.4480     3.1440
 3870.0000     0.0150     2.5710     7.8660     0.2660   123.7040   -41.5680     2.7550     4.5510     3.0510
 3870.5000     0.0080     2.6070     7.8760     0.2620   132.1010   -41.9230     2.6850     4.6450     2.9900
 3871.0000     0.0020     2.5950     7.8860     0.2580   141.6790   -42.2720     2.6240     4.4300     2.9310
 3871.5000    -0.0020     2.7620     7.8960     0.2590   147.6740   -42.6210     2.5760     4.2320     2.9990
 3872.0000    -0.0070     2.8410     7.8990     0.2670   149.7140   -42.5590     2.6150     4.0460     3.0770
 3872.5000    -0.0110     2.8070     7.9010     0.2690   147.0490   -42.4310     2.6450     4.0460     3.1550
 3873.0000    -0.0150     2.6960     7.9020     0.2730   145.3100   -42.3000     2.6750     5.2700     3.2140
 3873.5000    -0.0030     2.5980     7.9030     0.2770   146.6530   -42.1690     2.7020     5.7950     3.2140
 3874.0000     0.0110     2.5610     7.9050     0.2750   147.7570   -42.0380     2.7170     5.1760     3.2140
 3874.5000     0.0150     2.5520     7.9060     0.2710   147.0780   -41.9090     2.7330     4.4360     3.1840
 3875.0000     0.0130     2.5510     7.9070     0.2670   145.2050   -41.7950     2.7480     4.7320     3.1120
 3875.5000     0.0110     2.5510     7.9090     0.2670   142.9380   -41.6720     2.7220     4.5910     3.0230
 3876.0000     0.0090     2.5440     7.9100     0.2610   140.6950   -41.0810     2.6570     4.3550     2.9340
 3876.5000     0.0090     2.5340     7.9110     0.2630   141.0160   -41.1490     2.5760     4.1380     2.8780
 3877.0000     0.0120     2.5480     7.9120     0.2680   143.4630   -41.2040     2.6040     4.0120     2.9570
 3877.5000     0.0140     2.5690     7.9140     0.2730   144.7890   -41.2560     2.6390     3.8290     3.0600
 3878.0000     0.0160     2.5770     7.9150     0.2780   142.6510   -41.3540     2.6750     4.1980     3.1630
 3878.5000     0.0170     2.5680     7.9160     0.2800   140.4900   -41.5390     2.7100     4.8750     3.2740
 3879.0000     0.0180     2.5720     7.9170     0.2780   139.0780   -41.7240     2.7460     5.3340     3.2740
 3879.5000     0.0200     2.5850     7.9170     0.2770   136.4600   -41.9080     2.7990     5.2630     3.1960
 3880.0000     0.0170     2.5760     7.9100     0.2770   135.7760   -42.0930     2.7860     5.0290     3.1370
 3880.5000     0.0120     2.5410     7.9030     0.2800   137.3490   -42.2790     2.7600     4.6190     3.0780
 3881.0000     0.0130     2.5420     7.8970     0.2830   138.8690   -42.4590     2.7340     4.2090     3.0190
 3881.5000     0.0160     2.5440     7.8900     0.2820   139.5770   -42.1350     2.7070     4.0830     2.9600
 3882.0000     0.0180     2.5510     7.8830     0.2760   143.8260   -41.8570     2.6810     4.1210     2.9040
