~VERSION INFORMATION
 VERS.                2.0:   CWLS LOG ASCII STANDARD - VERSION 2.0
 WRAP.                 NO:   ONE LINE PER DEPTH STEP
~WELL INFORMATION
#MNEM.UNIT      DATA TYPE    INFORMATION
#----------   ------------   ------------------------------
 STRT.F           50.0000:   START DEPTH
 STOP.F         4097.5000:   STOP DEPTH
 STEP.F            0.5000:   STEP LENGTH
 NULL.          -999.2500:   NO VALUE
 COMP.   TESORO PETROLEUM:   COMPANY
 WELL. TESORO NPR 3 "DX" #77-29:   WELL
 FLD .        TEAPOT DOME:   FIELD
 LOC .      S29 T39N R78W:   LOCATION
 CNTY.            NATRONA:   COUNTY
 STAT.            WYOMING:   STATE
 CTRY. UNITED STATES OF AMERICA:   COUNTRY
 SRVC.      DRESSER ATLAS:   SERVICE COMPANY
 DATE.        30-JUL-1976:   LOGDATE
 API .     49025102650000:   API NUMBER
~CURVE INFORMATION
#MNEM.UNIT       API CODE    CURVE DESCRIPTION
#----------   ------------   ------------------------------
 DEPT.F                  :   
 CORR.G/C3   45 356 01 00:   DENSITY CORRECTION
 RHOB.G/C3   45 350 01 00:   BULK DENSITY
 CALD.IN     45 280 60 00:   CALIPER FROM DENSITY LOG
 NPHI.DEC    42 890 03 00:   NEUTRON POROSITY SANDSTONE
 GRD .GAPI   45 310 01 00:   GAMMA RAY FROM DENSITY LOG
 SPR .MV     07 010 01 00:   SPONTANEOUS POTENTIAL
 ILD .OHMM   07 120 46 00:   DEEP INDUCTION RESISTIVITY
 SFL .OHMM   07 220 01 00:   SHALLOW FOCUSED LOG RESISTIVITY
 ILM .OHMM   07 120 44 00:   INDUCTION LOG MEDIUM RESISTIVITY
~PARAMETER INFORMATION
#MNEM.UNIT          VALUE    DESCRIPTION
#----------   ------------   ------------------------------
 EKB .F         5084.5000:   Kelly bushing
 EGL .F         5073.0000:   Ground level
 EDF .F         5083.0000:   Drilling floor
 TD  .F         4102.0000:   Total depth
 DATE.        30-JUL-1976:   Date logged
 CLNT.            A2DTECH:   Client Code
 SL  . 660' FSL & 660' FEL:   Surface Location
 PD  .                 GL:   Permanent Datum
 EPD .F              5073:   Elevation Permanent Datum
 LMF .                 KB:   Log Measured From
 DMF .                 KB:   Drilling Measured From
 DD  .F              4102:   Depth driller
 DL  .F              4097:   Depth logger
 BLI .F              4095:   Bottom log interval
 TLI .F               604:   Top log interval
 CS1 .IN            8.625:   Casing size
 CBD1.      8.625" @ 599':   Casing driller 1
 CBL1.F               604:   Casing logger 1
 BS1 .IN            7.875:   Bit size
 DFT .           CHEM/GEL:   Type fluid in hole
 DFD .                9.5:   Density
 DFV .                 46:   Viscosity
 DFPH.                9.8:   pH
 DFL .                6.6:   Fluid loss
 MSS .           FLOWLINE:   Source of sample
 RMS .OHMM           1.48:   Rm
 MST .F                78:   Rm Meas. temp.
 RMF .OHMM           1.07:   Rmf
 MFST.F                78:   Rmf Meas. temp.
 RMC .OHMM           1.57:   Rmc
 MCST.F                78:   Rmc Meas. temp.
 MFSS.               MEAS:   Source Rmf.
 RMB .OHMM            .87:   Rm. at BHT
 BHT .F               132:   BHT.
 TCS .HRS               7:   Time Circ. stopped
 MRT .F               132:   Maximum recorded temp.
 LUN .               6134:   Logging unit number
 LUL .              GLTTE:   Logging unit location
 ENGI.             VAUGHN:   Recorded By
 WITN.               WOLF:   Witnessed by
 ORIG.           5" PRINT:   Origin of data
 UWI .     49025102650000:   Unique Well ID
 DICO. A2D TECHNOLOGIES, INC.:   Digitizing Company
 DAPD.F              11.5:   Feet Above Permanent Datum
 BSD1.F              4102:   Depth drilled with bit1
~OTHER INFORMATION
~A   DEPT     CORR       RHOB       CALD       NPHI        GRD         SPR         ILD        SFL        ILM 
# ...
 4065.0000     0.0030     2.5030     7.1820     0.2620   128.9370   -36.6510     2.2590     3.6220     2.4770
 4065.5000     0.0000     2.4760     7.1430     0.2670   125.2360   -36.5960     2.0870     3.6850     2.3780
 4066.0000    -0.0030     2.4700     7.1380     0.2770   121.1300   -36.5370     1.9910     3.7590     2.2790
 4066.5000    -0.0060     2.4590     7.1330     0.2690   115.2430   -36.7450     2.0030     3.6060     2.1800
 4067.0000    -0.0090     2.4520     7.1280     0.2640   107.6340   -36.9890     2.0140     3.2550     2.1040
 4067.5000    -0.0110     2.4420     7.1230     0.2660   100.5610   -37.2350     2.0280     2.9580     2.2120
 4068.0000    -0.0060     2.4490     7.1280     0.2660    96.0300   -37.4820     2.0190     3.0130     2.3170
 4068.5000     0.0010     2.4580     7.1330     0.2660    91.7370   -37.7260     1.9990     3.2430     2.4210
 4069.0000     0.0080     2.4660     7.1380     0.2690    87.3570   -37.9260     1.9780     3.5650     2.4610
 4069.5000     0.0140     2.4750     7.1430     0.2730    83.8100   -37.9210     1.9540     4.0090     2.3980
 4070.0000     0.0220     2.4860     7.1400     0.2730    81.8530   -37.9200     2.0200     3.9360     2.3370
 4070.5000     0.0210     2.4780     7.1350     0.2660    80.2550   -37.9200     2.1270     3.3660     2.2760
 4071.0000     0.0150     2.4640     7.1290     0.2520    79.5120   -37.9200     2.2330     2.8640     2.2030
 4071.5000     0.0090     2.4420     7.1240     0.2450    78.9270   -37.9070     2.3390     2.5530     2.3420
 4072.0000     0.0130     2.4690     7.1290     0.2410    78.6660   -37.8400     2.4460     2.8370     2.6270
 4072.5000     0.0190     2.5070     7.1360     0.2400    78.5630   -37.7730     2.5380     3.9540     2.9110
 4073.0000     0.0170     2.5260     7.1430     0.2390    78.4760   -37.6480     2.5760     5.2850     3.1960
 4073.5000     0.0130     2.5130     7.1500     0.2380    78.7850   -37.2730     2.8110     4.7560     3.3920
 4074.0000     0.0090     2.5150     7.1570     0.2360    80.6420   -37.1310     3.0440     3.9720     3.4580
 4074.5000     0.0080     2.5180     7.1640     0.2250    82.4700   -37.1300     3.2770     3.9980     3.5240
 4075.0000     0.0090     2.5190     7.1660     0.2200    84.2850   -37.1310     3.5100     4.0310     3.5570
 4075.5000     0.0100     2.5180     7.1690     0.2180    84.6440   -37.1590     3.5570     4.0640     3.5750
 4076.0000     0.0120     2.5130     7.1710     0.2150    82.6150   -37.3160     3.5570     4.0830     3.5890
 4076.5000     0.0130     2.5100     7.1740     0.2220  -999.2500   -37.4720     3.5570     3.9840     3.6560
 4077.0000     0.0140     2.5200     7.1760     0.2300  -999.2500   -37.6280     3.5570     3.9000     3.7050
 4077.5000     0.0150     2.5300     7.1790     0.2340  -999.2500   -37.8490     3.5570     3.9000     3.7660
 4078.0000     0.0160     2.5390     7.1810     0.2380  -999.2500   -38.1800     3.5630     4.4770     3.8290
 4078.5000     0.0150     2.5490     7.1830     0.2420  -999.2500   -38.5110     3.5700     4.4260     3.8290
 4079.0000     0.0150     2.5490     7.1830     0.2410  -999.2500   -38.8470     3.5770     4.3550     3.8050
 4079.5000     0.0140     2.5420     7.1810     0.2400  -999.2500   -38.7650     3.5840     4.3960     3.7440
 4080.0000     0.0130     2.5310     7.1790     0.2380  -999.2500   -38.5890     3.5900     4.2940     3.6830
 4080.5000     0.0120     2.5270     7.1760     0.2380  -999.2500   -38.4110     3.5500     4.1640     3.6230
 4081.0000     0.0120     2.5330     7.1740     0.2420  -999.2500   -38.2320     3.4820     4.0460     3.5620
 4081.5000     0.0120     2.5360     7.1710     0.2460  -999.2500   -38.0950     3.4140     4.0820     3.5010
 4082.0000     0.0120     2.5240     7.1690     0.2430  -999.2500   -38.0340     3.3470     4.1770     3.4400
 4082.5000     0.0130     2.5120     7.1660     0.2400  -999.2500   -37.9720     3.3040     4.2760     3.3650
 4083.0000     0.0200     2.5090     7.1640     0.2370  -999.2500   -37.9100     3.3040     3.9970     3.4200
 4083.5000     0.0260     2.5250     7.1510     0.2370  -999.2500   -37.8490     3.3040     3.6230     3.5150
 4084.0000     0.0280     2.5380     7.1350     0.2340  -999.2500   -37.7880     3.3040     3.5890     3.5570
 4084.5000     0.0280     2.5530     7.1190     0.2310  -999.2500   -37.7190     3.3040     4.2030     3.5410
 4085.0000     0.0280     2.5590     7.1030     0.2280  -999.2500   -37.4510     3.3040     4.8640     3.5210
 4085.5000     0.0290     2.5510     7.0810     0.2320  -999.2500  -999.2500     3.2890     4.5610     3.5010
 4086.0000     0.0340     2.5440     7.0590     0.2320  -999.2500  -999.2500     3.2690     4.0190     3.4920
 4086.5000     0.0370     2.5350     7.0440     0.2310  -999.2500  -999.2500     3.2490     3.4280     3.5440
 4087.0000     0.0410     2.5380     7.0450     0.2320  -999.2500  -999.2500  -999.2500     3.5150     3.5990
 4087.5000     0.0450     2.5590     7.0470     0.2350  -999.2500  -999.2500  -999.2500     3.8820     3.6540
 4088.0000     0.0470     2.5530     7.0480     0.2360  -999.2500  -999.2500  -999.2500     4.2480     3.6900
 4088.5000     0.0420     2.5390     7.0500     0.2350  -999.2500  -999.2500  -999.2500     4.5610     3.6470
 4089.0000     0.0380     2.5390     7.0510     0.2350  -999.2500  -999.2500  -999.2500     4.4950     3.6190
 4089.5000     0.0340     2.5380     7.0520     0.2380  -999.2500  -999.2500  -999.2500     4.4390     3.5890
 4090.0000     0.0300     2.5310     7.0540     0.2430  -999.2500  -999.2500  -999.2500     4.3820  -999.2500
 4090.5000     0.0300     2.5360     7.0550     0.2440  -999.2500  -999.2500  -999.2500     4.3340  -999.2500
 4091.0000     0.0340     2.5430     7.0560     0.2410  -999.2500  -999.2500  -999.2500     4.2220  -999.2500
 4091.5000     0.0380     2.5510     7.0580     0.2340  -999.2500  -999.2500  -999.2500     4.0490  -999.2500
 4092.0000     0.0420     2.5530     7.0590     0.2300  -999.2500  -999.2500  -999.2500     3.8750  -999.2500
 4092.5000     0.0460     2.5520     7.0600     0.2270  -999.2500  -999.2500  -999.2500  -999.2500  -999.2500
 4093.0000     0.0480     2.5520     7.0620     0.2320  -999.2500  -999.2500  -999.2500  -999.2500  -999.2500
 4093.5000     0.0480     2.5510     7.0630     0.2380  -999.2500  -999.2500  -999.2500  -999.2500  -999.2500
 4094.0000     0.0480     2.5500     7.0600     0.2430  -999.2500  -999.2500  -999.2500  -999.2500  -999.2500
 4094.5000     0.0480     2.5480     7.0540     0.2470  -999.2500  -999.2500  -999.2500  -999.2500  -999.2500
 4095.0000     0.0470     2.5410     7.0480     0.2450  -999.2500  -999.2500  -999.2500  -999.2500  -999.2500
 4095.5000     0.0440     2.5330  -999.2500     0.2420  -999.2500  -999.2500  -999.2500  -999.2500  -999.2500
 4096.0000     0.0420  -999.2500  -999.2500     0.2340  -999.2500  -999.2500  -999.2500  -999.2500  -999.2500
 4096.5000     0.0400  -999.2500  -999.2500     0.2360  -999.2500  -999.2500  -999.2500  -999.2500  -999.2500
 4097.0000     0.0380  -999.2500  -999.2500     0.2370  -999.2500  -999.2500  -999.2500  -999.2500  -999.2500
 4097.5000     0.0360  -999.2500  -999.2500     0.2390  -999.2500  -999.2500  -999.2500  -999.2500  -999.2500
