~VERSION INFORMATION
 VERS.                2.0:   CWLS LOG ASCII STANDARD - VERSION 2.0
 WRAP.                 NO:   ONE LINE PER DEPTH STEP
~WELL INFORMATION
#MNEM.UNIT      DATA TYPE    INFORMATION
#----------   ------------   ------------------------------
 STRT.F           50.0000:   START DEPTH
 STOP.F         4097.5000:   STOP DEPTH
 STEP.F            0.5000:   STEP LENGTH
 NULL.          -999.2500:   NO VALUE
 COMP.   TESORO PETROLEUM:   COMPANY
 WELL. TESORO NPR 3 "DX" #77-29:   WELL
 FLD .        TEAPOT DOME:   FIELD
 LOC .      S29 T39N R78W:   LOCATION
 CNTY.            NATRONA:   COUNTY
 STAT.            WYOMING:   STATE
 CTRY. UNITED STATES OF AMERICA:   COUNTRY
 SRVC.      DRESSER ATLAS:   SERVICE COMPANY
 DATE.        30-JUL-1976:   LOGDATE
 API .     49025102650000:   API NUMBER
~CURVE INFORMATION
#MNEM.UNIT       API CODE    CURVE DESCRIPTION
#----------   ------------   ------------------------------
 DEPT.F                  :   
 CORR.G/C3   45 356 01 00:   DENSITY CORRECTION
 RHOB.G/C3   45 350 01 00:   BULK DENSITY
 CALD.IN     45 280 60 00:   CALIPER FROM DENSITY LOG
 NPHI.DEC    42 890 03 00:   NEUTRON POROSITY SANDSTONE
 GRD .GAPI   45 310 01 00:   GAMMA RAY FROM DENSITY LOG
 SPR .MV     07 010 01 00:   SPONTANEOUS POTENTIAL
 ILD .OHMM   07 120 46 00:   DEEP INDUCTION RESISTIVITY
 SFL .OHMM   07 220 01 00:   SHALLOW FOCUSED LOG RESISTIVITY
 ILM .OHMM   07 120 44 00:   INDUCTION LOG MEDIUM RESISTIVITY
~PARAMETER INFORMATION
#MNEM.UNIT          VALUE    DESCRIPTION
#----------   ------------   ------------------------------
 EKB .F         5084.5000:   Kelly bushing
 EGL .F         5073.0000:   Ground level
 EDF .F         5083.0000:   Drilling floor
 TD  .F         4102.0000:   Total depth
 DATE.        30-JUL-1976:   Date logged
 CLNT.            A2DTECH:   Client Code
 SL  . 660' FSL & 660' FEL:   Surface Location
 PD  .                 GL:   Permanent Datum
 EPD .F              5073:   Elevation Permanent Datum
 LMF .                 KB:   Log Measured From
 DMF .                 KB:   Drilling Measured From
 DD  .F              4102:   Depth driller
 DL  .F              4097:   Depth logger
 BLI .F              4095:   Bottom log interval
 TLI .F               604:   Top log interval
 CS1 .IN            8.625:   Casing size
 CBD1.      8.625" @ 599':   Casing driller 1
 CBL1.F               604:   Casing logger 1
 BS1 .IN            7.875:   Bit size
 DFT .           CHEM/GEL:   Type fluid in hole
 DFD .                9.5:   Density
 DFV .                 46:   Viscosity
 DFPH.                9.8:   pH
 DFL .                6.6:   Fluid loss
 MSS .           FLOWLINE:   Source of sample
 RMS .OHMM           1.48:   Rm
 MST .F                78:   Rm Meas. temp.
 RMF .OHMM           1.07:   Rmf
 MFST.F                78:   Rmf Meas. temp.
 RMC .OHMM           1.57:   Rmc
 MCST.F                78:   Rmc Meas. temp.
 MFSS.               MEAS:   Source Rmf.
 RMB .OHMM            .87:   Rm. at BHT
 BHT .F               132:   BHT.
 TCS .HRS               7:   Time Circ. stopped
 MRT .F               132:   Maximum recorded temp.
 LUN .               6134:   Logging unit number
 LUL .              GLTTE:   Logging unit location
 ENGI.             VAUGHN:   Recorded By
 WITN.               WOLF:   Witnessed by
 ORIG.           5" PRINT:   Origin of data
 UWI .     49025102650000:   Unique Well ID
 DICO. A2D TECHNOLOGIES, INC.:   Digitizing Company
 DAPD.F              11.5:   Feet Above Permanent Datum
 BSD1.F              4102:   Depth drilled with bit1
~OTHER INFORMATION
~A   DEPT     CORR       RHOB       CALD       NPHI        GRD         SPR         ILD        SFL        ILM 
# ...
 2678.0000     0.0110     2.5380     8.4360     0.1850    94.9920   -48.3890    10.6280    11.1860    11.1770
 2678.5000     0.0110     2.5360     8.4200     0.1890    95.0720   -48.6950    10.5880    11.1360    11.1440
 2679.0000     0.0080     2.5240     8.4020     0.1910    95.1920   -48.9550    10.5480    11.0860    11.0160
 2679.5000     0.0050     2.5100     8.3830     0.1910    95.4360   -49.1870    10.5080    11.0420    10.9660
 2680.0000     0.0020     2.4970     8.3640     0.1890    96.9130   -49.4170    10.4480    11.5470    10.9400
 2680.5000    -0.0020     2.4830     8.3460     0.1860    99.3700   -49.5490    10.5640    11.7840    11.0170
 2681.0000    -0.0040     2.4690     8.3270     0.1850   101.8200   -49.2530    10.7960    11.7970    11.1020
 2681.5000    -0.0080     2.4670     8.3190     0.1830   104.0860   -48.9630    11.0280    11.8100    11.1870
 2682.0000    -0.0040     2.4820     8.3240     0.1800   102.9560   -48.6760    11.1440    11.8230    11.2470
 2682.5000     0.0010     2.5000     8.3300     0.1810   100.1900   -48.3880    11.1440    11.8370    11.2210
 2683.0000     0.0060     2.5100     8.3350     0.1800    99.3160   -48.1000    11.1440    11.8500    11.1850
 2683.5000     0.0110     2.5220     8.3410     0.1760    98.8180   -47.8330    11.0420    11.8630    11.1480
 2684.0000     0.0160     2.5330     8.3460     0.1760    98.0950   -47.8890    11.0870    11.8770    11.1120
 2684.5000     0.0170     2.5390     8.3510     0.1750    96.0880   -47.9560    11.1790    11.8850    11.0750
 2685.0000     0.0180     2.5330     8.3460     0.1720    93.7020   -48.0290    11.2710    11.8640    11.0390
 2685.5000     0.0190     2.5340     8.3020     0.1710    92.9740   -48.2490    11.3630    11.8480    11.0020
 2686.0000     0.0200     2.5340     8.2580     0.1720    91.3890   -48.5250    11.4550    11.8310    10.9660
 2686.5000     0.0180     2.5240     8.2180     0.1730    89.3400   -49.0350    11.5460    11.8150    10.9400
 2687.0000     0.0170     2.5130     8.2260     0.1750    87.2860   -49.7250    11.6380    11.7980    10.9400
 2687.5000     0.0160     2.5070     8.2360     0.1760    85.7080   -50.0090    11.7300    11.7770    11.0350
 2688.0000     0.0140     2.5090     8.2170     0.1730    88.2440   -50.2960    11.8220    11.9060    11.1700
 2688.5000     0.0130     2.5100     8.1950     0.1720    87.5690   -50.5800    11.9080    12.1640    11.3050
 2689.0000     0.0110     2.5020     8.1720     0.1720    89.3630   -50.8650    11.9820    12.4220    11.4400
 2689.5000     0.0100     2.4950     8.1500     0.1760    92.7430   -51.1470    12.0570    12.6810    11.5620
 2690.0000     0.0090     2.4880     8.1420     0.1820    92.1530   -51.1870    12.1310    12.9130    11.8270
 2690.5000     0.0080     2.4800     8.1540     0.1890    91.3810   -51.1880    12.2060    12.6770    12.1220
 2691.0000     0.0070     2.4730     8.1540     0.1950    92.2950   -51.1860    12.2800    12.1690    12.4160
 2691.5000     0.0060     2.4690     8.1510     0.1980    90.1780   -51.2550    12.3320    11.4420    12.7110
 2692.0000     0.0050     2.4740     8.1470     0.1910    91.2410   -51.3610    12.3160    10.6420    13.1530
 2692.5000     0.0040     2.4740     8.1430     0.1830    92.8190   -51.1800    12.3030    11.2120    13.0450
 2693.0000     0.0030     2.4760     8.1390     0.1800    93.7930   -50.8810    12.2900    12.7830    12.8290
 2693.5000     0.0020     2.4810     8.1350     0.1810    93.9120   -50.5800    12.2780    14.3550    12.6130
 2694.0000     0.0010     2.4810     8.1320     0.1840    93.3260   -50.2790    12.2650    14.8260    12.3970
 2694.5000     0.0000     2.4720     8.1280     0.1860    91.8550   -50.0150    12.2530    13.1820    12.3320
 2695.0000    -0.0010     2.4650     8.1240     0.1840    91.3010   -50.1770    12.2400    11.6880    12.3320
 2695.5000    -0.0020     2.4740     8.1200     0.1830    90.8780   -50.3390    12.2280    10.8470    12.3320
 2696.0000    -0.0030     2.4810     8.1150     0.1860    89.8620   -50.8820    12.2190    10.6420    12.3320
 2696.5000    -0.0040     2.4670     8.1070     0.1870    88.1500   -51.5090    12.3340    10.8630    12.4100
 2697.0000    -0.0040     2.4490     8.0980     0.1860    87.4570   -51.9330    12.4220    11.1780    12.4960
 2697.5000    -0.0040     2.4500     8.0900     0.1850    86.5300   -52.3570    12.5110    11.4940    12.5820
 2698.0000    -0.0050     2.4580     8.0820     0.1840    84.2650   -52.7820    12.5990    11.8090    12.6770
 2698.5000     0.0070     2.4680     8.0730     0.1830    82.5470   -53.2090    12.6880    12.1240    12.8700
 2699.0000     0.0270     2.4760     8.0650     0.1810    82.5660   -53.6450    12.7760    12.2190    13.1460
 2699.5000     0.0250     2.4840     8.0570     0.1790    83.2280   -53.8100    12.8650    12.2190    13.4220
 2700.0000     0.0230     2.4780     8.0490     0.1770    84.6090   -53.8900    12.9530    12.4500    13.6980
 2700.5000     0.0210     2.4720     8.0400     0.1760    85.9570   -53.9400    13.0330    12.9130    13.9740
 2701.0000     0.0180     2.4670     8.0320     0.1710    88.2090   -53.6160    13.2600    13.3760    14.2500
 2701.5000     0.0160     2.4760     8.0240     0.1680    90.8520   -53.0740    13.4660    13.8380    14.5250
 2702.0000     0.0130     2.4880     8.0190     0.1700    93.3850   -52.5390    13.6720    14.1590    14.8010
 2702.5000     0.0110     2.4990     8.0230     0.1750    95.0140   -51.9920    13.7730    14.1590    15.1020
 2703.0000     0.0080     2.5090     8.0260     0.1810    94.7350   -51.1780    13.7730    15.5780    14.6590
 2703.5000     0.0080     2.5010     8.0300     0.1880    93.7950   -50.5150    13.7730    16.7120    14.2780
 2704.0000     0.0090     2.4860     8.0340     0.1900    91.7890   -50.3550    13.5540    15.1300    13.8180
 2704.5000     0.0090     2.4720     8.0370     0.1900    91.4690   -50.2840    13.2470    12.6490    13.3580
 2705.0000     0.0100     2.4670     8.0410     0.1880    90.4030   -50.2130    12.9400    11.3130    12.8980
 2705.5000     0.0100     2.4630     8.0450     0.1860    88.8170   -50.3410    12.6330    10.7410    12.4350
 2706.0000     0.0110     2.4640     8.0480     0.1870    86.3210   -50.5170    12.3260    10.8880    12.0420
 2706.5000     0.0110     2.4640     8.0520     0.1890    82.2380   -51.4100    11.9960    11.1700    11.7770
 2707.0000     0.0120     2.4650     8.0550     0.1880    84.4560   -52.0650    11.9820    11.2470    11.9980
 2707.5000     0.0120     2.4580     8.0060     0.1860    85.2070   -52.6910    11.9670    11.2470    12.1940
 2708.0000     0.0120     2.4520     7.8980     0.1840    86.6610   -53.0080    11.9520    11.8830    12.3900
 2708.5000     0.0120     2.4440     7.8510     0.1810    88.2130   -53.0850    11.9370    13.3980    12.5860
 2709.0000     0.0110     2.4590     7.8760     0.1790    89.6400   -53.1560    11.9220    12.9600    12.6770
 2709.5000     0.0100     2.4540     7.9010     0.1760    92.8960   -52.8640    11.9080    12.4460    12.6770
 2710.0000     0.0090     2.4530     7.9260     0.1730   100.8740   -52.1960    11.8920    12.9340    12.6770
 2710.5000     0.0080     2.4660     7.9520     0.1740   100.9530   -51.4050    11.8520    13.5940    12.5500
 2711.0000     0.0070     2.4780     7.9770     0.1760    98.5840   -50.6950    11.7900    14.1590    12.1780
 2711.5000     0.0060     2.4910     8.0020     0.1780    95.1110   -49.9670    11.7270    13.5420    11.8050
 2712.0000     0.0040     2.5010     8.0270     0.1740    91.6890   -49.2440    11.6650    11.9580    11.5620
 2712.5000     0.0030     2.5020     8.0530     0.1700    88.3290   -48.5660    11.6020     9.9780    11.8660
 2713.0000     0.0020     2.5040     8.0780     0.1650    86.4610   -48.4040    11.5620    10.1440    12.1860
 2713.5000     0.0010     2.5130     8.1030     0.1610    90.1490   -48.2270    11.6600    10.4470    12.5060
 2714.0000     0.0000     2.5250     8.1290     0.1590    93.7330   -48.0470    11.7460    11.4520    12.8270
