~VERSION INFORMATION
 VERS.                2.0:   CWLS LOG ASCII STANDARD - VERSION 2.0
 WRAP.                 NO:   ONE LINE PER DEPTH STEP
~WELL INFORMATION
#MNEM.UNIT      DATA TYPE    INFORMATION
#----------   ------------   ------------------------------
 STRT.F           50.0000:   START DEPTH
 STOP.F         4097.5000:   STOP DEPTH
 STEP.F            0.5000:   STEP LENGTH
 NULL.          -999.2500:   NO VALUE
 COMP.   TESORO PETROLEUM:   COMPANY
 WELL. TESORO NPR 3 "DX" #77-29:   WELL
 FLD .        TEAPOT DOME:   FIELD
 LOC .      S29 T39N R78W:   LOCATION
 CNTY.            NATRONA:   COUNTY
 STAT.            WYOMING:   STATE
 CTRY. UNITED STATES OF AMERICA:   COUNTRY
 SRVC.      DRESSER ATLAS:   SERVICE COMPANY
 DATE.        30-JUL-1976:   LOGDATE
 API .     49025102650000:   API NUMBER
~CURVE INFORMATION
#MNEM.UNIT       API CODE    CURVE DESCRIPTION
#----------   ------------   ------------------------------
 DEPT.F                  :   
 CORR.G/C3   45 356 01 00:   DENSITY CORRECTION
 RHOB.G/C3   45 350 01 00:   BULK DENSITY
 CALD.IN     45 280 60 00:   CALIPER FROM DENSITY LOG
 NPHI.DEC    42 890 03 00:   NEUTRON POROSITY SANDSTONE
 GRD .GAPI   45 310 01 00:   GAMMA RAY FROM DENSITY LOG
 SPR .MV     07 010 01 00:   SPONTANEOUS POTENTIAL
 ILD .OHMM   07 120 46 00:   DEEP INDUCTION RESISTIVITY
 SFL .OHMM   07 220 01 00:   SHALLOW FOCUSED LOG RESISTIVITY
 ILM .OHMM   07 120 44 00:   INDUCTION LOG MEDIUM RESISTIVITY
~PARAMETER INFORMATION
#MNEM.UNIT          VALUE    DESCRIPTION
#----------   ------------   ------------------------------
 EKB .F         5084.5000:   Kelly bushing
 EGL .F         5073.0000:   Ground level
 EDF .F         5083.0000:   Drilling floor
 TD  .F         4102.0000:   Total depth
 DATE.        30-JUL-1976:   Date logged
 CLNT.            A2DTECH:   Client Code
 SL  . 660' FSL & 660' FEL:   Surface Location
 PD  .                 GL:   Permanent Datum
 EPD .F              5073:   Elevation Permanent Datum
 LMF .                 KB:   Log Measured From
 DMF .                 KB:   Drilling Measured From
 DD  .F              4102:   Depth driller
 DL  .F              4097:   Depth logger
 BLI .F              4095:   Bottom log interval
 TLI .F               604:   Top log interval
 CS1 .IN            8.625:   Casing size
 CBD1.      8.625" @ 599':   Casing driller 1
 CBL1.F               604:   Casing logger 1
 BS1 .IN            7.875:   Bit size
 DFT .           CHEM/GEL:   Type fluid in hole
 DFD .                9.5:   Density
 DFV .                 46:   Viscosity
 DFPH.                9.8:   pH
 DFL .                6.6:   Fluid loss
 MSS .           FLOWLINE:   Source of sample
 RMS .OHMM           1.48:   Rm
 MST .F                78:   Rm Meas. temp.
 RMF .OHMM           1.07:   Rmf
 MFST.F                78:   Rmf Meas. temp.
 RMC .OHMM           1.57:   Rmc
 MCST.F                78:   Rmc Meas. temp.
 MFSS.               MEAS:   Source Rmf.
 RMB .OHMM            .87:   Rm. at BHT
 BHT .F               132:   BHT.
 TCS .HRS               7:   Time Circ. stopped
 MRT .F               132:   Maximum recorded temp.
 LUN .               6134:   Logging unit number
 LUL .              GLTTE:   Logging unit location
 ENGI.             VAUGHN:   Recorded By
 WITN.               WOLF:   Witnessed by
 ORIG.           5" PRINT:   Origin of data
 UWI .     49025102650000:   Unique Well ID
 DICO. A2D TECHNOLOGIES, INC.:   Digitizing Company
 DAPD.F              11.5:   Feet Above Permanent Datum
 BSD1.F              4102:   Depth drilled with bit1
~OTHER INFORMATION
~A   DEPT     CORR       RHOB       CALD       NPHI        GRD         SPR         ILD        SFL        ILM 
# ...
 2203.5000    -0.0120     2.5240     8.3160     0.2490   102.8500   -45.0510     6.0880     6.9450     6.4780
 2204.0000    -0.0080     2.5350     8.3160     0.2480   102.2790   -45.0490     6.1240     6.5920     6.6190
 2204.5000    -0.0040     2.5460     8.3160     0.2500   102.6640   -45.0170     6.1240     7.1240     6.7150
 2205.0000     0.0000     2.5540     8.3160     0.2540   106.3260   -44.7650     6.1240     8.2230     6.5190
 2205.5000     0.0030     2.5630     8.3160     0.2590   110.0020   -44.5090     6.0440     7.9990     6.3440
 2206.0000     0.0080     2.5770     8.3060     0.2560   112.2580   -44.2540     5.7950     7.4880     5.9870
 2206.5000     0.0080     2.5820     8.2930     0.2550   113.4830   -43.9990     5.5460     6.8820     5.5610
 2207.0000     0.0080     2.5790     8.2800     0.2610   115.4150   -43.7440     5.2970     6.3050     5.1880
 2207.5000     0.0080     2.5660     8.2980     0.2640   116.6780   -43.4900     5.0480     5.9200     5.0800
 2208.0000     0.0080     2.5540     8.3390     0.2560   114.4730   -43.2690     4.7980     5.4330     4.9640
 2208.5000     0.0060     2.5420     8.3790     0.2580   112.7190   -43.2670     4.6450     5.5340     4.9090
 2209.0000     0.0040     2.5280     8.3950     0.2590   111.4230   -43.2690     4.6420     5.4070     4.9860
 2209.5000     0.0020     2.5320     8.3880     0.2520   111.9820   -43.2900     4.6150     5.1880     5.0680
 2210.0000     0.0010     2.5360     8.3580     0.2420   116.0290   -43.3690     4.6030     6.0850     5.1510
 2210.5000     0.0100     2.5420     8.3350     0.2450   119.5390   -43.4450     4.6300     7.2980     5.1880
 2211.0000     0.0060     2.5210     8.3370     0.2510   116.0270   -43.5860     4.6810     7.8530     5.1100
 2211.5000     0.0010     2.5210     8.3530     0.2580   114.6080   -43.7460     4.7310     6.8120     5.0510
 2212.0000     0.0060     2.5360     8.3690     0.2640   113.3320   -43.9070     4.7810     6.0380     5.0010
 2212.5000     0.0110     2.5470     8.3860     0.2710   111.9610   -44.0670     4.8320     5.5340     5.0260
 2213.0000     0.0150     2.5380     8.3960     0.2760   109.9650   -44.2280     4.8820     5.8690     5.0590
 2213.5000     0.0200     2.5390     8.3920     0.2710   108.1740   -44.3880     4.9320     6.2380     5.0940
 2214.0000     0.0240     2.5490     8.3690     0.2660   107.7540   -44.5460     5.0090     6.1050     5.2010
 2214.5000     0.0280     2.5560     8.3470     0.2650   107.0780   -44.6090     5.1070     5.9670     5.3940
 2215.0000     0.0320     2.5620     8.3250     0.2660   105.3360   -44.4570     5.2050     5.8280     5.5870
 2215.5000     0.0300     2.5660     8.3020     0.2520   103.5750   -44.3120     5.3030     5.7950     5.7800
 2216.0000     0.0280     2.5570     8.2870     0.2330   101.7560   -44.1680     5.4010     7.1640     5.8790
 2216.5000     0.0260     2.5530     8.2750     0.2360   101.9550   -44.0230     5.4830     8.1480     5.6180
 2217.0000     0.0240     2.5590     8.2630     0.2430   103.6220   -43.8780     5.3510     7.7390     5.4100
 2217.5000     0.0220     2.5610     8.2580     0.2490   102.4740   -43.7340     5.2370     6.8310     5.2360
 2218.0000     0.0200     2.5550     8.2600     0.2520   101.9470   -43.5890     5.1230     5.5340     5.1610
 2218.5000     0.0260     2.5600     8.2620     0.2510   103.3430   -43.4440     5.0090     5.8480     5.0830
 2219.0000     0.0330     2.5720     8.2640     0.2500   104.6910   -43.2970     4.8960     5.8050     5.0060
 2219.5000     0.0390     2.5830     8.2660     0.2490   106.6390   -43.3060     4.7820     5.6370     4.9280
 2220.0000     0.0360     2.5710     8.2690     0.2490   109.4010   -43.3520     4.6870     5.9250     4.8640
 2220.5000     0.0380     2.5580     8.2710     0.2510   112.1530   -43.4000     4.6760     6.5320     4.9120
 2221.0000     0.0420     2.5410     8.2730     0.2560   115.2260   -43.4460     4.6650     6.3060     4.9610
 2221.5000     0.0470     2.5330     8.2750     0.2600   119.3730   -43.6130     4.6540     5.9570     5.0010
 2222.0000     0.0520     2.4950     8.2780     0.2650   125.4010   -43.8590     4.6360     6.0390     4.9590
 2222.5000     0.0570     2.4290     8.2820     0.2700   131.7530   -44.1060     4.5840     6.1240     4.8890
 2223.0000     0.0610     2.4160     8.2850     0.2730   138.1170   -44.3560     4.5310     6.0220     4.8180
 2223.5000     0.0660     2.4340     8.2890     0.2740   142.3600   -44.4290     4.4790     5.9370     4.7470
 2224.0000     0.0670     2.4840     8.2920     0.2800   138.7760   -44.3880     4.4270     5.8850     4.6770
 2224.5000     0.0660     2.5520     8.2960     0.2860   134.9390   -44.3480     4.3750     5.8480     4.6060
 2225.0000     0.0650     2.5460     8.2990     0.2910   130.2580   -44.3070     4.3230     5.7920     4.5350
 2225.5000     0.0650     2.4990     8.3030     0.2990   131.5110   -44.2650     4.2710     5.6980     4.4360
 2226.0000     0.0870     2.4630     8.3060     0.2970   133.7530   -44.2570     4.1980     5.5850     4.4830
 2226.5000     0.1090     2.4250     8.3100     0.2920   133.3100   -44.2330     4.2880     5.6150     4.5600
 2227.0000     0.1240     2.4230     8.3130     0.2900   135.3170   -44.1690     4.4360     5.6520     4.6360
 2227.5000     0.0940     2.4210     8.3160     0.2870   137.1370   -44.0980     4.5850     5.6900     4.7130
 2228.0000     0.0630     2.4590     8.3160     0.2850   135.2070   -43.8500     4.7330     5.7270     4.7900
 2228.5000     0.0630     2.4980     8.3160     0.2850   134.0240   -43.7780     4.8810     5.9840     4.9770
 2229.0000     0.0500     2.5090     8.3160     0.2890   134.6310   -43.8980     5.0300     6.5100     5.2340
 2229.5000     0.0380     2.5190     8.3160     0.2920   135.2710   -44.0250     5.1780     6.4180     5.4910
 2230.0000     0.0270     2.5270     8.3110     0.2910   133.9690   -44.1540     5.3270     6.2380     5.7490
 2230.5000     0.0200     2.5270     8.3050     0.2890   132.1550   -44.2820     5.4750     6.7440     5.8680
 2231.0000     0.0140     2.5260     8.2990     0.2870   128.7230   -44.4110     5.6240     7.2280     5.9860
 2231.5000     0.0080     2.5090     8.2960     0.2870   128.7520   -44.5390     5.7720     7.0630     6.1240
 2232.0000     0.0080     2.5090     8.2960     0.2880   129.3070   -44.6680     5.9210     6.5320     6.0710
 2232.5000     0.0080     2.5130     8.2960     0.2840   129.1580   -44.7970     6.1110     6.7660     5.9880
 2233.0000     0.0080     2.5280     8.2970     0.2820   128.0810   -44.9250     6.0620     7.2950     5.9040
 2233.5000     0.0080     2.5250     8.3190     0.2860   128.0260   -45.0420     5.9630     7.2550     5.8200
 2234.0000     0.0080     2.5200     8.3920     0.2920   128.3520   -44.9550     5.8650     7.2280     5.7360
 2234.5000     0.0080     2.5150     8.3400     0.2970   128.7250   -44.8630     5.7660     6.6780     5.6700
 2235.0000     0.0080     2.5100     8.2870     0.2990   129.4150   -44.7710     5.6680     6.1480     5.5920
 2235.5000     0.0080     2.5050     8.2350     0.3000   131.2640   -44.6790     5.5690     5.9570     5.5140
 2236.0000     0.0080     2.4950     8.2210     0.2990   130.3750   -44.5870     5.4710     6.5920     5.4360
 2236.5000     0.0080     2.4850     8.2270     0.2970   130.6090   -44.4950     5.3720     6.3150     5.3580
 2237.0000     0.0080     2.4780     8.2330     0.2940   131.4250   -44.4030     5.2740     5.9800     5.2790
 2237.5000     0.0080     2.4780     8.2450     0.2920   131.2540   -44.3120     5.1410     5.7950     5.2360
 2238.0000     0.0070     2.4820     8.2660     0.2910   132.9830   -44.2200     5.1920     6.8260     5.4410
 2238.5000    -0.0010     2.4750     8.2870     0.2920   135.5150   -44.1300     5.3050     7.4310     5.6060
 2239.0000    -0.0080     2.4700     8.2900     0.2970   135.7940   -44.0730     5.4180     6.9950     5.7700
 2239.5000    -0.0120     2.4690     8.2800     0.2990   133.3850   -44.1400     5.5310     6.4850     5.9340
