~VERSION INFORMATION
 VERS.                2.0:   CWLS LOG ASCII STANDARD - VERSION 2.0
 WRAP.                 NO:   ONE LINE PER DEPTH STEP
~WELL INFORMATION
#MNEM.UNIT      DATA TYPE    INFORMATION
#----------   ------------   ------------------------------
 STRT.F           50.0000:   START DEPTH
 STOP.F         4097.5000:   STOP DEPTH
 STEP.F            0.5000:   STEP LENGTH
 NULL.          -999.2500:   NO VALUE
 COMP.   TESORO PETROLEUM:   COMPANY
 WELL. TESORO NPR 3 "DX" #77-29:   WELL
 FLD .        TEAPOT DOME:   FIELD
 LOC .      S29 T39N R78W:   LOCATION
 CNTY.            NATRONA:   COUNTY
 STAT.            WYOMING:   STATE
 CTRY. UNITED STATES OF AMERICA:   COUNTRY
 SRVC.      DRESSER ATLAS:   SERVICE COMPANY
 DATE.        30-JUL-1976:   LOGDATE
 API .     49025102650000:   API NUMBER
~CURVE INFORMATION
#MNEM.UNIT       API CODE    CURVE DESCRIPTION
#----------   ------------   ------------------------------
 DEPT.F                  :   
 CORR.G/C3   45 356 01 00:   DENSITY CORRECTION
 RHOB.G/C3   45 350 01 00:   BULK DENSITY
 CALD.IN     45 280 60 00:   CALIPER FROM DENSITY LOG
 NPHI.DEC    42 890 03 00:   NEUTRON POROSITY SANDSTONE
 GRD .GAPI   45 310 01 00:   GAMMA RAY FROM DENSITY LOG
 SPR .MV     07 010 01 00:   SPONTANEOUS POTENTIAL
 ILD .OHMM   07 120 46 00:   DEEP INDUCTION RESISTIVITY
 SFL .OHMM   07 220 01 00:   SHALLOW FOCUSED LOG RESISTIVITY
 ILM .OHMM   07 120 44 00:   INDUCTION LOG MEDIUM RESISTIVITY
~PARAMETER INFORMATION
#MNEM.UNIT          VALUE    DESCRIPTION
#----------   ------------   ------------------------------
 EKB .F         5084.5000:   Kelly bushing
 EGL .F         5073.0000:   Ground level
 EDF .F         5083.0000:   Drilling floor
 TD  .F         4102.0000:   Total depth
 DATE.        30-JUL-1976:   Date logged
 CLNT.            A2DTECH:   Client Code
 SL  . 660' FSL & 660' FEL:   Surface Location
 PD  .                 GL:   Permanent Datum
 EPD .F              5073:   Elevation Permanent Datum
 LMF .                 KB:   Log Measured From
 DMF .                 KB:   Drilling Measured From
 DD  .F              4102:   Depth driller
 DL  .F              4097:   Depth logger
 BLI .F              4095:   Bottom log interval
 TLI .F               604:   Top log interval
 CS1 .IN            8.625:   Casing size
 CBD1.      8.625" @ 599':   Casing driller 1
 CBL1.F               604:   Casing logger 1
 BS1 .IN            7.875:   Bit size
 DFT .           CHEM/GEL:   Type fluid in hole
 DFD .                9.5:   Density
 DFV .                 46:   Viscosity
 DFPH.                9.8:   pH
 DFL .                6.6:   Fluid loss
 MSS .           FLOWLINE:   Source of sample
 RMS .OHMM           1.48:   Rm
 MST .F                78:   Rm Meas. temp.
 RMF .OHMM           1.07:   Rmf
 MFST.F                78:   Rmf Meas. temp.
 RMC .OHMM           1.57:   Rmc
 MCST.F                78:   Rmc Meas. temp.
 MFSS.               MEAS:   Source Rmf.
 RMB .OHMM            .87:   Rm. at BHT
 BHT .F               132:   BHT.
 TCS .HRS               7:   Time Circ. stopped
 MRT .F               132:   Maximum recorded temp.
 LUN .               6134:   Logging unit number
 LUL .              GLTTE:   Logging unit location
 ENGI.             VAUGHN:   Recorded By
 WITN.               WOLF:   Witnessed by
 ORIG.           5" PRINT:   Origin of data
 UWI .     49025102650000:   Unique Well ID
 DICO. A2D TECHNOLOGIES, INC.:   Digitizing Company
 DAPD.F              11.5:   Feet Above Permanent Datum
 BSD1.F              4102:   Depth drilled with bit1
~OTHER INFORMATION
~A   DEPT     CORR       RHOB       CALD       NPHI        GRD         SPR         ILD        SFL        ILM 
# ...
 3116.0000     0.0100     2.5130     8.1170     0.2280   122.8960   -43.2670     2.7230     4.0570     3.0030
 3116.5000     0.0090     2.4970     8.1180     0.2290   123.8010   -43.1530     2.6970     4.3250     3.0080
 3117.0000     0.0020     2.4860     8.1190     0.2310   123.3790   -43.0440     2.6670     4.4770     3.0130
 3117.5000    -0.0050     2.4790     8.1190     0.2330   123.7320   -42.9350     2.6360     4.0480     2.9560
 3118.0000    -0.0120     2.4750     8.1200     0.2320   125.9900   -42.8260     2.6060     4.0590     2.9080
 3118.5000    -0.0160     2.4750     8.1200     0.2330   126.1590   -42.7170     2.5750     4.0830     2.8600
 3119.0000    -0.0130     2.4840     8.1210     0.2360   126.8210   -42.6080     2.5450     3.9950     2.8120
 3119.5000    -0.0100     2.4970     8.1210     0.2330   127.6990   -42.4980     2.5140     3.8490     2.7670
 3120.0000    -0.0070     2.5070     8.1220     0.2290   128.5690   -42.3890     2.4840     3.7590     2.7310
 3120.5000    -0.0040     2.5130     8.1230     0.2280   128.9720   -42.2860     2.4530     3.8520     2.7230
 3121.0000    -0.0010     2.5180     8.1230     0.2370   126.3990   -42.4020     2.3930     3.9310     2.7280
 3121.5000     0.0020     2.5100     8.1240     0.2440   123.0090   -42.5300     2.3990     4.0460     2.7320
 3122.0000     0.0040     2.5020     8.1240     0.2470   121.8350   -42.6580     2.4080     3.9690     2.7370
 3122.5000     0.0050     2.4940     8.1250     0.2460   119.6950   -42.7860     2.4170     3.8300     2.7420
 3123.0000     0.0060     2.4970     8.1250     0.2440   119.4130   -42.9140     2.4260     3.7930     2.7480
 3123.5000     0.0070     2.4860     8.1260     0.2510   120.7280   -43.0420     2.4380     3.8130     2.7170
 3124.0000     0.0080     2.4790     8.1260     0.2550   121.5120   -43.1700     2.4160     3.9730     2.6590
 3124.5000     0.0080     2.4820     8.1270     0.2560   123.9140   -43.2990     2.3740     4.0830     2.6010
 3125.0000     0.0070     2.4860     8.1280     0.2520   127.9060   -43.4320     2.3320     3.7840     2.5430
 3125.5000     0.0060     2.4820     8.1280     0.2460   129.2790   -43.3850     2.2900     3.6230     2.4850
 3126.0000     0.0050     2.4790     8.1290     0.2430   129.1950   -43.2760     2.2470     3.6560     2.4270
 3126.5000     0.0050     2.4910     8.1290     0.2410   128.8870   -43.1650     2.2050     3.5360     2.3500
 3127.0000     0.0040     2.4930     8.1300     0.2440   125.4860   -43.0540     2.1830     3.4560     2.3540
 3127.5000    -0.0010     2.4770     8.1300     0.2470   125.2040   -42.9430     2.1830     3.3960     2.3610
 3128.0000    -0.0030     2.4740     8.1310     0.2490   126.2260   -42.8320     2.1830     3.5230     2.3680
 3128.5000     0.0010     2.4860     8.1310     0.2410   127.3170   -42.7210     2.1830     3.7240     2.3750
 3129.0000     0.0050     2.5000     8.1320     0.2390   128.9170   -42.6100     2.1830     3.6910     2.3810
 3129.5000     0.0090     2.5060     8.1330     0.2400   133.2620   -42.4980     2.1620     3.6400     2.3880
 3130.0000     0.0110     2.5040     8.1330     0.2450   137.5790   -42.3870     2.1130     3.5890     2.3720
 3130.5000     0.0060     2.4990     8.1340     0.2530   141.8350   -42.2840     2.0650     3.6110     2.4380
 3131.0000     0.0020     2.4930     8.1340     0.2590   145.1300   -42.3540     2.0160     3.6470     2.3540
 3131.5000    -0.0020     2.4810     8.1350     0.2560   143.1060   -42.4300     1.9670     3.6900     2.2840
 3132.0000    -0.0070     2.4670     8.1350     0.2510   136.4480   -42.5700     1.9190     3.5040     2.2150
 3132.5000    -0.0110     2.4520     8.1360     0.2460   130.4530   -42.8170     1.8700     3.1840     2.1460
 3133.0000    -0.0150     2.4450     8.1370     0.2400   125.7150   -43.0620     1.8490     3.1630     2.0470
 3133.5000    -0.0140     2.4610     8.1370     0.2350   122.4140   -43.3070     1.8490     3.1370     2.0770
 3134.0000    -0.0120     2.4770     8.1410     0.2270   123.2140   -43.5540     1.8490     3.0980     2.1610
 3134.5000    -0.0100     2.4940     8.1440     0.2210   121.7550   -43.8060     1.9050     3.2570     2.2440
 3135.0000    -0.0070     2.5000     8.1480     0.2240   120.0740   -43.7830     1.9800     3.5470     2.3280
 3135.5000    -0.0050     2.4900     8.1520     0.2270   118.7480   -43.6850     2.0540     3.9720     2.4310
 3136.0000    -0.0040     2.4880     8.1560     0.2250   119.9390   -43.5860     2.1280     3.8340     2.5410
 3136.5000    -0.0040     2.4880     8.1600     0.2210   118.3350   -43.4860     2.2020     3.6560     2.6510
 3137.0000    -0.0040     2.5010     8.1640     0.2150   116.6000   -43.3860     2.3650     3.6700     2.7610
 3137.5000    -0.0040     2.5170     8.1680     0.2090   115.0460   -43.2860     2.5630     3.6820     2.8710
 3138.0000    -0.0040     2.5310     8.1720     0.2030   114.1640   -43.1850     2.7620     3.7590     3.0710
 3138.5000    -0.0040     2.5380     8.1760     0.1980   119.1750   -43.0850     2.9600     3.9950     3.3090
 3139.0000    -0.0040     2.5380     8.1800     0.1940   125.1330   -42.9850     3.1580     4.2310     3.5480
 3139.5000    -0.0040     2.5320     8.1840     0.1940   131.1930   -42.8850     3.3560     4.3790     3.7870
 3140.0000    -0.0040     2.5340     8.1880     0.2020   150.7580   -42.8720     3.5550     4.5490     4.0250
 3140.5000    -0.0040     2.5410     8.1920     0.1990   162.4310   -42.8710     3.7240     4.7810     4.2640
 3141.0000     0.0050     2.5480     8.1960     0.1970   172.8520   -42.8720     3.6440     4.9640     4.3960
 3141.5000     0.0180     2.5450     8.1950     0.2050   182.3220   -42.8720     3.5240     5.0010     4.2760
 3142.0000     0.0260     2.4890     8.1930     0.2170   168.7350   -42.8740     3.1470     5.3540     3.8260
 3142.5000     0.0290     2.4320     8.1900     0.2280   156.5940   -42.9230     2.7830     5.6890     3.2380
 3143.0000     0.0320     2.3930     8.1880     0.2340   145.6540   -43.1710     2.4190     5.4830     2.6500
 3143.5000     0.0320     2.4010     8.1860     0.2270   134.7850   -43.4170     2.3090     4.0140     2.1830
 3144.0000     0.0310     2.4320     8.1840     0.2070   123.1950   -43.6600     2.2780     2.2650     2.2030
 3144.5000     0.0240     2.4910     8.1810     0.1900   111.0050   -43.8730     2.2470     2.4160     2.3860
 3145.0000     0.0170     2.5020     8.1790     0.1880   104.6000   -43.9000     2.2160     3.8270     2.5710
 3145.5000     0.0100     2.5140     8.1780     0.1810   103.6890   -43.9300     2.2030     5.5850     2.7990
 3146.0000     0.0070     2.5340     8.1960     0.1730   103.8260   -43.9620     2.4200     4.8440     3.2380
 3146.5000     0.0030     2.5380     8.2130     0.1690   102.6610   -43.9940     2.6590     4.0090     3.6770
 3147.0000     0.0000     2.5400     8.2320     0.1720   103.1730   -44.0260     3.1820     4.8300     4.1160
 3147.5000    -0.0030     2.5420     8.2340     0.1740   105.6450   -44.0550     3.7060     5.7420     4.4030
 3148.0000     0.0010     2.5490     8.2300     0.1720   105.1650   -43.9280     4.1820     4.6880     4.5630
 3148.5000     0.0060     2.5610     8.2250     0.1700   106.7210   -43.7880     4.3490     4.8040     4.7230
 3149.0000     0.0080     2.5690     8.2200     0.1700   108.8930   -43.6470     4.5160     5.0230     4.8840
 3149.5000     0.0080     2.5720     8.2150     0.1750   110.2950   -43.5020     4.6830     5.2420     5.0440
 3150.0000     0.0080     2.5710     8.2110     0.1780   111.0080   -43.5090     4.7560     5.4830     5.2850
 3150.5000     0.0080     2.5700     8.2060     0.1790   111.7010   -43.5660     4.8050     5.4240     5.2640
 3151.0000     0.0080     2.5680     8.2010     0.1780   115.8990   -43.6250     4.8530     5.3580     5.2230
 3151.5000     0.0080     2.5610     8.1970     0.1760   117.1170   -43.7210     4.9010     5.2930     5.1830
 3152.0000     0.0080     2.5660     8.1970     0.1780   119.7450   -43.9410     4.9550     5.2270     5.1420
