~VERSION INFORMATION
 VERS.                2.0:   CWLS LOG ASCII STANDARD - VERSION 2.0
 WRAP.                 NO:   ONE LINE PER DEPTH STEP
~WELL INFORMATION
#MNEM.UNIT      DATA TYPE    INFORMATION
#----------   ------------   ------------------------------
 STRT.F           50.0000:   START DEPTH
 STOP.F         4097.5000:   STOP DEPTH
 STEP.F            0.5000:   STEP LENGTH
 NULL.          -999.2500:   NO VALUE
 COMP.   TESORO PETROLEUM:   COMPANY
 WELL. TESORO NPR 3 "DX" #77-29:   WELL
 FLD .        TEAPOT DOME:   FIELD
 LOC .      S29 T39N R78W:   LOCATION
 CNTY.            NATRONA:   COUNTY
 STAT.            WYOMING:   STATE
 CTRY. UNITED STATES OF AMERICA:   COUNTRY
 SRVC.      DRESSER ATLAS:   SERVICE COMPANY
 DATE.        30-JUL-1976:   LOGDATE
 API .     49025102650000:   API NUMBER
~CURVE INFORMATION
#MNEM.UNIT       API CODE    CURVE DESCRIPTION
#----------   ------------   ------------------------------
 DEPT.F                  :   
 CORR.G/C3   45 356 01 00:   DENSITY CORRECTION
 RHOB.G/C3   45 350 01 00:   BULK DENSITY
 CALD.IN     45 280 60 00:   CALIPER FROM DENSITY LOG
 NPHI.DEC    42 890 03 00:   NEUTRON POROSITY SANDSTONE
 GRD .GAPI   45 310 01 00:   GAMMA RAY FROM DENSITY LOG
 SPR .MV     07 010 01 00:   SPONTANEOUS POTENTIAL
 ILD .OHMM   07 120 46 00:   DEEP INDUCTION RESISTIVITY
 SFL .OHMM   07 220 01 00:   SHALLOW FOCUSED LOG RESISTIVITY
 ILM .OHMM   07 120 44 00:   INDUCTION LOG MEDIUM RESISTIVITY
~PARAMETER INFORMATION
#MNEM.UNIT          VALUE    DESCRIPTION
#----------   ------------   ------------------------------
 EKB .F         5084.5000:   Kelly bushing
 EGL .F         5073.0000:   Ground level
 EDF .F         5083.0000:   Drilling floor
 TD  .F         4102.0000:   Total depth
 DATE.        30-JUL-1976:   Date logged
 CLNT.            A2DTECH:   Client Code
 SL  . 660' FSL & 660' FEL:   Surface Location
 PD  .                 GL:   Permanent Datum
 EPD .F              5073:   Elevation Permanent Datum
 LMF .                 KB:   Log Measured From
 DMF .                 KB:   Drilling Measured From
 DD  .F              4102:   Depth driller
 DL  .F              4097:   Depth logger
 BLI .F              4095:   Bottom log interval
 TLI .F               604:   Top log interval
 CS1 .IN            8.625:   Casing size
 CBD1.      8.625" @ 599':   Casing driller 1
 CBL1.F               604:   Casing logger 1
 BS1 .IN            7.875:   Bit size
 DFT .           CHEM/GEL:   Type fluid in hole
 DFD .                9.5:   Density
 DFV .                 46:   Viscosity
 DFPH.                9.8:   pH
 DFL .                6.6:   Fluid loss
 MSS .           FLOWLINE:   Source of sample
 RMS .OHMM           1.48:   Rm
 MST .F                78:   Rm Meas. temp.
 RMF .OHMM           1.07:   Rmf
 MFST.F                78:   Rmf Meas. temp.
 RMC .OHMM           1.57:   Rmc
 MCST.F                78:   Rmc Meas. temp.
 MFSS.               MEAS:   Source Rmf.
 RMB .OHMM            .87:   Rm. at BHT
 BHT .F               132:   BHT.
 TCS .HRS               7:   Time Circ. stopped
 MRT .F               132:   Maximum recorded temp.
 LUN .               6134:   Logging unit number
 LUL .              GLTTE:   Logging unit location
 ENGI.             VAUGHN:   Recorded By
 WITN.               WOLF:   Witnessed by
 ORIG.           5" PRINT:   Origin of data
 UWI .     49025102650000:   Unique Well ID
 DICO. A2D TECHNOLOGIES, INC.:   Digitizing Company
 DAPD.F              11.5:   Feet Above Permanent Datum
 BSD1.F              4102:   Depth drilled with bit1
~OTHER INFORMATION
~A   DEPT     CORR       RHOB       CALD       NPHI        GRD         SPR         ILD        SFL        ILM 
# ...
 1729.0000     0.0530     2.5320     8.3020     0.2650   116.6490   -44.7810     5.0840     6.0450     5.2010
 1729.5000     0.0640     2.5180     8.3360     0.2640   118.9980   -44.8430     5.0600     5.9940     5.1460
 1730.0000     0.0740     2.4970     8.3680     0.2620   117.4250   -44.9050     5.0370     5.9570     5.0940
 1730.5000     0.0850     2.5020     8.3960     0.2600   115.9420   -44.9670     5.0010     6.0010     5.1400
 1731.0000     0.0860     2.5190     8.3760     0.2590   116.2260   -45.0280     5.0090     6.0510     5.1840
 1731.5000     0.0820     2.5250     8.3560     0.2720   115.7240   -45.2390     5.0260     6.1020     5.2270
 1732.0000     0.0790     2.5250     8.3370     0.2700   116.7470   -45.5280     5.0440     6.1520     5.2710
 1732.5000     0.0770     2.5240     8.3360     0.2670   118.1870   -45.8150     5.0620     6.2380     5.3150
 1733.0000     0.0740     2.5430     8.3360     0.2670   118.2220   -46.0320     5.0790     6.2380     5.3830
 1733.5000     0.0710     2.5580     8.3360     0.2670   117.9640   -45.9640     5.0970     6.2380     5.3750
 1734.0000     0.0680     2.5760     8.3360     0.2640   120.1320   -45.9010     5.1140     6.2380     5.3570
 1734.5000     0.0660     2.5750     8.3360     0.2640   122.6790   -45.8360     5.1320     6.2160     5.3390
 1735.0000     0.0620     2.5660     8.3360     0.2680   123.9480   -45.6530     5.1500     6.1640     5.3210
 1735.5000     0.0570     2.5620     8.3360     0.2690   124.4890   -45.4670     5.1670     6.1240     5.3030
 1736.0000     0.0430     2.5580     8.3360     0.2660   121.8770   -45.2820     5.1880     6.1650     5.2850
 1736.5000     0.0250     2.5500     8.3330     0.2600   118.0100   -45.0980     5.1740     6.2150     5.2670
 1737.0000     0.0050     2.5400     8.3110     0.2540   118.5720   -44.9130     5.1570     6.2650     5.2490
 1737.5000     0.0080     2.5300     8.2910     0.2520   119.3890   -44.7270     5.1400     6.2950     5.2310
 1738.0000     0.0170     2.5150     8.2900     0.2490   118.7440   -44.6550     5.1220     6.1550     5.2130
 1738.5000     0.0260     2.4900     8.3370     0.2450   116.8410   -44.6540     5.1050     6.0120     5.1950
 1739.0000     0.0350     2.4950     8.3660     0.2460   114.2660   -44.6540     5.0880     6.0400     5.1770
 1739.5000     0.0440     2.5040     8.3010     0.2460   113.2760   -44.6540     5.0700     6.0680     5.1590
 1740.0000     0.0530     2.5380     8.2560     0.2500   115.0630   -44.6550     5.0530     5.9450     5.1410
 1740.5000     0.0610     2.5830     8.2570     0.2580   117.3140   -44.7380     5.0360     5.7870     5.1840
 1741.0000     0.0670     2.5580     8.2570     0.2570   118.1410   -44.9670     5.0190     5.6890     5.2280
 1741.5000     0.0590     2.5390     8.2560     0.2570   117.8710   -45.1950     5.0010     5.9230     5.2720
 1742.0000     0.0480     2.5470     8.2560     0.2590   117.9670   -45.4220     5.0230     6.1290     5.3160
 1742.5000     0.0370     2.5650     8.2560     0.2620   117.1600   -45.6460     5.0460     6.1590     5.3600
 1743.0000     0.0270     2.5830     8.2560     0.2650   116.4550   -45.8280     5.0700     6.1890     5.4040
 1743.5000     0.0160     2.5820     8.2540     0.2640   117.2380   -45.6950     5.0930     6.2180     5.4330
 1744.0000     0.0060     2.5750     8.2520     0.2620   118.0050   -45.5660     5.1160     6.2380     5.4330
 1744.5000    -0.0030     2.5710     8.2510     0.2600   117.4590   -45.4380     5.1410     6.2380     5.4330
 1745.0000     0.0020     2.5760     8.2490     0.2590   117.6040   -45.3100     5.1470     6.2380     5.4330
 1745.5000     0.0070     2.5820     8.2470     0.2580   118.9020   -45.1820     5.1530     6.2380     5.4330
 1746.0000     0.0130     2.5810     8.2450     0.2570   119.7020   -45.0550     5.1590     6.2380     5.4330
 1746.5000     0.0190     2.5830     8.2440     0.2550   120.6520   -44.9270     5.1660     6.2380     5.4330
 1747.0000     0.0250     2.5880     8.2420     0.2540   121.6370   -44.7990     5.1720     6.2380     5.4330
 1747.5000     0.0260     2.5920     8.2400     0.2530   119.4000   -44.6720     5.1780     6.2380     5.4330
 1748.0000     0.0190     2.5950     8.2380     0.2530   119.4760   -44.5460     5.1850     6.2380     5.4250
 1748.5000     0.0130     2.6050     8.2370     0.2540   120.2030   -44.4860     5.1910     6.2380     5.4160
 1749.0000     0.0070     2.5980     8.2400     0.2540   120.3480   -44.6070     5.1970     6.2380     5.4070
 1749.5000     0.0000     2.5770     8.2440     0.2570   118.8830   -44.7240     5.2040     6.2380     5.3980
 1750.0000    -0.0060     2.5670     8.2490     0.2600   118.4680   -44.8390     5.2100     6.2380     5.3900
 1750.5000    -0.0120     2.5760     8.2530     0.2470   119.0340   -44.9550     5.2170     6.2370     5.3830
 1751.0000    -0.0110     2.5830     8.2570     0.2460   119.2730   -45.0720     5.2230     6.3080     5.4220
 1751.5000    -0.0100     2.5830     8.2610     0.2450   118.5520   -45.1870     5.2290     6.3540     5.4560
 1752.0000    -0.0080     2.5730     8.2650     0.2440   117.2570   -45.4410     5.2360     6.2000     5.4910
 1752.5000    -0.0070     2.5750     8.2690     0.2480   117.7800   -45.8510     5.3190     6.1240     5.5260
 1753.0000    -0.0060     2.5830     8.2730     0.2520   118.2940   -46.2250     5.4150     6.1680     5.5610
 1753.5000    -0.0040     2.5870     8.2770     0.2550   118.7550   -46.1740     5.5110     6.2200     5.5960
 1754.0000    -0.0040     2.5790     8.2820     0.2590   119.6530   -46.1120     5.6060     6.2720     5.6310
 1754.5000    -0.0040     2.5790     8.2860     0.2650   119.9750   -46.0560     5.7020     6.3540     5.7000
 1755.0000    -0.0040     2.5850     8.2900     0.2670   118.1120   -45.8340     5.7980     6.3320     5.7770
 1755.5000    -0.0030     2.5910     8.2940     0.2640   118.6240   -45.5910     5.8940     6.2790     5.8530
 1756.0000     0.0000     2.5980     8.2960     0.2600   119.2920   -45.3460     5.9890     6.2380     5.9300
 1756.5000     0.0030     2.5980     8.2960     0.2630   118.8800   -45.1000     6.1240     6.5770     6.0060
 1757.0000     0.0070     2.6040     8.2960     0.2640   116.3700   -44.8560     6.0960     6.8580     6.0680
 1757.5000     0.0100     2.6080     8.2960     0.2630   117.3430   -44.6110     6.0490     7.0380     6.0680
 1758.0000     0.0130     2.6180     8.2960     0.2600   120.4750   -44.4740     6.0030     7.0550     6.0680
 1758.5000     0.0160     2.6200     8.2960     0.2540   123.4100   -44.5310     5.9560     7.0720     6.0680
 1759.0000     0.0150     2.6170     8.2960     0.2560   124.6500   -44.5860     5.9090     7.0960     6.0680
 1759.5000     0.0130     2.6120     8.2960     0.2600   125.3860   -44.6400     5.8630     6.9790     6.0330
 1760.0000     0.0120     2.6040     8.2960     0.2630   127.9330   -44.6940     5.8160     6.7670     5.9960
 1760.5000     0.0100     2.6000     8.2960     0.2650   129.6420   -44.7490     5.7690     6.5550     5.9590
 1761.0000     0.0080     2.5980     8.2960     0.2650   127.7710   -44.8050     5.7220     6.4130     5.9220
 1761.5000     0.0100     2.5980     8.2960     0.2690   126.1080   -44.9080     5.6760     6.6220     5.8850
 1762.0000     0.0150     2.6000     8.2960     0.2710   124.5600   -45.3520     5.6290     6.7150     5.8480
 1762.5000     0.0260     2.5920     8.2960     0.2710   124.1900   -45.8160     5.5820     6.5430     5.8110
 1763.0000     0.0370     2.5660     8.2960     0.2710   127.4060   -45.8420     5.5350     6.4110     5.7750
 1763.5000     0.0560     2.5430     8.2960     0.2680   130.4980   -45.8420     5.4830     6.2800     5.7380
 1764.0000     0.0730     2.5220     8.3310     0.2630   130.9880   -45.8440     5.4950     6.2380     5.6890
 1764.5000     0.0900     2.5010     8.3890     0.2590   129.4910   -45.6950     5.5200     6.2380     5.7070
 1765.0000     0.1020     2.5180     8.4470     0.2590   128.0160   -45.4820     5.5450     6.2380     5.7340
