~VERSION INFORMATION
 VERS.                2.0:   CWLS LOG ASCII STANDARD - VERSION 2.0
 WRAP.                 NO:   ONE LINE PER DEPTH STEP
~WELL INFORMATION
#MNEM.UNIT      DATA TYPE    INFORMATION
#----------   ------------   ------------------------------
 STRT.F           50.0000:   START DEPTH
 STOP.F         4097.5000:   STOP DEPTH
 STEP.F            0.5000:   STEP LENGTH
 NULL.          -999.2500:   NO VALUE
 COMP.   TESORO PETROLEUM:   COMPANY
 WELL. TESORO NPR 3 "DX" #77-29:   WELL
 FLD .        TEAPOT DOME:   FIELD
 LOC .      S29 T39N R78W:   LOCATION
 CNTY.            NATRONA:   COUNTY
 STAT.            WYOMING:   STATE
 CTRY. UNITED STATES OF AMERICA:   COUNTRY
 SRVC.      DRESSER ATLAS:   SERVICE COMPANY
 DATE.        30-JUL-1976:   LOGDATE
 API .     49025102650000:   API NUMBER
~CURVE INFORMATION
#MNEM.UNIT       API CODE    CURVE DESCRIPTION
#----------   ------------   ------------------------------
 DEPT.F                  :   
 CORR.G/C3   45 356 01 00:   DENSITY CORRECTION
 RHOB.G/C3   45 350 01 00:   BULK DENSITY
 CALD.IN     45 280 60 00:   CALIPER FROM DENSITY LOG
 NPHI.DEC    42 890 03 00:   NEUTRON POROSITY SANDSTONE
 GRD .GAPI   45 310 01 00:   GAMMA RAY FROM DENSITY LOG
 SPR .MV     07 010 01 00:   SPONTANEOUS POTENTIAL
 ILD .OHMM   07 120 46 00:   DEEP INDUCTION RESISTIVITY
 SFL .OHMM   07 220 01 00:   SHALLOW FOCUSED LOG RESISTIVITY
 ILM .OHMM   07 120 44 00:   INDUCTION LOG MEDIUM RESISTIVITY
~PARAMETER INFORMATION
#MNEM.UNIT          VALUE    DESCRIPTION
#----------   ------------   ------------------------------
 EKB .F         5084.5000:   Kelly bushing
 EGL .F         5073.0000:   Ground level
 EDF .F         5083.0000:   Drilling floor
 TD  .F         4102.0000:   Total depth
 DATE.        30-JUL-1976:   Date logged
 CLNT.            A2DTECH:   Client Code
 SL  . 660' FSL & 660' FEL:   Surface Location
 PD  .                 GL:   Permanent Datum
 EPD .F              5073:   Elevation Permanent Datum
 LMF .                 KB:   Log Measured From
 DMF .                 KB:   Drilling Measured From
 DD  .F              4102:   Depth driller
 DL  .F              4097:   Depth logger
 BLI .F              4095:   Bottom log interval
 TLI .F               604:   Top log interval
 CS1 .IN            8.625:   Casing size
 CBD1.      8.625" @ 599':   Casing driller 1
 CBL1.F               604:   Casing logger 1
 BS1 .IN            7.875:   Bit size
 DFT .           CHEM/GEL:   Type fluid in hole
 DFD .                9.5:   Density
 DFV .                 46:   Viscosity
 DFPH.                9.8:   pH
 DFL .                6.6:   Fluid loss
 MSS .           FLOWLINE:   Source of sample
 RMS .OHMM           1.48:   Rm
 MST .F                78:   Rm Meas. temp.
 RMF .OHMM           1.07:   Rmf
 MFST.F                78:   Rmf Meas. temp.
 RMC .OHMM           1.57:   Rmc
 MCST.F                78:   Rmc Meas. temp.
 MFSS.               MEAS:   Source Rmf.
 RMB .OHMM            .87:   Rm. at BHT
 BHT .F               132:   BHT.
 TCS .HRS               7:   Time Circ. stopped
 MRT .F               132:   Maximum recorded temp.
 LUN .               6134:   Logging unit number
 LUL .              GLTTE:   Logging unit location
 ENGI.             VAUGHN:   Recorded By
 WITN.               WOLF:   Witnessed by
 ORIG.           5" PRINT:   Origin of data
 UWI .     49025102650000:   Unique Well ID
 DICO. A2D TECHNOLOGIES, INC.:   Digitizing Company
 DAPD.F              11.5:   Feet Above Permanent Datum
 BSD1.F              4102:   Depth drilled with bit1
~OTHER INFORMATION
~A   DEPT     CORR       RHOB       CALD       NPHI        GRD         SPR         ILD        SFL        ILM 
# ...
 1948.0000     0.0000     2.5440     8.2970     0.2650   133.4490   -44.3510     6.4820     7.6680     6.8980
 1948.5000     0.0010     2.5320     8.3040     0.2650   135.6260   -44.1620     6.4890     7.9990     6.9880
 1949.0000     0.0010     2.5320     8.3140     0.2650   138.0640   -43.9720     6.4970     7.9080     7.0310
 1949.5000     0.0020     2.5390     8.3250     0.2640   139.3190   -43.7830     6.5040     7.8100     6.9660
 1950.0000     0.0030     2.5460     8.3360     0.2630   138.0150   -43.5930     6.5120     7.6820     6.9170
 1950.5000     0.0040     2.5490     8.3460     0.2710   136.6790   -43.4050     6.5190     7.5890     6.8680
 1951.0000     0.0010     2.5490     8.3560     0.2730   135.5470   -43.2640     6.5260     7.4970     6.8190
 1951.5000    -0.0010     2.5420     8.3590     0.2720   132.6440   -43.2670     6.5320     7.4310     6.7700
 1952.0000    -0.0040     2.5220     8.3620     0.2710   130.4360   -43.2780     6.4940     7.3330     6.7210
 1952.5000    -0.0060     2.5140     8.3650     0.2710   129.9740   -43.4860     6.4650     7.0960     6.7070
 1953.0000    -0.0080     2.5210     8.3680     0.2710   130.6490   -43.6920     6.4350     7.2160     6.6790
 1953.5000    -0.0110     2.5260     8.3700     0.2680   131.3580   -43.8980     6.4060     7.3980     6.6510
 1954.0000    -0.0110     2.5250     8.3730     0.2640   130.8990   -44.1040     6.3760     7.4990     6.6220
 1954.5000    -0.0080     2.5250     8.3760     0.2690   130.5740   -44.3090     6.3540     7.4990     6.5940
 1955.0000    -0.0050     2.5230     8.3800     0.2720   131.8590   -44.5140     6.3770     7.3580     6.5650
 1955.5000    -0.0030     2.5300     8.3850     0.2680   132.0730   -44.7180     6.3970     6.9670     6.5320
 1956.0000     0.0000     2.5420     8.3890     0.2640   131.2380   -44.9230     6.4160     7.1490     6.5560
 1956.5000     0.0020     2.5420     8.3940     0.2600   131.5120   -45.0140     6.4350     7.3730     6.6160
 1957.0000     0.0040     2.5350     8.3990     0.2560   131.9470   -44.9230     6.4540     7.5970     6.6760
 1957.5000     0.0020     2.5250     8.4040     0.2540   132.2030   -44.8350     6.4730     7.7810     6.7360
 1958.0000     0.0010     2.5180     8.4080     0.2570   132.2790   -44.7460     6.4930     7.5550     6.7960
 1958.5000     0.0000     2.5270     8.4130     0.2640   132.3540   -44.6570     6.5120     7.2950     6.8560
 1959.0000     0.0000     2.5340     8.4120     0.2690   132.4350   -44.5680     6.5320     7.4830     6.9160
 1959.5000     0.0000     2.5420     8.4060     0.2700   132.9000   -44.4810     6.5830     7.6790     6.9750
 1960.0000     0.0000     2.5430     8.3990     0.2730   133.0710   -44.2850     6.6370     7.9260     7.0280
 1960.5000     0.0000     2.5430     8.3930     0.2780   131.8450   -44.0610     6.6910     7.8900     7.0810
 1961.0000     0.0000     2.5490     8.3870     0.2800   131.1010   -43.8740     6.7450     7.8420     7.1350
 1961.5000     0.0000     2.5550     8.3800     0.2740   128.3860   -43.9530     6.7990     7.7810     7.1880
 1962.0000    -0.0010     2.5560     8.3740     0.2710   126.7610   -44.0360     6.8530     7.8460     7.2410
 1962.5000    -0.0020     2.5410     8.3670     0.2690   127.3970   -44.1180     6.9070     7.9370     7.2950
 1963.0000    -0.0040     2.5290     8.3610     0.2710   127.7860   -44.2010     6.9600     8.0280     7.3480
 1963.5000    -0.0050     2.5150     8.3550     0.2730   129.4470   -44.3170     7.0140     8.1480     7.4010
 1964.0000    -0.0070     2.5170     8.3480     0.2710   131.3690   -44.5440     7.0680     8.0050     7.4550
 1964.5000    -0.0080     2.5220     8.3420     0.2680   133.1140   -44.7680     7.1220     7.8530     7.5080
 1965.0000    -0.0050     2.5190     8.3370     0.2690   134.3860   -44.9920     7.1620     8.0870     7.5690
 1965.5000    -0.0040     2.5220     8.3530     0.2700   135.0500   -45.2160     7.1170     8.2990     7.5030
 1966.0000    -0.0050     2.5270     8.3690     0.2720   133.8550   -45.1610     7.0810     8.2640     7.4270
 1966.5000    -0.0070     2.5240     8.3850     0.2770   133.4530   -45.0650     7.0450     8.2220     7.3500
 1967.0000    -0.0090     2.5160     8.4010     0.2760   133.1200   -44.9670     7.0090     8.1810     7.2730
 1967.5000    -0.0110     2.5150     8.4170     0.2680   131.0210   -44.8690     6.9740     8.1390     7.1970
 1968.0000    -0.0130     2.5150     8.4320     0.2610   128.7290   -44.7710     6.9380     8.0980     7.1200
 1968.5000    -0.0150     2.5140     8.4480     0.2560   127.4530   -44.6730     6.9020     7.9960     7.0440
 1969.0000    -0.0170     2.5090     8.4640     0.2560   129.0800   -44.5750     6.8660     7.6240     6.9670
 1969.5000    -0.0180     2.5040     8.4660     0.2600   131.5330   -44.4800     6.8310     7.0960     6.9670
 1970.0000    -0.0200     2.5140     8.4300     0.2610   134.3880   -44.2760     6.7950     7.4810     6.9670
 1970.5000    -0.0170     2.5250     8.3950     0.2620   135.9150   -44.0530     6.7590     8.1400     6.9670
 1971.0000    -0.0150     2.5250     8.3610     0.2690   136.8920   -43.8560     6.7150     8.6900     7.0480
 1971.5000    -0.0120     2.5210     8.3390     0.2730   139.2010   -43.8620     6.7950     8.2120     7.1540
 1972.0000    -0.0120     2.5190     8.3540     0.2740   140.8900   -43.8850     6.9010     7.7810     7.2590
 1972.5000    -0.0120     2.5100     8.3690     0.2710   141.7910   -44.0350     7.0070     7.9720     7.3650
 1973.0000    -0.0120     2.5030     8.3830     0.2670   139.5590   -44.1860     7.1130     8.1480     7.4700
 1973.5000    -0.0100     2.5050     8.3950     0.2640   138.7210   -44.3380     7.2180     8.0620     7.5760
 1974.0000    -0.0050     2.5160     8.3930     0.2630   140.9240   -44.4880     7.3240     7.9260     7.6810
 1974.5000     0.0000     2.5240     8.3900     0.2680   139.2920   -44.6500     7.4300     8.6900     7.7870
 1975.0000     0.0040     2.5340     8.3880     0.2660   134.8760   -44.9790     7.5360     8.6720     7.8920
 1975.5000     0.0040     2.5430     8.3850     0.2650   133.0850   -45.3470     7.6410     8.6450     7.9980
 1976.0000     0.0040     2.5480     8.3820     0.2680   131.0640   -45.4220     7.7810     8.6190     8.0730
 1976.5000     0.0040     2.5380     8.3800     0.2700   128.5360   -45.3990     7.7600     8.5930     8.0250
 1977.0000     0.0040     2.5310     8.3770     0.2670   128.0810   -45.3740     7.7300     8.5670     7.9870
 1977.5000     0.0040     2.5270     8.3740     0.2650   132.1700   -45.3480     7.7000     8.5320     7.9490
 1978.0000     0.0040     2.5260     8.3710     0.2680   134.6530   -45.3210     7.6690     8.6140     7.9120
 1978.5000     0.0040     2.5340     8.3680     0.2710   135.0320   -45.2940     7.6390     8.7380     7.8740
 1979.0000     0.0040     2.5410     8.3650     0.2680   135.0100   -45.2670     7.6080     8.9340     7.8530
 1979.5000     0.0040     2.5480     8.3620     0.2670   132.8910   -45.2170     7.5780     8.7680     7.8610
 1980.0000     0.0040     2.5480     8.3590     0.2700   130.5330   -45.0750     7.5480     8.3830     7.8680
 1980.5000     0.0040     2.5410     8.3560     0.2730   130.5130   -44.9340     7.4990     7.9980     7.8750
 1981.0000     0.0020     2.5330     8.3560     0.2810   130.5340   -44.7940     7.5100     7.9260     7.8810
 1981.5000     0.0010     2.5320     8.3560     0.2830   129.7580   -44.6600     7.5350     8.3100     7.8880
 1982.0000     0.0000     2.5270     8.3560     0.2840   132.0010   -44.6940     7.5610     8.8520     7.8950
 1982.5000    -0.0010     2.5220     8.3560     0.2820   134.1440   -44.7350     7.5860     8.7800     7.9010
 1983.0000    -0.0020     2.5180     8.3560     0.2810   133.2010   -44.7760     7.6110     8.8640     7.9080
 1983.5000    -0.0040     2.5240     8.3560     0.2850   134.8380   -44.8180     7.6370     8.9340     7.9150
 1984.0000    -0.0040     2.5260     8.3560     0.2840   136.4460   -44.8910     7.6620     8.6590     7.9210
