~VERSION INFORMATION
 VERS.                2.0:   CWLS LOG ASCII STANDARD - VERSION 2.0
 WRAP.                 NO:   ONE LINE PER DEPTH STEP
~WELL INFORMATION
#MNEM.UNIT      DATA TYPE    INFORMATION
#----------   ------------   ------------------------------
 STRT.F           50.0000:   START DEPTH
 STOP.F         4097.5000:   STOP DEPTH
 STEP.F            0.5000:   STEP LENGTH
 NULL.          -999.2500:   NO VALUE
 COMP.   TESORO PETROLEUM:   COMPANY
 WELL. TESORO NPR 3 "DX" #77-29:   WELL
 FLD .        TEAPOT DOME:   FIELD
 LOC .      S29 T39N R78W:   LOCATION
 CNTY.            NATRONA:   COUNTY
 STAT.            WYOMING:   STATE
 CTRY. UNITED STATES OF AMERICA:   COUNTRY
 SRVC.      DRESSER ATLAS:   SERVICE COMPANY
 DATE.        30-JUL-1976:   LOGDATE
 API .     49025102650000:   API NUMBER
~CURVE INFORMATION
#MNEM.UNIT       API CODE    CURVE DESCRIPTION
#----------   ------------   ------------------------------
 DEPT.F                  :   
 CORR.G/C3   45 356 01 00:   DENSITY CORRECTION
 RHOB.G/C3   45 350 01 00:   BULK DENSITY
 CALD.IN     45 280 60 00:   CALIPER FROM DENSITY LOG
 NPHI.DEC    42 890 03 00:   NEUTRON POROSITY SANDSTONE
 GRD .GAPI   45 310 01 00:   GAMMA RAY FROM DENSITY LOG
 SPR .MV     07 010 01 00:   SPONTANEOUS POTENTIAL
 ILD .OHMM   07 120 46 00:   DEEP INDUCTION RESISTIVITY
 SFL .OHMM   07 220 01 00:   SHALLOW FOCUSED LOG RESISTIVITY
 ILM .OHMM   07 120 44 00:   INDUCTION LOG MEDIUM RESISTIVITY
~PARAMETER INFORMATION
#MNEM.UNIT          VALUE    DESCRIPTION
#----------   ------------   ------------------------------
 EKB .F         5084.5000:   Kelly bushing
 EGL .F         5073.0000:   Ground level
 EDF .F         5083.0000:   Drilling floor
 TD  .F         4102.0000:   Total depth
 DATE.        30-JUL-1976:   Date logged
 CLNT.            A2DTECH:   Client Code
 SL  . 660' FSL & 660' FEL:   Surface Location
 PD  .                 GL:   Permanent Datum
 EPD .F              5073:   Elevation Permanent Datum
 LMF .                 KB:   Log Measured From
 DMF .                 KB:   Drilling Measured From
 DD  .F              4102:   Depth driller
 DL  .F              4097:   Depth logger
 BLI .F              4095:   Bottom log interval
 TLI .F               604:   Top log interval
 CS1 .IN            8.625:   Casing size
 CBD1.      8.625" @ 599':   Casing driller 1
 CBL1.F               604:   Casing logger 1
 BS1 .IN            7.875:   Bit size
 DFT .           CHEM/GEL:   Type fluid in hole
 DFD .                9.5:   Density
 DFV .                 46:   Viscosity
 DFPH.                9.8:   pH
 DFL .                6.6:   Fluid loss
 MSS .           FLOWLINE:   Source of sample
 RMS .OHMM           1.48:   Rm
 MST .F                78:   Rm Meas. temp.
 RMF .OHMM           1.07:   Rmf
 MFST.F                78:   Rmf Meas. temp.
 RMC .OHMM           1.57:   Rmc
 MCST.F                78:   Rmc Meas. temp.
 MFSS.               MEAS:   Source Rmf.
 RMB .OHMM            .87:   Rm. at BHT
 BHT .F               132:   BHT.
 TCS .HRS               7:   Time Circ. stopped
 MRT .F               132:   Maximum recorded temp.
 LUN .               6134:   Logging unit number
 LUL .              GLTTE:   Logging unit location
 ENGI.             VAUGHN:   Recorded By
 WITN.               WOLF:   Witnessed by
 ORIG.           5" PRINT:   Origin of data
 UWI .     49025102650000:   Unique Well ID
 DICO. A2D TECHNOLOGIES, INC.:   Digitizing Company
 DAPD.F              11.5:   Feet Above Permanent Datum
 BSD1.F              4102:   Depth drilled with bit1
~OTHER INFORMATION
~A   DEPT     CORR       RHOB       CALD       NPHI        GRD         SPR         ILD        SFL        ILM 
# ...
 1035.5000     0.0150     2.5680     9.2560     0.2410   105.6500   -47.3080     7.0370     7.6440     7.2600
 1036.0000     0.0190     2.5630     9.2650     0.2410   105.8530   -47.0270     7.0390     7.5820     7.1810
 1036.5000     0.0240     2.5730     9.2740     0.2430   105.5650   -46.7430     7.0410     7.5200     7.1510
 1037.0000     0.0280     2.5910     9.2820     0.2430   103.5660   -46.6370     7.0430     7.4590     7.1360
 1037.5000     0.0310     2.5860     9.2910     0.2410   103.4550   -46.6370     7.0450     7.3970     7.1210
 1038.0000     0.0260     2.5780     9.2990     0.2380   105.7650   -46.7500     7.0470     7.3350     7.1060
 1038.5000     0.0230     2.5690     9.3080     0.2380   107.7380   -47.0480     7.0490     7.2950     7.0960
 1039.0000     0.0170     2.5610     9.3030     0.2410   108.8350   -47.3430     7.0510     7.3190     7.1370
 1039.5000     0.0210     2.5630     9.2940     0.2440   108.1740   -47.6380     7.0530     7.3370     7.1670
 1040.0000     0.0320     2.5670     9.2840     0.2460   107.9930   -47.9330     7.0550     7.3550     7.1970
 1040.5000     0.0390     2.5720     9.2740     0.2490   107.9840   -48.2270     7.0570     7.3730     7.2270
 1041.0000     0.0380     2.5720     9.2460     0.2490   107.2330   -48.3590     7.0590     7.3900     7.2570
 1041.5000     0.0380     2.5710     9.2100     0.2480   105.6400   -48.1930     7.0610     7.4080     7.2950
 1042.0000     0.0360     2.5710     9.1740     0.2500   105.4630   -48.0320     7.0630     7.4310     7.2650
 1042.5000     0.0400     2.5600     9.1380     0.2510   104.6540   -47.8710     7.0650     7.4050     7.2230
 1043.0000     0.0500     2.5650     9.1150     0.2490   106.6830   -47.7100     7.0680     7.3570     7.1820
 1043.5000     0.0580     2.5770     9.1300     0.2490   108.8360   -47.5490     7.0700     7.3080     7.1410
 1044.0000     0.0670     2.5890     9.0960     0.2470   110.9940   -47.3870     7.0720     7.2280     7.0960
 1044.5000     0.0580     2.5850     9.0610     0.2480   113.1290   -47.2260     7.0740     7.2800     7.2080
 1045.0000     0.0460     2.5890     9.0700     0.2500   113.0450   -47.0650     7.0760     7.3200     7.3630
 1045.5000     0.0360     2.5960     9.0970     0.2540   112.2640   -46.9040     7.0780     7.3630     7.3430
 1046.0000     0.0300     2.5880     9.1140     0.2580   110.7520   -46.7450     7.0800     7.3150     7.3160
 1046.5000     0.0250     2.5800     9.1250     0.2600   110.8900   -46.6580     7.0820     7.2640     7.2900
 1047.0000     0.0190     2.5710     9.1370     0.2610   109.8710   -46.7530     7.0840     7.2280     7.2630
 1047.5000     0.0140     2.5680     9.1480     0.2640   109.3210   -46.8430     7.0860     7.2190     7.2360
 1048.0000     0.0150     2.5680     9.1530     0.2650   110.4880   -46.9320     7.0880     7.2090     7.2210
 1048.5000     0.0200     2.5760     9.1560     0.2650   110.1470   -47.0220     7.0900     7.1990     7.2090
 1049.0000     0.0240     2.5790     9.1600     0.2640   108.7960   -47.1120     7.0920     7.1890     7.1960
 1049.5000     0.0240     2.5750     9.1630     0.2630   109.8650   -47.1990     7.0940     7.1790     7.1840
 1050.0000     0.0240     2.5750     9.1660     0.2570   109.8280   -47.4380     7.0970     7.1690     7.1710
 1050.5000     0.0240     2.5750     9.1690     0.2580   109.3320   -47.7330     7.0570     7.1620     7.1620
 1051.0000     0.0240     2.5710     9.1720     0.2610   109.8740   -48.0300     7.0210     7.1620     7.1280
 1051.5000     0.0240     2.5640     9.1750     0.2600   110.6750   -48.3390     6.9850     7.1620     7.0960
 1052.0000     0.0240     2.5590     9.1790     0.2560   111.6230   -48.2450     6.9490     7.1620     7.0650
 1052.5000     0.0240     2.5660     9.1820     0.2540   111.2110   -48.0140     6.9030     7.1620     7.0310
 1053.0000     0.0250     2.5700     9.1850     0.2590   110.0560   -47.7800     6.9270     7.2360     7.1250
 1053.5000     0.0260     2.5710     9.1880     0.2580   107.9730   -47.5450     6.9600     7.3390     7.2950
 1054.0000     0.0270     2.5730     9.1910     0.2560   105.0390   -47.4270     6.9930     7.4310     7.2660
 1054.5000     0.0280     2.5750     9.1940     0.2570   103.2440   -47.4270     7.0270     7.4280     7.2110
 1055.0000     0.0290     2.5820     9.1980     0.2540   102.6920   -47.4250     7.0600     7.4250     7.1620
 1055.5000     0.0300     2.5810     9.2010     0.2510   102.2200   -47.4220     7.0960     7.4210     7.1650
 1056.0000     0.0310     2.5840     9.2040     0.2480   101.4760   -47.3530     7.0960     7.4170     7.1690
 1056.5000     0.0310     2.5960     9.2070     0.2420   100.1500   -47.0760     7.0960     7.4140     7.1720
 1057.0000     0.0330     2.6010     9.2100     0.2400    98.0110   -46.8390     7.0960     7.4100     7.1750
 1057.5000     0.0330     2.6010     9.2180     0.2400    99.9950   -46.9140     7.0960     7.4070     7.1780
 1058.0000     0.0340     2.5980     9.2270     0.2390   101.8300   -46.9920     7.0960     7.4030     7.1810
 1058.5000     0.0360     2.5900     9.2360     0.2350   103.7200   -47.0680     7.0960     7.3990     7.1840
 1059.0000     0.0320     2.5830     9.2440     0.2380   105.2600   -47.1440     7.0960     7.3960     7.1870
 1059.5000     0.0240     2.5760     9.2530     0.2460   105.4420   -47.2280     7.0960     7.3920     7.1900
 1060.0000     0.0160     2.5730     9.2620     0.2440   105.4570   -47.5120     7.0960     7.3890     7.1940
 1060.5000     0.0080     2.5700     9.2690     0.2410   106.1060   -47.8260     7.0960     7.3850     7.1970
 1061.0000     0.0000     2.5670     9.2200     0.2420   107.7080   -48.1390     7.0960     7.3810     7.2000
 1061.5000    -0.0010     2.5620     9.1710     0.2440   109.2120   -48.4550     7.0960     7.3780     7.2030
 1062.0000    -0.0030     2.5520     9.1650     0.2440   108.3160   -48.5710     7.0960     7.3740     7.2060
 1062.5000    -0.0040     2.5530     9.2890     0.2530   107.6490   -48.4890     7.0960     7.3710     7.2090
 1063.0000    -0.0040     2.5620     9.2900     0.2550   108.9470   -48.3940     7.0960     7.3670     7.2120
 1063.5000    -0.0010     2.5550     9.2920     0.2530   110.1580   -47.9840     7.0960     7.3630     7.2160
 1064.0000     0.0050     2.5500     9.2990     0.2530   110.3250   -47.6220     7.0960     7.3650     7.2190
 1064.5000     0.0110     2.5520     9.3060     0.2430   111.6410   -47.4730     7.0960     7.3680     7.2220
 1065.0000     0.0160     2.5590     9.3130     0.2400   111.9270   -47.3350     7.0960     7.3710     7.2250
 1065.5000     0.0220     2.5720     9.3200     0.2370   112.4920   -47.1980     7.0960     7.3740     7.2280
 1066.0000     0.0270     2.5860     9.3270     0.2430   114.1580   -47.0600     7.0960     7.3770     7.2280
 1066.5000     0.0260     2.5970     9.3200     0.2480   115.2930   -46.9220     7.0960     7.3800     7.2280
 1067.0000     0.0240     2.6040     9.3040     0.2450   113.6400   -46.7840     7.0960     7.3830     7.2280
 1067.5000     0.0220     2.5950     9.2870     0.2440   112.4340   -46.6440     7.0960     7.3860     7.2280
 1068.0000     0.0200     2.5850     9.2720     0.2430   113.3310   -46.7800     7.0960     7.3890     7.2280
 1068.5000     0.0190     2.5740     9.3240     0.2410   111.2520   -46.9410     7.0960     7.3920     7.2280
 1069.0000     0.0170     2.5640     9.3480     0.2440   110.4680   -47.1030     7.0960     7.3950     7.2280
 1069.5000     0.0150     2.5540     9.3440     0.2430   112.0760   -47.2640     7.0960     7.3980     7.2280
 1070.0000     0.0130     2.5510     9.3410     0.2410   112.2810   -47.4260     7.0960     7.4010     7.2280
 1070.5000     0.0130     2.5500     9.3380     0.2400   112.2690   -47.5870     7.0960     7.4040     7.2280
 1071.0000     0.0170     2.5550     9.3340     0.2390   112.1570   -47.7490     7.0960     7.4070     7.2280
 1071.5000     0.0210     2.5560     9.3320     0.2420   111.0570   -47.9110     7.0960     7.4100     7.2280
