~VERSION INFORMATION
 VERS.                2.0:   CWLS LOG ASCII STANDARD - VERSION 2.0
 WRAP.                 NO:   ONE LINE PER DEPTH STEP
~WELL INFORMATION
#MNEM.UNIT      DATA TYPE    INFORMATION
#----------   ------------   ------------------------------
 STRT.F           50.0000:   START DEPTH
 STOP.F         4097.5000:   STOP DEPTH
 STEP.F            0.5000:   STEP LENGTH
 NULL.          -999.2500:   NO VALUE
 COMP.   TESORO PETROLEUM:   COMPANY
 WELL. TESORO NPR 3 "DX" #77-29:   WELL
 FLD .        TEAPOT DOME:   FIELD
 LOC .      S29 T39N R78W:   LOCATION
 CNTY.            NATRONA:   COUNTY
 STAT.            WYOMING:   STATE
 CTRY. UNITED STATES OF AMERICA:   COUNTRY
 SRVC.      DRESSER ATLAS:   SERVICE COMPANY
 DATE.        30-JUL-1976:   LOGDATE
 API .     49025102650000:   API NUMBER
~CURVE INFORMATION
#MNEM.UNIT       API CODE    CURVE DESCRIPTION
#----------   ------------   ------------------------------
 DEPT.F                  :   
 CORR.G/C3   45 356 01 00:   DENSITY CORRECTION
 RHOB.G/C3   45 350 01 00:   BULK DENSITY
 CALD.IN     45 280 60 00:   CALIPER FROM DENSITY LOG
 NPHI.DEC    42 890 03 00:   NEUTRON POROSITY SANDSTONE
 GRD .GAPI   45 310 01 00:   GAMMA RAY FROM DENSITY LOG
 SPR .MV     07 010 01 00:   SPONTANEOUS POTENTIAL
 ILD .OHMM   07 120 46 00:   DEEP INDUCTION RESISTIVITY
 SFL .OHMM   07 220 01 00:   SHALLOW FOCUSED LOG RESISTIVITY
 ILM .OHMM   07 120 44 00:   INDUCTION LOG MEDIUM RESISTIVITY
~PARAMETER INFORMATION
#MNEM.UNIT          VALUE    DESCRIPTION
#----------   ------------   ------------------------------
 EKB .F         5084.5000:   Kelly bushing
 EGL .F         5073.0000:   Ground level
 EDF .F         5083.0000:   Drilling floor
 TD  .F         4102.0000:   Total depth
 DATE.        30-JUL-1976:   Date logged
 CLNT.            A2DTECH:   Client Code
 SL  . 660' FSL & 660' FEL:   Surface Location
 PD  .                 GL:   Permanent Datum
 EPD .F              5073:   Elevation Permanent Datum
 LMF .                 KB:   Log Measured From
 DMF .                 KB:   Drilling Measured From
 DD  .F              4102:   Depth driller
 DL  .F              4097:   Depth logger
 BLI .F              4095:   Bottom log interval
 TLI .F               604:   Top log interval
 CS1 .IN            8.625:   Casing size
 CBD1.      8.625" @ 599':   Casing driller 1
 CBL1.F               604:   Casing logger 1
 BS1 .IN            7.875:   Bit size
 DFT .           CHEM/GEL:   Type fluid in hole
 DFD .                9.5:   Density
 DFV .                 46:   Viscosity
 DFPH.                9.8:   pH
 DFL .                6.6:   Fluid loss
 MSS .           FLOWLINE:   Source of sample
 RMS .OHMM           1.48:   Rm
 MST .F                78:   Rm Meas. temp.
 RMF .OHMM           1.07:   Rmf
 MFST.F                78:   Rmf Meas. temp.
 RMC .OHMM           1.57:   Rmc
 MCST.F                78:   Rmc Meas. temp.
 MFSS.               MEAS:   Source Rmf.
 RMB .OHMM            .87:   Rm. at BHT
 BHT .F               132:   BHT.
 TCS .HRS               7:   Time Circ. stopped
 MRT .F               132:   Maximum recorded temp.
 LUN .               6134:   Logging unit number
 LUL .              GLTTE:   Logging unit location
 ENGI.             VAUGHN:   Recorded By
 WITN.               WOLF:   Witnessed by
 ORIG.           5" PRINT:   Origin of data
 UWI .     49025102650000:   Unique Well ID
 DICO. A2D TECHNOLOGIES, INC.:   Digitizing Company
 DAPD.F              11.5:   Feet Above Permanent Datum
 BSD1.F              4102:   Depth drilled with bit1
~OTHER INFORMATION
~A   DEPT     CORR       RHOB       CALD       NPHI        GRD         SPR         ILD        SFL        ILM 
# ...
 3371.5000     0.0230     2.5330     8.0220     0.2450   143.8820   -42.1740     3.1170     4.5590     3.4500
 3372.0000     0.0200     2.5350     8.0210     0.2400   143.7690   -41.7850     3.0130     4.6030     3.3040
 3372.5000     0.0160     2.5380     8.0190     0.2360   143.6800   -42.0230     2.9550     4.3460     3.2440
 3373.0000     0.0120     2.5400     8.0180     0.2380   143.2890   -41.7550     2.9110     4.1590     3.2140
 3373.5000     0.0070     2.5430     8.0190     0.2400   139.5160   -41.7330     2.8780     4.4720     3.2540
 3374.0000     0.0020     2.5450     8.0200     0.2380   135.4870   -41.8030     2.9440     4.8200     3.3430
 3374.5000     0.0010     2.5400     8.0210     0.2290   135.8140   -41.8750     2.9970     4.7240     3.4320
 3375.0000     0.0030     2.5410     8.0220     0.2180   136.3100   -41.9480     3.0510     4.6080     3.5200
 3375.5000     0.0050     2.5460     8.0230     0.2110   136.3430   -42.0220     3.1040     4.5610     3.6200
 3376.0000     0.0070     2.5550     8.0240     0.2060   134.0700   -42.1540     3.2310     4.8910     3.7260
 3376.5000     0.0080     2.5640     8.0250     0.2010   132.8070   -42.5810     3.4110     5.2360     3.8770
 3377.0000     0.0080     2.5660     8.0270     0.1960   132.0870   -43.0100     3.5900     5.1740     4.1060
 3377.5000     0.0070     2.5630     8.0280     0.1930   129.9920   -43.4400     3.7700     5.0910     4.3350
 3378.0000     0.0070     2.5610     8.0290     0.1910   130.0950   -43.3080     3.9500     5.0010     4.5640
 3378.5000     0.0070     2.5650     8.0300     0.1910   133.2760   -43.1380     4.1300     5.5360     4.7930
 3379.0000     0.0070     2.5710     8.0310     0.1920   133.1940   -42.9680     4.3100     6.0830     5.0090
 3379.5000     0.0060     2.5770     8.0320     0.1930   130.2490   -42.8000     4.4900     6.1330     5.1950
 3380.0000     0.0060     2.5780     8.0330     0.1920   129.7760   -42.6640     4.6700     6.1810     5.4830
 3380.5000     0.0060     2.5770     8.0340     0.1930   130.2470   -42.6390     4.7610     6.1080     5.4760
 3381.0000     0.0060     2.5760     8.0350     0.1920   128.0900   -42.6120     4.8050     6.0390     5.4590
 3381.5000     0.0050     2.5740     8.0360     0.1910   125.8980   -42.5850     4.8490     5.9570     5.4430
 3382.0000     0.0050     2.5690     8.0370     0.1900   127.5900   -42.5580     4.8930     5.9680     5.4260
 3382.5000     0.0050     2.5680     8.0390     0.1940   128.0010   -42.5310     4.9550     5.9810     5.4100
 3383.0000     0.0040     2.5800     8.0400     0.1980   127.9210   -42.5030     4.9310     5.9930     5.3930
 3383.5000     0.0040     2.5800     8.0410     0.1960   126.3040   -42.4770     4.8670     6.0120     5.3610
 3384.0000     0.0040     2.5710     8.0420     0.1930   127.4290   -42.4750     4.8040     5.8790     5.2850
 3384.5000     0.0030     2.5700     8.0430     0.1960   131.1860   -42.4760     4.7400     5.6400     5.2270
 3385.0000     0.0020     2.5800     8.0440     0.2000   134.8630   -42.5000     4.6760     5.4010     5.1480
 3385.5000     0.0010     2.5840     8.0450     0.1990   137.1730   -42.6830     4.6150     5.2850     5.0700
 3386.0000     0.0010     2.5790     8.0460     0.2000   136.7780   -42.8700     4.5550     5.9570     4.9800
 3386.5000     0.0000     2.5740     8.0470     0.2050   137.1840   -43.0560     4.4940     5.9570     4.8840
 3387.0000    -0.0010     2.5640     8.0480     0.2130   138.2000   -43.2400     4.4340     5.6380     4.7880
 3387.5000    -0.0020     2.5540     8.0490     0.2190   140.0980   -43.2040     4.3740     5.3370     4.6920
 3388.0000    -0.0030     2.5560     8.0500     0.2220   140.5740   -43.1340     4.3140     5.0470     4.5960
 3388.5000    -0.0030     2.5680     8.0520     0.2260   141.1510   -43.0630     4.2540     5.0840     4.5420
 3389.0000    -0.0040     2.5760     8.0530     0.2290   143.2020   -42.9910     4.1940     5.1280     4.5130
 3389.5000    -0.0020     2.5700     8.0540     0.2310   144.7710   -42.9200     4.1340     5.1730     4.4840
 3390.0000    -0.0010     2.5670     8.0550     0.2260   146.1590   -42.8480     4.0830     5.2360     4.4550
 3390.5000     0.0000     2.5600     8.0560     0.2230   148.4420   -42.7760     4.0830     5.2070     4.4260
 3391.0000     0.0010     2.5610     8.0570     0.2200   149.9900   -42.7050     4.0460     5.1300     4.3960
 3391.5000     0.0020     2.5670     8.0580     0.2210   148.6190   -42.5760     4.0460     5.0010     4.4120
 3392.0000     0.0040     2.5710     8.0590     0.2210   149.5540   -42.4000     4.0510     5.0470     4.4340
 3392.5000     0.0050     2.5760     8.0600     0.2200   149.1070   -42.2750     4.0580     5.1410     4.4560
 3393.0000     0.0060     2.5690     8.0620     0.2190   146.4430   -42.2770     4.0650     5.0940     4.4780
 3393.5000     0.0070     2.5660     8.0630     0.2170   143.1000   -42.2770     4.0720     5.0470     4.5000
 3394.0000     0.0080     2.5660     8.0640     0.2160   141.7350   -42.2810     4.0790     5.1880     4.5220
 3394.5000     0.0100     2.5690     8.0650     0.2150   140.7950   -42.3430     4.0860     5.1310     4.5440
 3395.0000     0.0110     2.5780     8.0660     0.2160   139.8510   -42.4020     4.0930     5.0940     4.5610
 3395.5000     0.0120     2.5880     8.0670     0.2170   140.0640   -42.4570     4.1000     5.1910     4.5990
 3396.0000     0.0130     2.5830     8.0690     0.2130   137.1270   -42.7480     4.1070     5.2700     4.6450
 3396.5000     0.0140     2.5700     8.0700     0.2180   135.9410   -43.0550     4.1140     5.2850     4.6900
 3397.0000     0.0140     2.5740     8.0710     0.2200   138.1050   -42.9900     4.1210     5.3430     4.7360
 3397.5000     0.0160     2.5870     8.0720     0.2160   139.9860   -42.9090     4.1710     5.4330     4.7810
 3398.0000     0.0110     2.5880     8.0730     0.2130   142.4610   -42.8280     4.2210     5.3340     4.8200
 3398.5000     0.0020     2.5820     8.0750     0.2190   145.7690   -42.7470     4.2710     5.4160     4.8030
 3399.0000    -0.0040     2.5780     8.0760     0.2250   147.4650   -42.6670     4.3210     5.5650     4.7880
 3399.5000     0.0000     2.5740     8.0770     0.2280   144.9870   -42.5860     4.3960     5.6370     4.7760
 3400.0000     0.0040     2.5790     8.0810     0.2310   144.2560   -42.5060     4.3820     5.4830     4.7840
 3400.5000     0.0070     2.5860     8.0870     0.2350   144.6360   -42.4260     4.3560     5.3660     4.7960
 3401.0000     0.0110     2.5900     8.0940     0.2380   147.6000   -42.3450     4.3290     5.2490     4.8090
 3401.5000     0.0150     2.5870     8.1010     0.2410   151.1710   -42.2650     4.2750     5.1410     4.8200
 3402.0000     0.0140     2.5770     8.1070     0.2440   153.9160   -42.1840     4.1890     5.4300     4.7150
 3402.5000     0.0100     2.5630     8.1140     0.2470   153.2000   -42.1040     4.1040     5.7420     4.5950
 3403.0000     0.0060     2.5500     8.1200     0.2510   150.3380   -42.0240     4.0190     5.6890     4.4740
 3403.5000     0.0070     2.5510     8.1270     0.2540   150.7300   -41.9470     3.9360     5.4680     4.3540
 3404.0000     0.0180     2.5590     8.1330     0.2520   152.3890   -41.9480     3.8580     4.9610     4.2330
 3404.5000     0.0140     2.5670     8.1400     0.2500   153.4870   -42.2610     3.7630     4.5610     4.1130
 3405.0000     0.0060     2.5700     8.1470     0.2510   153.7010   -42.5690     3.6690     5.1410     3.9920
 3405.5000     0.0040     2.5600     8.1530     0.2480   153.5410   -42.8610     3.5750     5.0600     3.8710
 3406.0000     0.0040     2.5500     8.1600     0.2450   152.4380   -42.8720     3.4810     4.8550     3.7510
 3406.5000     0.0050     2.5460     8.1660     0.2420   149.2620   -42.8720     3.4600     4.6490     3.7240
 3407.0000     0.0050     2.5500     8.1730     0.2390   146.4570   -42.8660     3.4600     4.5320     3.7990
 3407.5000     0.0050     2.5490     8.1790     0.2380   144.9220   -42.7240     3.4600     4.6790     3.9320
