~VERSION INFORMATION
 VERS.                2.0:   CWLS LOG ASCII STANDARD - VERSION 2.0
 WRAP.                 NO:   ONE LINE PER DEPTH STEP
~WELL INFORMATION
#MNEM.UNIT      DATA TYPE    INFORMATION
#----------   ------------   ------------------------------
 STRT.F           50.0000:   START DEPTH
 STOP.F         4097.5000:   STOP DEPTH
 STEP.F            0.5000:   STEP LENGTH
 NULL.          -999.2500:   NO VALUE
 COMP.   TESORO PETROLEUM:   COMPANY
 WELL. TESORO NPR 3 "DX" #77-29:   WELL
 FLD .        TEAPOT DOME:   FIELD
 LOC .      S29 T39N R78W:   LOCATION
 CNTY.            NATRONA:   COUNTY
 STAT.            WYOMING:   STATE
 CTRY. UNITED STATES OF AMERICA:   COUNTRY
 SRVC.      DRESSER ATLAS:   SERVICE COMPANY
 DATE.        30-JUL-1976:   LOGDATE
 API .     49025102650000:   API NUMBER
~CURVE INFORMATION
#MNEM.UNIT       API CODE    CURVE DESCRIPTION
#----------   ------------   ------------------------------
 DEPT.F                  :   
 CORR.G/C3   45 356 01 00:   DENSITY CORRECTION
 RHOB.G/C3   45 350 01 00:   BULK DENSITY
 CALD.IN     45 280 60 00:   CALIPER FROM DENSITY LOG
 NPHI.DEC    42 890 03 00:   NEUTRON POROSITY SANDSTONE
 GRD .GAPI   45 310 01 00:   GAMMA RAY FROM DENSITY LOG
 SPR .MV     07 010 01 00:   SPONTANEOUS POTENTIAL
 ILD .OHMM   07 120 46 00:   DEEP INDUCTION RESISTIVITY
 SFL .OHMM   07 220 01 00:   SHALLOW FOCUSED LOG RESISTIVITY
 ILM .OHMM   07 120 44 00:   INDUCTION LOG MEDIUM RESISTIVITY
~PARAMETER INFORMATION
#MNEM.UNIT          VALUE    DESCRIPTION
#----------   ------------   ------------------------------
 EKB .F         5084.5000:   Kelly bushing
 EGL .F         5073.0000:   Ground level
 EDF .F         5083.0000:   Drilling floor
 TD  .F         4102.0000:   Total depth
 DATE.        30-JUL-1976:   Date logged
 CLNT.            A2DTECH:   Client Code
 SL  . 660' FSL & 660' FEL:   Surface Location
 PD  .                 GL:   Permanent Datum
 EPD .F              5073:   Elevation Permanent Datum
 LMF .                 KB:   Log Measured From
 DMF .                 KB:   Drilling Measured From
 DD  .F              4102:   Depth driller
 DL  .F              4097:   Depth logger
 BLI .F              4095:   Bottom log interval
 TLI .F               604:   Top log interval
 CS1 .IN            8.625:   Casing size
 CBD1.      8.625" @ 599':   Casing driller 1
 CBL1.F               604:   Casing logger 1
 BS1 .IN            7.875:   Bit size
 DFT .           CHEM/GEL:   Type fluid in hole
 DFD .                9.5:   Density
 DFV .                 46:   Viscosity
 DFPH.                9.8:   pH
 DFL .                6.6:   Fluid loss
 MSS .           FLOWLINE:   Source of sample
 RMS .OHMM           1.48:   Rm
 MST .F                78:   Rm Meas. temp.
 RMF .OHMM           1.07:   Rmf
 MFST.F                78:   Rmf Meas. temp.
 RMC .OHMM           1.57:   Rmc
 MCST.F                78:   Rmc Meas. temp.
 MFSS.               MEAS:   Source Rmf.
 RMB .OHMM            .87:   Rm. at BHT
 BHT .F               132:   BHT.
 TCS .HRS               7:   Time Circ. stopped
 MRT .F               132:   Maximum recorded temp.
 LUN .               6134:   Logging unit number
 LUL .              GLTTE:   Logging unit location
 ENGI.             VAUGHN:   Recorded By
 WITN.               WOLF:   Witnessed by
 ORIG.           5" PRINT:   Origin of data
 UWI .     49025102650000:   Unique Well ID
 DICO. A2D TECHNOLOGIES, INC.:   Digitizing Company
 DAPD.F              11.5:   Feet Above Permanent Datum
 BSD1.F              4102:   Depth drilled with bit1
~OTHER INFORMATION
~A   DEPT     CORR       RHOB       CALD       NPHI        GRD         SPR         ILD        SFL        ILM 
# ...
 1254.5000     0.0390     2.6100     8.8860     0.2380   103.2540   -46.8280     7.9820     7.9920     7.6390
 1255.0000     0.0370     2.6060     8.8810     0.2340   102.9810   -46.9340     7.8870     7.9810     7.6390
 1255.5000     0.0340     2.6010     8.8750     0.2310   104.3350   -47.0420     7.7610     7.9710     7.6390
 1256.0000     0.0320     2.6040     8.8680     0.2330   104.0070   -47.2880     7.6340     7.9600     7.6390
 1256.5000     0.0330     2.6060     8.8610     0.2370   101.8710   -47.5250     7.5080     7.9500     7.6390
 1257.0000     0.0340     2.6110     8.8540     0.2390   100.6670   -47.7620     7.3810     7.9390     7.6390
 1257.5000     0.0360     2.6000     8.8460     0.2340   101.7060   -48.0050     7.2550     7.9290     7.6390
 1258.0000     0.0330     2.5900     8.8390     0.2360   103.5730   -47.9230     7.1510     7.8280     7.4870
 1258.5000     0.0260     2.5840     8.8320     0.2390   105.7300   -47.8170     7.1120     7.6830     7.3920
 1259.0000     0.0210     2.5700     8.8250     0.2390   106.0640   -47.7090     7.0730     7.5380     7.2980
 1259.5000     0.0150     2.5640     8.8170     0.2390   105.4410   -47.6020     7.0340     7.4310     7.2040
 1260.0000     0.0080     2.5610     8.8130     0.2390   104.8020   -47.4950     6.9950     7.4990     7.1100
 1260.5000     0.0030     2.5600     8.8100     0.2390   104.1260   -47.3870     6.9550     7.4310     7.0960
 1261.0000     0.0080     2.5570     8.8020     0.2400   102.6670   -47.2800     6.9160     7.3500     7.1070
 1261.5000     0.0150     2.5600     8.7940     0.2450   103.6650   -47.0620     6.8770     7.2700     7.1160
 1262.0000     0.0210     2.5690     8.7860     0.2420   103.3070   -46.7330     6.8380     7.1620     7.1240
 1262.5000     0.0280     2.5730     8.7780     0.2360   104.5130   -46.4040     6.7980     7.2570     7.1330
 1263.0000     0.0350     2.5760     8.7750     0.2330   106.7330   -46.2390     6.7770     7.4990     7.1420
 1263.5000     0.0290     2.5770     8.7800     0.2340   107.8280   -46.2390     6.8510     7.3740     7.1500
 1264.0000     0.0210     2.5720     8.7850     0.2380   106.5040   -46.2380     6.9100     7.2280     7.1620
 1264.5000     0.0130     2.5600     8.7900     0.2430   105.3980   -46.2460     6.9670     7.2470     7.1440
 1265.0000     0.0040     2.5600     8.7950     0.2440   105.4390   -46.3920     6.9290     7.2620     7.1160
 1265.5000     0.0000     2.5590     8.8000     0.2430   105.1110   -46.5350     6.8930     7.2770     7.0880
 1266.0000     0.0010     2.5460     8.8050     0.2430   103.2650   -46.6770     6.8570     7.2950     7.0610
 1266.5000     0.0060     2.5440     8.8090     0.2450   103.7160   -46.8280     6.8220     7.0960     7.0330
 1267.0000     0.0110     2.5550     8.8140     0.2470   105.5160   -47.1510     6.7860     7.1560     7.0050
 1267.5000     0.0160     2.5640     8.8190     0.2430   107.8730   -47.5030     6.7500     7.2510     6.9770
 1268.0000     0.0150     2.5760     8.8240     0.2390   106.5390   -47.8060     6.7150     7.3630     6.9320
 1268.5000     0.0130     2.5770     8.8290     0.2380   105.6120   -47.6220     6.6170     7.1250     6.8760
 1269.0000     0.0090     2.5730     8.8340     0.2420   106.9740   -47.4370     6.5230     6.9030     6.8200
 1269.5000     0.0080     2.5650     8.8390     0.2460   107.2490   -47.2530     6.4280     6.9030     6.7700
 1270.0000     0.0040     2.5580     8.8450     0.2460   105.7020   -47.0700     6.3330     6.9030     6.7410
 1270.5000     0.0000     2.5610     8.8500     0.2450   102.7050   -46.8870     6.2380     6.9030     6.7120
 1271.0000    -0.0040     2.5660     8.8560     0.2420   100.7450   -46.7030     6.1440     6.9030     6.6830
 1271.5000    -0.0070     2.5630     8.8610     0.2440    99.4540   -46.5200     6.0240     6.9030     6.6540
 1272.0000    -0.0110     2.5540     8.8670     0.2530    97.9450   -46.3370     6.0740     6.9030     6.6250
 1272.5000    -0.0060     2.5430     8.8730     0.2550    97.8420   -46.1540     6.1740     6.9030     6.5960
 1273.0000     0.0010     2.5330     8.8900     0.2450   101.0330   -45.9730     6.2740     6.9030     6.5670
 1273.5000     0.0070     2.5430     8.9100     0.2370   104.6760   -45.8570     6.3540     6.9030     6.5370
 1274.0000     0.0150     2.5600     8.9290     0.2320   106.5230   -45.9280     6.2300     7.0640     6.4350
 1274.5000     0.0140     2.5770     8.9480     0.2260   106.5520   -45.9960     6.1280     7.4620     6.3160
 1275.0000     0.0090     2.5950     8.9670     0.2260   105.3590   -46.1050     6.0260     7.7810     6.1960
 1275.5000     0.0040     2.5860     8.9870     0.2450   103.8600   -46.3460     5.9020     7.0980     6.1240
 1276.0000     0.0000     2.5700     9.0070     0.2520   102.3860   -46.5810     5.9760     6.5290     6.1920
 1276.5000     0.0040     2.5530     9.0020     0.2570   101.4150   -46.8160     6.0680     6.3540     6.2490
 1277.0000     0.0070     2.5450     8.9880     0.2610   101.6070   -47.0430     6.0680     6.5820     6.2950
 1277.5000     0.0110     2.5510     8.9740     0.2580   104.1440   -47.3450     6.0680     6.8700     6.3730
 1278.0000     0.0140     2.5630     8.9810     0.2530   106.1740   -47.5180     6.0920     7.1620     6.4220
 1278.5000     0.0170     2.5690     8.9910     0.2490   105.5750   -47.5850     6.1550     6.9780     6.4720
 1279.0000     0.0200     2.5650     9.0010     0.2460   102.3640   -47.4310     6.2180     6.7150     6.5210
 1279.5000     0.0230     2.5750     9.0100     0.2460   100.3340   -47.2820     6.2810     6.8070     6.5940
 1280.0000     0.0160     2.5860     8.9550     0.2460   100.4110   -47.1330     6.3440     6.9660     6.6050
 1280.5000     0.0090     2.5970     8.8890     0.2470   104.9010   -46.9850     6.4070     7.0960     6.6150
 1281.0000     0.0010     2.5690     8.8230     0.2490   106.6980   -46.8370     6.5320     7.0960     6.6260
 1281.5000    -0.0060     2.5590     8.8230     0.2560   105.2780   -46.6880     6.5270     7.0960     6.6360
 1282.0000    -0.0110     2.5450     8.8330     0.2600   104.3650   -46.5400     6.5220     7.0960     6.6470
 1282.5000    -0.0020     2.5460     8.8440     0.2610   104.5400   -46.4200     6.5160     7.0960     6.6570
 1283.0000     0.0060     2.5530     8.8530     0.2580   104.8270   -46.3710     6.5100     7.0960     6.6670
 1283.5000     0.0140     2.5590     8.8410     0.2520   104.2960   -46.3220     6.5040     7.0960     6.6770
 1284.0000     0.0230     2.5650     8.8300     0.2480   103.7000   -46.2740     6.4990     7.0960     6.6870
 1284.5000     0.0200     2.5700     8.8190     0.2440   103.2940   -46.2570     6.4930     7.1100     6.6970
 1285.0000     0.0140     2.5670     8.8070     0.2450   103.7310   -46.3310     6.4870     7.1920     6.7060
 1285.5000     0.0090     2.5650     8.7960     0.2480   104.1490   -46.4010     6.4810     7.2280     6.7150
 1286.0000     0.0040     2.5650     8.7850     0.2520   104.5700   -46.5820     6.4730     7.1660     6.7150
 1286.5000    -0.0010     2.5610     8.7740     0.2520   104.7680   -46.8730     6.4740     7.1010     6.7150
 1287.0000    -0.0070     2.5510     8.7710     0.2500   103.4410   -47.1630     6.4020     7.0360     6.7150
 1287.5000    -0.0040     2.5560     8.7690     0.2530   104.1320   -47.4210     6.3500     6.9710     6.7140
 1288.0000     0.0000     2.5650     8.7670     0.2580   104.7170   -47.4250     6.2990     6.9030     6.7160
 1288.5000     0.0050     2.5750     8.7650     0.2600   104.7680   -47.4250     6.2470     6.8480     6.5950
 1289.0000     0.0090     2.5710     8.7630     0.2580   106.4180   -47.3390     6.1950     6.7740     6.4900
 1289.5000     0.0140     2.5710     8.7610     0.2550   107.4270   -47.1670     6.1440     6.7000     6.3850
 1290.0000     0.0160     2.5800     8.7590     0.2530   108.0860   -46.9950     6.0920     6.6260     6.2870
 1290.5000     0.0130     2.5810     8.7570     0.2490   108.8480   -46.8230     6.0400     6.5320     6.2300
