~VERSION INFORMATION
 VERS.                2.0:   CWLS LOG ASCII STANDARD - VERSION 2.0
 WRAP.                 NO:   ONE LINE PER DEPTH STEP
~WELL INFORMATION
#MNEM.UNIT      DATA TYPE    INFORMATION
#----------   ------------   ------------------------------
 STRT.F          214.0000:   START DEPTH
 STOP.F         3064.0000:   STOP DEPTH
 STEP.F            0.5000:   STEP LENGTH
 NULL.          -999.2500:   NO VALUE
 COMP.    FENIX & SCISSON:   COMPANY
 WELL.    FENIX "A" #76-3:   WELL
 FLD .                NPR:   FIELD
 LOC .       S3 T38N R78W:   LOCATION
 CNTY.            NATRONA:   COUNTY
 STAT.            WYOMING:   STATE
 CTRY. UNITED STATES OF AMERICA:   COUNTRY
 SRVC.              WELEX:   SERVICE COMPANY
 DATE.        07-AUG-1988:   LOGDATE
 API .     49025104070000:   API NUMBER
~CURVE INFORMATION
#MNEM.UNIT       API CODE    CURVE DESCRIPTION
#----------   ------------   ------------------------------
 DEPT.F                  :   
 NPHI.DEC    42 890 00 00:   NEUTRON POROSITY
 SPR .MV     07 010 01 00:   SPONTANEOUS POTENTIAL
 SGRD.OHMM   07 220 05 00:   SHALLOW GUARD LOG RESISTIVITY
 ILD .OHMM   07 120 46 00:   DEEP INDUCTION RESISTIVITY
 ILM .OHMM   07 120 44 00:   INDUCTION LOG MEDIUM RESISTIVITY
 CALD.IN     45 280 60 00:   CALIPER FROM DENSITY LOG
 GRD .GAPI   45 310 01 00:   GAMMA RAY FROM DENSITY LOG
 CORR.G/C3   45 356 01 00:   DENSITY CORRECTION
 RHOB.G/C3   45 350 01 00:   BULK DENSITY
~PARAMETER INFORMATION
#MNEM.UNIT          VALUE    DESCRIPTION
#----------   ------------   ------------------------------
 EKB .F         5154.0000:   Kelly bushing
 EGL .F         5144.0000:   Ground level
 EDF .F            0.0000:   Drilling floor
 TD  .F         3054.0000:   Total depth
 DATE.        07-AUG-1988:   Date logged
 CLNT.            A2DTECH:   Client Code
 SL  . 1650' FSL & 990' FEL:   Surface Location
 PD  .                 GL:   Permanent Datum
 DD  .F              3054:   Depth driller
 DL  .F              3052:   Depth logger
 BLI .F              3060:   Bottom log interval
 CS1 .IN            8.625:   Casing size
 CBD1.      8.625" @ 210':   Casing driller 1
 CBL1.F               225:   Casing logger 1
 BS1 .IN            7.875:   Bit size
 DFT .            KCL MUD:   Type fluid in hole
 DFD .                9.2:   Density
 DFV .                 37:   Viscosity
 DFPH.                 10:   pH
 DFL .                  8:   Fluid loss
 MSS .           FLOWLINE:   Source of sample
 RMS .OHMM            .29:   Rm
 MST .F                75:   Rm Meas. temp.
 RMF .OHMM            .27:   Rmf
 MFST.F                75:   Rmf Meas. temp.
 RMC .OHMM            .32:   Rmc
 MCST.F                75:   Rmc Meas. temp.
 MFSS.               MEAS:   Source Rmf.
 RMB .OHMM            .19:   Rm. at BHT
 BHT .F               112:   BHT.
 TCS .HRS               5:   Time Circ. stopped
 MRT .F               112:   Maximum recorded temp.
 LUN .               9685:   Logging unit number
 LUL .             CASPER:   Logging unit location
 ENGI.      JOUNER & DOAK:   Recorded By
 WITN.      B. HARRINGTON:   Witnessed by
 ORIG.           5" PRINT:   Origin of data
 UWI .     49025104070000:   Unique Well ID
 DICO. A2D TECHNOLOGIES, INC.:   Digitizing Company
 DAPD.                 10:   Feet Above Permanent Datum
 BSD1.               3054:   Depth drilled with bit1
 MCSS.               MEAS:   Source Rmc.
 EPD .               5144:   Elevation Permanent Datum
 LMF .                 KB:   Log Measured From
 DMF .                 KB:   Drilling Measured From
 TLI .                225:   Top log interval
~OTHER INFORMATION
~A   DEPT     NPHI        SPR       SGRD        ILD        ILM       CALD         GRD       CORR        RHOB 
# ...
 1528.0000     0.3100   -47.9500     7.8390     6.1170    10.7750     9.6770   106.5200     0.1510     2.3650
 1528.5000     0.3130   -47.8090     7.9100     6.2110    12.9970     9.6590   106.8540     0.1270     2.3240
 1529.0000     0.3090   -47.6690     8.2420     6.4370    15.1840     9.6280   106.2380     0.0980     2.2930
 1529.5000     0.3020   -47.6750     8.5740     6.6640    14.6320     9.5650   105.9090     0.0690     2.3020
 1530.0000     0.3000   -47.8970     8.8330     6.8900    12.7330     9.5090   107.7270     0.0420     2.3560
 1530.5000     0.2960   -48.1180     8.6170     7.1190    11.2450     9.4510   108.1310     0.0390     2.4880
 1531.0000     0.2870   -48.3390     8.2960     7.3520    10.6470     9.4180   105.7680     0.0440     2.5220
 1531.5000     0.2840   -48.4230     7.9110     7.5850    10.3590     9.3860   103.8800     0.0330     2.5170
 1532.0000     0.2810   -48.4980     8.0560     7.7190    10.0190     9.3770   102.0170     0.0230     2.5140
 1532.5000     0.2830   -48.5710     8.2870     7.8310     9.4990     9.4080   100.8670     0.0150     2.5100
 1533.0000     0.2870   -48.6450     8.5180     7.9800     8.9960     9.4380   101.7190     0.0080     2.5060
 1533.5000     0.2910   -48.7180     8.8060     7.9660     8.9140     9.4680   102.5130     0.0030     2.5080
 1534.0000     0.2930   -48.7670     8.6250     7.9380     8.7670     9.5000   103.0100     0.0040     2.5200
 1534.5000     0.2960   -48.7230     8.2980     7.9110     8.4280     9.4990   101.9560     0.0110     2.5360
 1535.0000     0.2930   -48.6800     7.9840     7.6220     8.0890     9.4880   103.2360     0.0220     2.5390
 1535.5000     0.2930   -48.6380     8.0100     7.3430     7.7500     9.4770   104.7570     0.0380     2.5370
 1536.0000     0.2960   -48.5950     8.0580     7.0640     7.6960     9.4780   105.8590     0.0450     2.5300
 1536.5000     0.2950   -48.5530     7.9840     6.8820     7.6960     9.5180   105.6380     0.0470     2.5160
 1537.0000     0.2960   -48.5110     7.8580     6.7180     8.0050     9.5560   105.4170     0.0520     2.5020
 1537.5000     0.2990   -48.4680     7.7380     6.4640     8.4820     9.6080   105.1970     0.0630     2.4880
 1538.0000     0.2990   -48.4260     7.6960     6.4730     8.9590     9.6650   105.0450     0.0760     2.4740
 1538.5000     0.2990   -48.3840     7.6960     6.4930     9.4360     9.6900   105.5540     0.1080     2.4620
 1539.0000     0.2990   -48.3190     7.6960     6.5130     9.9530     9.6240   106.1230     0.1040     2.4550
 1539.5000     0.2970   -48.2500     7.9350     6.5690     9.4710     9.5640   106.6160     0.0890     2.4690
 1540.0000     0.2930   -48.1820     8.2830     6.6670     8.4160     9.4910   105.6310     0.0740     2.5220
 1540.5000     0.2900   -48.1130     8.1290     6.7660     7.7820     9.4210   105.4090     0.0620     2.5640
 1541.0000     0.2870   -48.0430     7.7950     6.8650     7.3430     9.3500   106.3490     0.0610     2.5810
 1541.5000     0.2850   -47.9850     7.4610     6.9570     7.1510     9.3040   107.1980     0.0660     2.5780
 1542.0000     0.2860   -48.0760     7.1510     6.8690     7.0800     9.2800   106.9350     0.0710     2.5730
 1542.5000     0.2890   -48.1670     7.1510     6.7870     7.0210     9.2560   105.9900     0.0730     2.5670
 1543.0000     0.2930   -48.2570     7.3580     6.7040     7.1110     9.2530   105.0380     0.0700     2.5610
 1543.5000     0.2940   -48.3520     7.5960     6.5240     7.1510     9.2560   104.0810     0.0690     2.5550
 1544.0000     0.2940   -48.3580     7.8340     6.5800     7.1330     9.2600   103.1220     0.0680     2.5500
 1544.5000     0.2950   -48.3310     7.9730     6.6980     7.1150     9.2640   102.2860     0.0750     2.5530
 1545.0000     0.2910   -48.3040     8.0580     6.8280     7.0980     9.2680   103.3140     0.0840     2.5600
 1545.5000     0.2900   -48.2760     8.1740     6.8130     7.0860     9.2740   104.4800     0.0930     2.5670
 1546.0000     0.2920   -48.2480     8.2820     6.7930     7.1180     9.2830   105.6430     0.1020     2.5650
 1546.5000     0.2910   -48.2210     8.3590     6.7680     7.1480     9.2910   106.1710     0.1090     2.5610
 1547.0000     0.2930   -48.1930     8.1870     6.8590     7.1780     9.3000   105.9580     0.1100     2.5570
 1547.5000     0.2950   -48.1590     7.9840     6.9920     7.2080     9.3090   105.7580     0.1200     2.5510
 1548.0000     0.2970   -48.1180     8.0260     7.0860     7.2870     9.3480   105.5560     0.1340     2.5440
 1548.5000     0.2990   -48.0780     8.1120     7.0510     7.3880     9.3910   106.3420     0.1480     2.5370
 1549.0000     0.3010   -48.0370     8.1980     7.0240     8.0040     9.4340   108.1460     0.1620     2.5290
 1549.5000     0.3030   -47.9960     7.9350     6.9830     8.8460     9.4770   108.1640     0.1770     2.5170
 1550.0000     0.3050   -47.9560     7.6310     6.9400     9.6890     9.5200   107.4400     0.1860     2.4820
 1550.5000     0.3060   -47.9150     7.2840     6.8930    10.6130     9.5660   108.7250     0.1900     2.4480
 1551.0000     0.3050   -47.8750     7.5810     6.7630    10.1840     9.6440   110.2180     0.1860     2.4150
 1551.5000     0.3080   -47.8340     7.8510     6.6190     9.0900     9.7280   111.0950     0.1820     2.3830
 1552.0000     0.3100   -47.7930     8.0580     6.4050     7.9950     9.8140   112.0960     0.1780     2.3630
 1552.5000     0.3080   -47.7520     7.8390     6.4170     7.0210     9.9010   112.5680     0.1750     2.3420
 1553.0000     0.3100   -47.7110     7.8820     6.4390     8.0770     9.9060   112.6670     0.1800     2.3220
 1553.5000     0.3100   -47.6690     7.9660     6.4640     9.2380     9.8310   113.9180     0.1840     2.3000
 1554.0000     0.3070   -47.6270     8.0580     6.5950    10.3990     9.7200   115.7410     0.1710     2.2690
 1554.5000     0.3050   -47.5860     8.4480     6.7390    11.4220     9.6120   116.5820     0.1570     2.2760
 1555.0000     0.3030   -47.7300     8.8750     6.8820    10.8640     9.5070   114.2830     0.1420     2.3500
 1555.5000     0.3030   -47.8900     9.4190     7.0250     9.6420     9.4020   115.1310     0.1250     2.4570
 1556.0000     0.3010   -48.0510     9.2480     7.1530     8.4190     9.2940   114.5990     0.1060     2.5060
 1556.5000     0.3000   -48.2120     9.6100     7.1690     7.6720     9.2640   115.4140     0.0890     2.5290
 1557.0000     0.3000   -48.3720     9.9530     7.1840     7.4190     9.2510   116.9850     0.0880     2.5430
 1557.5000     0.3000   -48.5380     9.6400     7.2000     7.4440     9.2400   116.8400     0.0900     2.5370
 1558.0000     0.3010   -48.5330     9.3040     7.2170     7.4720     9.2300   115.4510     0.0760     2.5280
 1558.5000     0.2990   -48.4780     9.0790     7.2170     7.4990     9.2300   114.6660     0.0640     2.5250
 1559.0000     0.2990   -48.4210     9.3100     7.2170     7.5270     9.2300   115.4070     0.0670     2.5410
 1559.5000     0.2990   -48.3640     9.1420     7.2180     7.5560     9.2300   116.1200     0.0740     2.5550
 1560.0000     0.2990   -48.3070     8.9960     7.1820     7.5770     9.2300   115.8360     0.0800     2.5690
 1560.5000     0.2980   -48.2500     9.1150     7.1170     7.5980     9.2300   115.3090     0.0850     2.5720
 1561.0000     0.2950   -48.1920     9.2480     7.0510     7.6260     9.2300   114.7840     0.0850     2.5720
 1561.5000     0.2990   -48.1790     9.1340     6.9860     7.6070     9.2300   115.1240     0.0850     2.5740
 1562.0000     0.2960   -48.1790     8.9270     6.9430     7.5720     9.2300   116.5620     0.0830     2.5750
 1562.5000     0.2950   -48.1790     8.8330     6.9170     7.4910     9.2300   117.5020     0.0810     2.5770
 1563.0000     0.2940   -48.1790     8.9450     6.8920     7.3710     9.2300   116.0650     0.0790     2.5790
 1563.5000     0.2910   -48.1790     9.0420     6.8670     7.2520     9.2320   114.9430     0.0780     2.5780
 1564.0000     0.2870   -48.1790     9.1630     6.8300     7.1370     9.2380   115.9390     0.0770     2.5740
