~VERSION INFORMATION
 VERS.                2.0:   CWLS LOG ASCII STANDARD - VERSION 2.0
 WRAP.                 NO:   ONE LINE PER DEPTH STEP
~WELL INFORMATION
#MNEM.UNIT      DATA TYPE    INFORMATION
#----------   ------------   ------------------------------
 STRT.F          214.0000:   START DEPTH
 STOP.F         3064.0000:   STOP DEPTH
 STEP.F            0.5000:   STEP LENGTH
 NULL.          -999.2500:   NO VALUE
 COMP.    FENIX & SCISSON:   COMPANY
 WELL.    FENIX "A" #76-3:   WELL
 FLD .                NPR:   FIELD
 LOC .       S3 T38N R78W:   LOCATION
 CNTY.            NATRONA:   COUNTY
 STAT.            WYOMING:   STATE
 CTRY. UNITED STATES OF AMERICA:   COUNTRY
 SRVC.              WELEX:   SERVICE COMPANY
 DATE.        07-AUG-1988:   LOGDATE
 API .     49025104070000:   API NUMBER
~CURVE INFORMATION
#MNEM.UNIT       API CODE    CURVE DESCRIPTION
#----------   ------------   ------------------------------
 DEPT.F                  :   
 NPHI.DEC    42 890 00 00:   NEUTRON POROSITY
 SPR .MV     07 010 01 00:   SPONTANEOUS POTENTIAL
 SGRD.OHMM   07 220 05 00:   SHALLOW GUARD LOG RESISTIVITY
 ILD .OHMM   07 120 46 00:   DEEP INDUCTION RESISTIVITY
 ILM .OHMM   07 120 44 00:   INDUCTION LOG MEDIUM RESISTIVITY
 CALD.IN     45 280 60 00:   CALIPER FROM DENSITY LOG
 GRD .GAPI   45 310 01 00:   GAMMA RAY FROM DENSITY LOG
 CORR.G/C3   45 356 01 00:   DENSITY CORRECTION
 RHOB.G/C3   45 350 01 00:   BULK DENSITY
~PARAMETER INFORMATION
#MNEM.UNIT          VALUE    DESCRIPTION
#----------   ------------   ------------------------------
 EKB .F         5154.0000:   Kelly bushing
 EGL .F         5144.0000:   Ground level
 EDF .F            0.0000:   Drilling floor
 TD  .F         3054.0000:   Total depth
 DATE.        07-AUG-1988:   Date logged
 CLNT.            A2DTECH:   Client Code
 SL  . 1650' FSL & 990' FEL:   Surface Location
 PD  .                 GL:   Permanent Datum
 DD  .F              3054:   Depth driller
 DL  .F              3052:   Depth logger
 BLI .F              3060:   Bottom log interval
 CS1 .IN            8.625:   Casing size
 CBD1.      8.625" @ 210':   Casing driller 1
 CBL1.F               225:   Casing logger 1
 BS1 .IN            7.875:   Bit size
 DFT .            KCL MUD:   Type fluid in hole
 DFD .                9.2:   Density
 DFV .                 37:   Viscosity
 DFPH.                 10:   pH
 DFL .                  8:   Fluid loss
 MSS .           FLOWLINE:   Source of sample
 RMS .OHMM            .29:   Rm
 MST .F                75:   Rm Meas. temp.
 RMF .OHMM            .27:   Rmf
 MFST.F                75:   Rmf Meas. temp.
 RMC .OHMM            .32:   Rmc
 MCST.F                75:   Rmc Meas. temp.
 MFSS.               MEAS:   Source Rmf.
 RMB .OHMM            .19:   Rm. at BHT
 BHT .F               112:   BHT.
 TCS .HRS               5:   Time Circ. stopped
 MRT .F               112:   Maximum recorded temp.
 LUN .               9685:   Logging unit number
 LUL .             CASPER:   Logging unit location
 ENGI.      JOUNER & DOAK:   Recorded By
 WITN.      B. HARRINGTON:   Witnessed by
 ORIG.           5" PRINT:   Origin of data
 UWI .     49025104070000:   Unique Well ID
 DICO. A2D TECHNOLOGIES, INC.:   Digitizing Company
 DAPD.                 10:   Feet Above Permanent Datum
 BSD1.               3054:   Depth drilled with bit1
 MCSS.               MEAS:   Source Rmc.
 EPD .               5144:   Elevation Permanent Datum
 LMF .                 KB:   Log Measured From
 DMF .                 KB:   Drilling Measured From
 TLI .                225:   Top log interval
~OTHER INFORMATION
~A   DEPT     NPHI        SPR       SGRD        ILD        ILM       CALD         GRD       CORR        RHOB 
# ...
  761.5000     0.3120   -46.2150     9.8620     9.3060     8.2070    10.3360   145.9400     0.0970     2.4810
  762.0000     0.3090   -46.0820     9.8850     9.3190     8.3920    10.3390   146.2570     0.1050     2.4780
  762.5000     0.3100   -45.9490     9.9070     9.3330     8.5750    10.3370   147.9680     0.0960     2.4660
  763.0000     0.3160   -45.8160     9.9300     9.2990     8.7580    10.3170   149.9360     0.0870     2.4540
  763.5000     0.3160   -45.6830     9.9530     9.2650     8.9070    10.2970   152.2050     0.0830     2.4420
  764.0000     0.3130   -45.5500     9.8380     9.2310     8.8060    10.2840   150.4660     0.0810     2.4320
  764.5000     0.3090   -45.4170     9.7230     9.1970     8.5280    10.3020   148.1820     0.0820     2.4130
  765.0000     0.3100   -45.2840     9.6070     9.1620     8.2490    10.3200   145.7150     0.0840     2.3940
  765.5000     0.3130   -45.1510     9.4920     9.1280     8.0710    10.3380   140.0530     0.0870     2.3770
  766.0000     0.3110   -45.0190     9.4010     9.0940     7.9160    10.3560   134.2620     0.0960     2.3470
  766.5000     0.3090   -44.8870     9.2950     8.9930     7.5230    10.3740   133.1590     0.1040     2.3210
  767.0000     0.3090   -44.8330     9.1880     8.8420     7.1290    10.3920   132.2720     0.1130     2.3030
  767.5000     0.3160   -44.9280     8.9560     8.6900     6.7290    10.4160   129.6340     0.1240     2.2860
  768.0000     0.3180   -45.0210     8.6720     8.4040     6.3240    10.4430   125.7520     0.1350     2.2520
  768.5000     0.3170   -45.1130     8.0040     7.8750     5.9190    10.4710   122.0300     0.1190     2.2180
  769.0000     0.3190   -45.2060     7.3050     7.3460     5.6840    10.4990   121.7020     0.0990     2.1730
  769.5000     0.3210   -45.2980     6.6070     6.8930     5.8900    10.5260   123.4330     0.0790     2.1800
  770.0000     0.3190   -45.3990     5.9510     6.8560     6.2880    10.5540   125.5950     0.0610     2.2670
  770.5000     0.3180   -45.7220     5.9510     6.8300     8.2550    10.5790   128.0290     0.0690     2.3930
  771.0000     0.3230   -46.0690     6.5390     7.0290    10.3470    10.6580   130.4710     0.0800     2.4690
  771.5000     0.3210   -46.4150     7.1170     7.2050    11.0110    10.7450   132.9130     0.0780     2.4720
  772.0000     0.3170   -46.7620     7.3620     7.3800     9.4460    10.8360   135.3530     0.0700     2.4630
  772.5000     0.3190   -47.1080     7.6260     7.5550     8.0580    10.5110   137.7940     0.0620     2.4580
  773.0000     0.3210   -47.4550     8.4080     7.7300     8.1250    10.2090   140.2340     0.0570     2.4570
  773.5000     0.3190   -47.8040     9.1690     7.9050     8.2140    10.1870   142.4920     0.0530     2.4530
  774.0000     0.3190   -48.1620     9.2480     8.0810     8.2730    10.1610   144.6310     0.0510     2.4520
  774.5000     0.3190   -48.0900     9.2260     8.1320     8.3310    10.1390   145.4220     0.0530     2.4510
  775.0000     0.3150   -47.9870     9.1630     8.1320     8.3900    10.1300   145.7880     0.0530     2.4500
  775.5000     0.3120   -48.1570     9.1880     8.1320     8.4490    10.1210   146.1210     0.0510     2.4430
  776.0000     0.3090   -48.3560     9.2380     8.1320     8.5130    10.1120   146.0680     0.0470     2.4370
  776.5000     0.3060   -48.5540     9.2870     8.1190     8.5040    10.1030   144.8490     0.0470     2.4320
  777.0000     0.3050   -48.7520     9.3330     8.1060     8.4930    10.1020   143.9820     0.0480     2.4290
  777.5000     0.3010   -48.9500     9.2680     8.0940     8.4810    10.1020   144.1760     0.0460     2.4260
  778.0000     0.3010   -49.1490     9.2080     8.0820     8.4700    10.1020   144.5550     0.0400     2.4230
  778.5000     0.3000   -49.3440     9.1480     8.0690     8.4580    10.1020   144.9590     0.0340     2.4230
  779.0000     0.2950   -49.2100     9.0870     8.1300     8.4470    10.1020   145.3610     0.0270     2.4240
  779.5000     0.2960   -49.0250     9.0790     8.1160     8.4360    10.1020   145.4650     0.0210     2.4250
  780.0000     0.2970   -48.8300     9.0790     8.0980     8.4110    10.1020   144.9420     0.0150     2.4250
  780.5000     0.2990   -48.8350     9.0790     8.0790     8.3870    10.1020   145.0870     0.0090     2.4190
  781.0000     0.3030   -48.9200     9.0790     8.0610     8.3630    10.1020   145.7190     0.0140     2.4170
  781.5000     0.3060   -49.0080     9.0790     8.0420     8.3200    10.0990   146.3250     0.0190     2.4190
  782.0000     0.3140   -49.0970     9.0790     8.0240     8.2600    10.0940   148.5820     0.0240     2.4210
  782.5000     0.3140   -49.1850     9.1130     8.0060     8.2000    10.0890   151.6550     0.0210     2.4230
  783.0000     0.3160   -49.2730     9.1650     7.9870     8.1400    10.0840   154.7370     0.0170     2.4230
  783.5000     0.3210   -49.3600     9.2180     7.9410     8.0800    10.0800   157.8300     0.0130     2.4230
  784.0000     0.3190   -49.4480     9.2480     7.8740     7.9380    10.0760   160.9340     0.0090     2.4200
  784.5000     0.3170   -49.5370     9.2480     7.7670     7.6590    10.0710   160.9870     0.0050     2.4140
  785.0000     0.3150   -49.5640     9.2480     7.7800     7.3800    10.0670   160.2880     0.0010     2.4080
  785.5000     0.3170   -49.5570     9.2480     7.8100     7.2170    10.0630   159.5750    -0.0030     2.4030
  786.0000     0.3110   -49.5500     9.2480     7.8400     7.0970    10.0580   158.8470    -0.0070     2.4070
  786.5000     0.3030   -49.5420     9.2480     7.8690     6.9570    10.0540   157.6200     0.0070     2.4100
  787.0000     0.3030   -49.5350     9.2470     7.8990     6.9710    10.0500   156.3790     0.0250     2.4250
  787.5000     0.3010   -49.5270     9.3330     7.9110     7.0070    10.0460   155.1500     0.0440     2.4550
  788.0000     0.3000   -49.5200     9.2830     7.9110     7.0430    10.0410   154.9220     0.0430     2.4510
  788.5000     0.2990   -49.5120     9.1980     7.9110     7.0780    10.0370   156.1080     0.0480     2.4580
  789.0000     0.3000   -49.5050     9.0790     7.9110     7.1290    10.0330   156.8930     0.0540     2.4650
  789.5000     0.3060   -49.4970     9.0970     7.9110     7.2110    10.0280   155.6170     0.0600     2.4670
  790.0000     0.3030   -49.4900     9.1270     7.9110     7.1560    10.0240   154.3710     0.0660     2.4620
  790.5000     0.3070   -49.4820     9.1630     7.9110     6.9970    10.0230   153.1530     0.0710     2.4570
  791.0000     0.3090   -49.4750     9.0990     7.9110     6.8380    10.0230   152.9500     0.0680     2.4510
  791.5000     0.3130   -49.4670     9.0160     7.9110     6.7060    10.0230   152.8220     0.0630     2.4430
  792.0000     0.3150   -49.4600     8.9960     7.8730     6.7300    10.0230   152.6150     0.0550     2.4320
  792.5000     0.3190   -49.4520     8.9960     7.8060     6.7500    10.0230   151.9820     0.0480     2.4230
  793.0000     0.3200   -49.4450     8.9960     7.7390     6.7680    10.0230   151.3450     0.0460     2.4190
  793.5000     0.3240   -49.4370     8.9890     7.6960     6.5270    10.0210   150.7300     0.0500     2.4240
  794.0000     0.3280   -49.4300     8.9670     7.6960     6.2220    10.0200   150.5030     0.0540     2.4290
  794.5000     0.3260   -49.4220     8.9460     7.6960     5.7820    10.0180   151.6440     0.0540     2.4350
  795.0000     0.3220   -49.4150     8.9240     7.6960     5.4790    10.0170   152.7850     0.0490     2.4360
  795.5000     0.3210   -49.4070     8.9140     7.6870     6.0020    10.0150   153.9160     0.0440     2.4360
  796.0000     0.3240   -49.4000     8.9140     7.6590     7.0860    10.0140   154.7300     0.0400     2.4360
  796.5000     0.3190   -49.3920     8.9140     7.6300     6.7920    10.0120   153.4900     0.0350     2.4350
  797.0000     0.3190   -49.3850     8.9140     7.6020     6.6870    10.0110   152.2420     0.0300     2.4350
  797.5000     0.3180   -49.3770     8.9140     7.5740     6.6620    10.0100   151.0760     0.0250     2.4340
