~VERSION INFORMATION
 VERS.                2.0:   CWLS LOG ASCII STANDARD - VERSION 2.0
 WRAP.                 NO:   ONE LINE PER DEPTH STEP
~WELL INFORMATION
#MNEM.UNIT      DATA TYPE    INFORMATION
#----------   ------------   ------------------------------
 STRT.F          214.0000:   START DEPTH
 STOP.F         3064.0000:   STOP DEPTH
 STEP.F            0.5000:   STEP LENGTH
 NULL.          -999.2500:   NO VALUE
 COMP.    FENIX & SCISSON:   COMPANY
 WELL.    FENIX "A" #76-3:   WELL
 FLD .                NPR:   FIELD
 LOC .       S3 T38N R78W:   LOCATION
 CNTY.            NATRONA:   COUNTY
 STAT.            WYOMING:   STATE
 CTRY. UNITED STATES OF AMERICA:   COUNTRY
 SRVC.              WELEX:   SERVICE COMPANY
 DATE.        07-AUG-1988:   LOGDATE
 API .     49025104070000:   API NUMBER
~CURVE INFORMATION
#MNEM.UNIT       API CODE    CURVE DESCRIPTION
#----------   ------------   ------------------------------
 DEPT.F                  :   
 NPHI.DEC    42 890 00 00:   NEUTRON POROSITY
 SPR .MV     07 010 01 00:   SPONTANEOUS POTENTIAL
 SGRD.OHMM   07 220 05 00:   SHALLOW GUARD LOG RESISTIVITY
 ILD .OHMM   07 120 46 00:   DEEP INDUCTION RESISTIVITY
 ILM .OHMM   07 120 44 00:   INDUCTION LOG MEDIUM RESISTIVITY
 CALD.IN     45 280 60 00:   CALIPER FROM DENSITY LOG
 GRD .GAPI   45 310 01 00:   GAMMA RAY FROM DENSITY LOG
 CORR.G/C3   45 356 01 00:   DENSITY CORRECTION
 RHOB.G/C3   45 350 01 00:   BULK DENSITY
~PARAMETER INFORMATION
#MNEM.UNIT          VALUE    DESCRIPTION
#----------   ------------   ------------------------------
 EKB .F         5154.0000:   Kelly bushing
 EGL .F         5144.0000:   Ground level
 EDF .F            0.0000:   Drilling floor
 TD  .F         3054.0000:   Total depth
 DATE.        07-AUG-1988:   Date logged
 CLNT.            A2DTECH:   Client Code
 SL  . 1650' FSL & 990' FEL:   Surface Location
 PD  .                 GL:   Permanent Datum
 DD  .F              3054:   Depth driller
 DL  .F              3052:   Depth logger
 BLI .F              3060:   Bottom log interval
 CS1 .IN            8.625:   Casing size
 CBD1.      8.625" @ 210':   Casing driller 1
 CBL1.F               225:   Casing logger 1
 BS1 .IN            7.875:   Bit size
 DFT .            KCL MUD:   Type fluid in hole
 DFD .                9.2:   Density
 DFV .                 37:   Viscosity
 DFPH.                 10:   pH
 DFL .                  8:   Fluid loss
 MSS .           FLOWLINE:   Source of sample
 RMS .OHMM            .29:   Rm
 MST .F                75:   Rm Meas. temp.
 RMF .OHMM            .27:   Rmf
 MFST.F                75:   Rmf Meas. temp.
 RMC .OHMM            .32:   Rmc
 MCST.F                75:   Rmc Meas. temp.
 MFSS.               MEAS:   Source Rmf.
 RMB .OHMM            .19:   Rm. at BHT
 BHT .F               112:   BHT.
 TCS .HRS               5:   Time Circ. stopped
 MRT .F               112:   Maximum recorded temp.
 LUN .               9685:   Logging unit number
 LUL .             CASPER:   Logging unit location
 ENGI.      JOUNER & DOAK:   Recorded By
 WITN.      B. HARRINGTON:   Witnessed by
 ORIG.           5" PRINT:   Origin of data
 UWI .     49025104070000:   Unique Well ID
 DICO. A2D TECHNOLOGIES, INC.:   Digitizing Company
 DAPD.                 10:   Feet Above Permanent Datum
 BSD1.               3054:   Depth drilled with bit1
 MCSS.               MEAS:   Source Rmc.
 EPD .               5144:   Elevation Permanent Datum
 LMF .                 KB:   Log Measured From
 DMF .                 KB:   Drilling Measured From
 TLI .                225:   Top log interval
~OTHER INFORMATION
~A   DEPT     NPHI        SPR       SGRD        ILD        ILM       CALD         GRD       CORR        RHOB 
# ...
 2842.0000     0.3550   -57.3980     7.6260     5.3590     6.3890     8.4980   144.3560     0.1050     2.5710
 2842.5000     0.3570   -57.5400     7.6960     5.3940     6.4050     8.4970   144.3160     0.0990     2.5630
 2843.0000     0.3520   -57.6840     7.8390     5.4290     6.5830     8.4980   144.6280     0.0920     2.5540
 2843.5000     0.3480   -57.7530     7.7870     5.4640     6.7630     8.5000   145.4450     0.0850     2.5440
 2844.0000     0.3450   -57.8220     7.6960     5.5280     7.0210     8.5020   146.2560     0.0780     2.5480
 2844.5000     0.3430   -57.8900     8.0640     5.6140     6.9880     8.5040   147.0680     0.0770     2.5560
 2845.0000     0.3420   -57.9580     8.4420     5.7370     6.9300     8.5060   147.8810     0.0770     2.5630
 2845.5000     0.3390   -58.0260     8.8210     5.6920     6.8150     8.5080   148.6940     0.0750     2.5670
 2846.0000     0.3390   -58.0960     8.9140     5.6110     6.5960     8.5100   149.5060     0.0700     2.5590
 2846.5000     0.3440   -58.0930     8.3100     5.5310     6.3760     8.5120   150.3180     0.0640     2.5510
 2847.0000     0.3450   -58.0690     7.8440     5.4500     6.2280     8.5140   151.1300     0.0590     2.5440
 2847.5000     0.3410   -58.0430     7.4470     5.3840     6.2110     8.5160   151.9530     0.0530     2.5380
 2848.0000     0.3470   -58.0180     7.0860     5.3220     6.1930     8.5180   152.7980     0.0530     2.5400
 2848.5000     0.3500   -57.9930     6.9400     5.2600     6.1740     8.5200   153.3650     0.0580     2.5480
 2849.0000     0.3400   -57.9670     6.7830     5.1990     6.2340     8.5220   151.3770     0.0630     2.5550
 2849.5000     0.3360   -57.9420     6.7060     5.1370     6.3000     8.5240   149.4470     0.0680     2.5620
 2850.0000     0.3330   -57.9150     7.2960     5.0450     6.3610     8.5260   147.5410     0.0700     2.5680
 2850.5000     0.3280   -57.8780     7.8280     5.0940     6.4110     8.5280   145.6410     0.0660     2.5600
 2851.0000     0.3330   -57.8380     8.0080     5.1930     6.4600     8.5300   143.8460     0.0630     2.5540
 2851.5000     0.3340   -57.7980     8.0580     5.2910     6.5100     8.5320   143.3310     0.0700     2.5590
 2852.0000     0.3370   -57.7580     7.8710     5.3900     6.5820     8.5340   143.0580     0.0740     2.5690
 2852.5000     0.3300   -57.7180     7.6960     5.4880     6.6630     8.5360   142.7960     0.0710     2.5660
 2853.0000     0.3350   -57.6790     7.8510     5.5870     6.7430     8.5380   142.5340     0.0670     2.5620
 2853.5000     0.3410   -57.6390     7.9880     5.6610     6.8240     8.5400   142.2700     0.0640     2.5640
 2854.0000     0.3350   -57.5990     8.1320     5.7150     6.8930     8.5420   142.0100     0.0610     2.5650
 2854.5000     0.3380   -57.5580     8.0950     5.7680     6.8930     8.5440   141.1450     0.0580     2.5640
 2855.0000     0.3420   -57.5190     8.0560     5.8220     6.8930     8.5460   139.9680     0.0550     2.5630
 2855.5000     0.3380   -57.5450     8.0170     5.8750     6.9060     8.5480   138.7790     0.0520     2.5620
 2856.0000     0.3330   -57.5770     7.9840     5.9510     6.9290     8.5500   138.8060     0.0490     2.5560
 2856.5000     0.3320   -57.6080     8.0890     5.9380     6.9570     8.5520   139.8610     0.0610     2.5620
 2857.0000     0.3270   -57.6390     8.1790     5.9010     6.8180     8.5540   140.9130     0.0740     2.5740
 2857.5000     0.3260   -57.6700     8.2690     5.8650     6.6880     8.5560   141.9660     0.0870     2.5740
 2858.0000     0.3240   -57.7010     8.3590     5.8040     6.5840     8.5550   143.0280     0.0970     2.5700
 2858.5000     0.3300   -57.6510     8.0630     5.7040     6.2960     8.5550   144.1380     0.0950     2.5670
 2859.0000     0.3370   -57.5410     7.7670     5.4760     6.0060     8.5540   143.0240     0.0940     2.5630
 2859.5000     0.3410   -57.4300     7.1940     5.2170     5.7340     8.5530   141.2410     0.0920     2.5580
 2860.0000     0.3350   -57.3230     6.6250     4.9580     5.4660     8.5520   142.9980     0.0900     2.5480
 2860.5000     0.3380   -57.3700     6.3090     4.6990     5.1980     8.5510   145.3710     0.0850     2.5390
 2861.0000     0.3430   -57.4240     6.0470     4.4400     4.9980     8.5510   145.6270     0.0790     2.5300
 2861.5000     0.3400   -57.4790     5.4950     4.1810     4.8180     8.5500   145.2080     0.0730     2.5210
 2862.0000     0.3440   -57.5320     4.8320     3.9220     4.5800     8.5490   147.1160     0.0770     2.5190
 2862.5000     0.3400   -57.5860     4.1790     3.7190     4.2760     8.5480   150.5890     0.0810     2.5260
 2863.0000     0.3360   -57.6400     3.6580     3.5910     4.4750     8.5470   152.0830     0.0840     2.5320
 2863.5000     0.3350   -57.6950     3.5910     3.6200     4.7800     8.5470   146.2900     0.0820     2.5360
 2864.0000     0.3270   -57.6750     4.5510     3.7290     5.0850     8.5460   141.8290     0.0810     2.5430
 2864.5000     0.3150   -57.6120     6.3020     3.8380     5.3400     8.5450   139.2160     0.0840     2.5610
 2865.0000     0.3140   -57.5470     7.2170     3.9470     5.6690     8.5440   137.0510     0.0870     2.5790
 2865.5000     0.3130   -57.4830     7.0960     4.0470     5.9980     8.5430   134.9760     0.0870     2.5850
 2866.0000     0.3150   -57.4190     7.2970     4.4510     6.2690     8.5420   136.2310     0.0830     2.5820
 2866.5000     0.3180   -57.3550     7.5340     4.8230     6.3990     8.5420   137.9120     0.0790     2.5780
 2867.0000     0.3150   -57.3070     7.7720     5.1960     6.5290     8.5410   138.1820     0.0790     2.5780
 2867.5000     0.3130   -57.2530     7.9920     5.4490     6.6470     8.5400   137.9560     0.0790     2.5810
 2868.0000     0.3130   -57.2010     8.0480     5.5860     6.6730     8.5390   139.1360     0.0790     2.5840
 2868.5000     0.3190   -57.1490     7.6390     5.7230     6.7060     8.5380   140.8240     0.0830     2.5860
 2869.0000     0.3170   -57.1480     7.2620     5.8410     6.6290     8.5380   142.5600     0.0870     2.5850
 2869.5000     0.3150   -57.2130     7.0660     5.8250     6.5230     8.5370   143.2030     0.0920     2.5880
 2870.0000     0.3190   -57.2770     7.0050     5.8090     6.4160     8.5350   142.6040     0.0930     2.5910
 2870.5000     0.3180   -57.3410     6.9450     5.7940     6.3460     8.5310   142.0060     0.0910     2.5830
 2871.0000     0.3150   -57.4060     6.8930     5.7460     6.3460     8.5280   142.0330     0.0880     2.5750
 2871.5000     0.3120   -57.4690     7.1330     5.6880     6.3460     8.5240   142.1540     0.0850     2.5750
 2872.0000     0.3100   -57.4990     7.3410     5.6290     6.3460     8.5210   142.4270     0.0830     2.5750
 2872.5000     0.3100   -57.4210     7.5560     5.5810     6.3460     8.5170   145.8220     0.0850     2.5770
 2873.0000     0.3120   -57.3460     7.5280     5.4050     6.2700     8.5140   149.2540     0.0870     2.5800
 2873.5000     0.3180   -57.2720     7.4990     5.2250     6.0640     8.5100   152.6650     0.0900     2.5800
 2874.0000     0.3160   -57.1970     7.1850     5.0630     5.8420     8.5070   156.0840     0.0890     2.5750
 2874.5000     0.3150   -57.1220     6.6740     4.8540     5.5500     8.5030   159.5590     0.0870     2.5670
 2875.0000     0.3160   -57.0470     6.1870     4.6440     5.2570     8.5000   159.1830     0.0850     2.5590
 2875.5000     0.3220   -56.9720     5.6680     4.4360     4.9650     8.4960   157.9430     0.0830     2.5510
 2876.0000     0.3280   -56.8890     5.1000     4.1900     4.6730     8.4920   160.0340     0.0850     2.5480
 2876.5000     0.3300   -56.7760     4.5320     3.9450     4.5350     8.4890   162.8380     0.0870     2.5520
 2877.0000     0.3290   -56.6650     3.9650     3.8210     4.4770     8.4850   165.2000     0.0870     2.5530
 2877.5000     0.3310   -56.5540     3.7600     3.7260     4.8740     8.4820   163.0330     0.0830     2.5530
 2878.0000     0.3240   -56.4420     4.5090     3.8810     5.2610     8.4780   154.1520     0.0790     2.5650
