~VERSION INFORMATION
 VERS.                2.0:   CWLS LOG ASCII STANDARD - VERSION 2.0
 WRAP.                 NO:   ONE LINE PER DEPTH STEP
~WELL INFORMATION
#MNEM.UNIT      DATA TYPE    INFORMATION
#----------   ------------   ------------------------------
 STRT.F          216.0000:   START DEPTH
 STOP.F         3350.0000:   STOP DEPTH
 STEP.F            0.5000:   STEP LENGTH
 NULL.          -999.2500:   NO VALUE
 COMP.    FENIX & SCISSON:   COMPANY
 WELL. FENIX 52 "AX" #3-15:   WELL
 FLD .              N P R:   FIELD
 LOC .      S15 T38N R78W:   LOCATION
 CNTY.            NATRONA:   COUNTY
 STAT.            WYOMING:   STATE
 CTRY. UNITED STATES OF AMERICA:   COUNTRY
 SRVC.              WELEX:   SERVICE COMPANY
 DATE.        13-AUG-1977:   LOGDATE
 API .     49025104110000:   API NUMBER
~CURVE INFORMATION
#MNEM.UNIT       API CODE    CURVE DESCRIPTION
#----------   ------------   ------------------------------
 DEPT.F                  :   
 CORR.G/C3   45 356 01 00:   DENSITY CORRECTION
 CALD.IN     45 280 60 00:   CALIPER FROM DENSITY LOG
 GRD .GAPI   45 310 01 00:   GAMMA RAY FROM DENSITY LOG
 RHOB.G/C3   45 350 01 00:   BULK DENSITY
 NPHI.DEC    42 890 03 00:   NEUTRON POROSITY SANDSTONE
 SPR .MV     07 010 01 00:   SPONTANEOUS POTENTIAL
 SGRD.OHMM   07 220 05 00:   SHALLOW SHORT GUARD RESISTIVITY
 ILD .OHMM   07 120 46 00:   DEEP INDUCTION RESISTIVITY
 ILM .OHMM   07 120 44 00:   INDUCTION LOG MEDIUM RESISTIVITY
~PARAMETER INFORMATION
#MNEM.UNIT          VALUE    DESCRIPTION
#----------   ------------   ------------------------------
 EKB .F         5241.0000:   Kelly bushing
 EGL .F         5231.0000:   Ground level
 TD  .F         3352.0000:   Total depth
 DATE.        13-AUG-1977:   Date logged
 CLNT.            A2DTECH:   Client Code
 SL  . 940' FNL & 2310' FEL:   Surface Location
 PD  .                 GL:   Permanent Datum
 DD  .F              3350:   Depth driller
 DL  .F              3352:   Depth logger
 BLI .F              3350:   Bottom log interval
 CS1 .IN            8.625:   Casing size
 CBD1.      8.625" @ 227':   Casing driller 1
 CBL1.F               228:   Casing logger 1
 BS1 .IN            7.875:   Bit size
 DFT .          KCL WATER:   Type fluid in hole
 DFD .                8.9:   Density
 DFV .                 41:   Viscosity
 DFPH.                 11:   pH
 DFL .               17.2:   Fluid loss
 MSS .            MUD PIT:   Source of sample
 RMS .OHMM           .172:   Rm
 MST .F                74:   Rm Meas. temp.
 RMF .OHMM           .203:   Rmf
 MFST.F                74:   Rmf Meas. temp.
 RMC .OHMM           .220:   Rmc
 MCST.F                74:   Rmc Meas. temp.
 MFSS.               MEAS:   Source Rmf.
 RMB .OHMM           .105:   Rm. at BHT
 BHT .F               121:   BHT.
 TCS .HRS               4:   Time Circ. stopped
 MRT .F               121:   Maximum recorded temp.
 LUN .               9685:   Logging unit number
 LUL .             CASPER:   Logging unit location
 ENGI.             JOYNER:   Recorded By
 WITN.         PETTINGILL:   Witnessed by
 ORIG.           5" PRINT:   Origin of data
 UWI .     49025104110000:   Unique Well ID
 DICO. A2D TECHNOLOGIES, INC.:   Digitizing Company
 DAPD.F                10:   Feet Above Permanent Datum
 BSD1.F              3350:   Depth drilled with bit1
 EPD .F              5231:   Elevation Permanent Datum
 LMF .                 KB:   Log Measured From
 DMF .                 KB:   Drilling Measured From
 TLI .F               228:   Top log interval
~OTHER INFORMATION
~A   DEPT       CORR       CALD      GRD         RHOB       NPHI      SPR       SGRD        ILD        ILM   
# ...
 2479.0000     0.0130     9.3190   133.8900     2.5430     0.2900   -57.8380     6.1000     7.7370     7.4080
 2479.5000     0.0170     9.3210   131.9170     2.5460     0.2880   -58.0030     6.0890     7.7360     7.5950
 2480.0000     0.0120     9.3240   130.3440     2.5390     0.2860   -58.1690     6.0790     7.7350     7.5470
 2480.5000     0.0060     9.3270   130.4850     2.5320     0.2870   -58.3350     6.0680     7.7310     7.4430
 2481.0000     0.0020     9.3290   131.3250     2.5250     0.2870   -58.5010     6.0580     7.7440     7.3390
 2481.5000     0.0020     9.3320   130.0350     2.5180     0.2860   -58.6670     6.0470     7.5950     7.2360
 2482.0000     0.0030     9.3340   128.7770     2.5110     0.2850   -58.8330     6.0370     7.4550     7.1320
 2482.5000     0.0050     9.3370   129.0020     2.5120     0.2840   -58.9990     6.0270     7.4070     7.0280
 2483.0000     0.0060     9.3390   130.0210     2.5160     0.2830   -59.1650     5.9840     7.2960     6.9250
 2483.5000     0.0080     9.3420   131.0500     2.5130     0.2810   -59.3310     5.9360     7.1860     6.8210
 2484.0000     0.0100     9.3440   132.0820     2.5140     0.2780   -59.4980     5.8880     7.0760     6.7170
 2484.5000     0.0120     9.3470   133.1130     2.5180     0.2810   -59.6730     5.8400     6.9660     6.6130
 2485.0000     0.0140     9.3490   134.1450     2.5230     0.2840   -59.9030     5.7920     6.8560     6.5100
 2485.5000     0.0170     9.3520   135.1240     2.5220     0.2860   -60.2190     5.7440     6.7460     6.4060
 2486.0000     0.0160     9.3540   135.5230     2.5200     0.2880   -60.5160     5.6960     6.6350     6.3020
 2486.5000     0.0150     9.3570   135.8960     2.5180     0.2880   -60.8100     5.6480     6.5480     6.1370
 2487.0000     0.0130     9.3600   136.2710     2.5170     0.2900   -61.1060     5.6000     6.9400     6.1710
 2487.5000     0.0110     9.3620   136.6450     2.5170     0.2930   -61.4020     5.5520     7.2510     6.2540
 2488.0000     0.0090     9.3650   137.0200     2.5160     0.2950   -61.6980     5.5050     7.1010     6.3370
 2488.5000     0.0080     9.3670   137.4090     2.5080     0.2970   -61.9940     5.4570     6.9770     6.4200
 2489.0000     0.0080     9.3700   137.4470     2.5000     0.2990   -62.1050     5.4090     6.8530     6.4880
 2489.5000     0.0090     9.3720   137.1240     2.4920     0.3010   -61.8790     5.3610     6.7280     6.3600
 2490.0000     0.0110     9.3750   136.8020     2.4880     0.3040   -61.7840     5.3130     6.6040     6.2520
 2490.5000     0.0120     9.3770   136.4810     2.4940     0.3060   -61.6950     5.2650     6.4800     6.1440
 2491.0000     0.0230     9.3800   136.1690     2.5010     0.3060   -61.6070     5.2170     6.3550     6.0360
 2491.5000     0.0320     9.3830   136.1060     2.5050     0.3040   -61.5190     5.1690     6.2520     5.9280
 2492.0000     0.0270     9.3800   136.8920     2.5070     0.3030   -61.4310     5.1210     6.1100     5.8200
 2492.5000     0.0220     9.3750   137.6550     2.5010     0.3040   -61.3440     5.0730     6.0750     5.7300
 2493.0000     0.0180     9.3710   138.4160     2.4930     0.3070   -61.2560     4.9820     6.0400     5.6690
 2493.5000     0.0130     9.3660   139.1780     2.4850     0.3040   -61.1680     4.8560     5.9640     5.6090
 2494.0000     0.0080     9.3610   139.9400     2.4770     0.3010   -61.0800     4.7310     5.7930     5.4240
 2494.5000     0.0080     9.3570   140.7020     2.4750     0.3000   -60.9920     4.6060     5.6230     5.1990
 2495.0000     0.0120     9.3520   141.4620     2.4810     0.2990   -60.9040     4.4800     5.4520     4.9730
 2495.5000     0.0160     9.3470   142.2270     2.4900     0.2980   -60.8160     4.3550     5.2810     4.7880
 2496.0000     0.0210     9.3420   143.3370     2.4980     0.2980   -60.7280     4.2290     5.0990     4.8530
 2496.5000     0.0250     9.3380   144.4930     2.5030     0.2950   -60.6410     4.1280     5.1930     4.9190
 2497.0000     0.0280     9.3330   145.6470     2.5030     0.2920   -60.5530     4.1860     5.2810     4.9850
 2497.5000     0.0250     9.3280   146.7790     2.4930     0.2880   -60.4650     4.2450     5.3680     5.0500
 2498.0000     0.0220     9.3240   147.0580     2.4840     0.2880   -60.3770     4.3030     5.4560     5.1160
 2498.5000     0.0220     9.3190   146.2290     2.4750     0.2890   -60.2890     4.3620     5.5440     5.1820
 2499.0000     0.0260     9.3140   145.4070     2.4660     0.2910   -60.2010     4.4210     5.6320     5.2470
 2499.5000     0.0300     9.3100   144.5910     2.4560     0.2920   -60.1290     4.4790     5.7200     5.3130
 2500.0000     0.0340     9.3040   143.7800     2.4480     0.2920   -60.0900     4.5200     5.8080     5.3790
 2500.5000     0.0360     9.2870   142.9660     2.4340     0.2900   -60.0520     4.6350     5.8950     5.4440
 2501.0000     0.0350     9.2820   142.1280     2.4070     0.2910   -60.0130     4.7620     5.9830     5.5100
 2501.5000     0.0330     9.3280   141.9170     2.3750     0.2900   -59.9750     4.8900     6.0800     5.5760
 2502.0000     0.0320     9.3920   141.9110     2.3420     0.2880   -59.9380     5.0050     6.1550     5.6410
 2502.5000     0.0280     9.4550   142.1960     2.3110     0.2870   -59.8810     4.9940     6.1930     5.7070
 2503.0000     0.0140     9.5200   144.4580     2.2920     0.2850   -59.8270     4.9830     6.2300     5.7730
 2503.5000    -0.0010     9.4500   146.7400     2.3260     0.2860   -59.7730     4.9730     6.2670     5.8380
 2504.0000    -0.0110     9.2850   149.0210     2.4350     0.2870   -59.7190     4.9630     6.3050     5.9560
 2504.5000     0.0170     9.3030   151.3570     2.5220     0.2850   -59.6650     4.9520     6.3420     6.0970
 2505.0000     0.0190     9.3030   151.8670     2.5160     0.2820   -59.6110     4.9420     6.3690     6.2380
 2505.5000     0.0160     9.3030   150.8130     2.5080     0.2780   -59.5550     4.9320     6.3690     6.3690
 2506.0000     0.0130     9.3030   149.6410     2.5010     0.2820   -59.5390     4.9200     6.4870     6.0450
 2506.5000     0.0110     9.3030   148.4910     2.4930     0.2780   -59.5480     4.9130     6.7340     5.6460
 2507.0000     0.0100     9.3030   147.6990     2.4910     0.2780   -59.5920     5.0050     6.9810     5.8880
 2507.5000     0.0100     9.3030   149.1790     2.4910     0.2780   -59.6360     5.1730     7.2290     6.2490
 2508.0000     0.0100     9.3030   149.5720     2.4910     0.2830   -59.6790     5.3410     7.4760     6.6090
 2508.5000     0.0120     9.3030   147.2290     2.4910     0.2860   -59.7230     5.5090     7.7230     6.9690
 2509.0000     0.0140     9.3030   144.9040     2.4910     0.2860   -59.7660     5.6770     7.9550     7.3290
 2509.5000     0.0170     9.3030   142.6290     2.4900     0.2850   -59.8100     5.8450     8.0080     7.6170
 2510.0000     0.0200     9.3030   140.6640     2.4920     0.2840   -59.8530     6.0130     8.0710     7.7010
 2510.5000     0.0230     9.3030   142.0170     2.4950     0.2800   -59.8970     6.1810     8.1330     7.7850
 2511.0000     0.0260     9.3050   144.1860     2.4990     0.2770   -59.9400     6.3490     8.1790     7.8690
 2511.5000     0.0290     9.2660   145.4760     2.5050     0.2730   -59.9840     6.5170     8.1310     7.6990
 2512.0000     0.0330     9.2190   143.8420     2.5110     0.2710   -60.0270     6.6090     7.9440     7.5310
 2512.5000     0.0360     9.1730   142.1560     2.5170     0.2710   -60.0700     6.4250     7.7560     7.3630
 2513.0000     0.0380     9.1000   141.0690     2.5230     0.2700   -60.1130     6.2770     7.5690     7.1950
 2513.5000     0.0380     9.1040   142.8380     2.5240     0.2700   -60.1410     6.1370     7.3810     7.0280
 2514.0000     0.0380     9.1040   144.9360     2.5220     0.2690   -60.1200     6.0240     7.1940     6.8600
 2514.5000     0.0400     9.1030   147.0480     2.5160     0.2730   -60.0940     5.9690     7.0090     6.7330
 2515.0000     0.0420     9.1140   148.7170     2.5110     0.2760   -60.0690     5.9540     7.0880     6.8270
