~VERSION INFORMATION
 VERS.                2.0:   CWLS LOG ASCII STANDARD - VERSION 2.0
 WRAP.                 NO:   ONE LINE PER DEPTH STEP
~WELL INFORMATION
#MNEM.UNIT      DATA TYPE    INFORMATION
#----------   ------------   ------------------------------
 STRT.F          216.0000:   START DEPTH
 STOP.F         3350.0000:   STOP DEPTH
 STEP.F            0.5000:   STEP LENGTH
 NULL.          -999.2500:   NO VALUE
 COMP.    FENIX & SCISSON:   COMPANY
 WELL. FENIX 52 "AX" #3-15:   WELL
 FLD .              N P R:   FIELD
 LOC .      S15 T38N R78W:   LOCATION
 CNTY.            NATRONA:   COUNTY
 STAT.            WYOMING:   STATE
 CTRY. UNITED STATES OF AMERICA:   COUNTRY
 SRVC.              WELEX:   SERVICE COMPANY
 DATE.        13-AUG-1977:   LOGDATE
 API .     49025104110000:   API NUMBER
~CURVE INFORMATION
#MNEM.UNIT       API CODE    CURVE DESCRIPTION
#----------   ------------   ------------------------------
 DEPT.F                  :   
 CORR.G/C3   45 356 01 00:   DENSITY CORRECTION
 CALD.IN     45 280 60 00:   CALIPER FROM DENSITY LOG
 GRD .GAPI   45 310 01 00:   GAMMA RAY FROM DENSITY LOG
 RHOB.G/C3   45 350 01 00:   BULK DENSITY
 NPHI.DEC    42 890 03 00:   NEUTRON POROSITY SANDSTONE
 SPR .MV     07 010 01 00:   SPONTANEOUS POTENTIAL
 SGRD.OHMM   07 220 05 00:   SHALLOW SHORT GUARD RESISTIVITY
 ILD .OHMM   07 120 46 00:   DEEP INDUCTION RESISTIVITY
 ILM .OHMM   07 120 44 00:   INDUCTION LOG MEDIUM RESISTIVITY
~PARAMETER INFORMATION
#MNEM.UNIT          VALUE    DESCRIPTION
#----------   ------------   ------------------------------
 EKB .F         5241.0000:   Kelly bushing
 EGL .F         5231.0000:   Ground level
 TD  .F         3352.0000:   Total depth
 DATE.        13-AUG-1977:   Date logged
 CLNT.            A2DTECH:   Client Code
 SL  . 940' FNL & 2310' FEL:   Surface Location
 PD  .                 GL:   Permanent Datum
 DD  .F              3350:   Depth driller
 DL  .F              3352:   Depth logger
 BLI .F              3350:   Bottom log interval
 CS1 .IN            8.625:   Casing size
 CBD1.      8.625" @ 227':   Casing driller 1
 CBL1.F               228:   Casing logger 1
 BS1 .IN            7.875:   Bit size
 DFT .          KCL WATER:   Type fluid in hole
 DFD .                8.9:   Density
 DFV .                 41:   Viscosity
 DFPH.                 11:   pH
 DFL .               17.2:   Fluid loss
 MSS .            MUD PIT:   Source of sample
 RMS .OHMM           .172:   Rm
 MST .F                74:   Rm Meas. temp.
 RMF .OHMM           .203:   Rmf
 MFST.F                74:   Rmf Meas. temp.
 RMC .OHMM           .220:   Rmc
 MCST.F                74:   Rmc Meas. temp.
 MFSS.               MEAS:   Source Rmf.
 RMB .OHMM           .105:   Rm. at BHT
 BHT .F               121:   BHT.
 TCS .HRS               4:   Time Circ. stopped
 MRT .F               121:   Maximum recorded temp.
 LUN .               9685:   Logging unit number
 LUL .             CASPER:   Logging unit location
 ENGI.             JOYNER:   Recorded By
 WITN.         PETTINGILL:   Witnessed by
 ORIG.           5" PRINT:   Origin of data
 UWI .     49025104110000:   Unique Well ID
 DICO. A2D TECHNOLOGIES, INC.:   Digitizing Company
 DAPD.F                10:   Feet Above Permanent Datum
 BSD1.F              3350:   Depth drilled with bit1
 EPD .F              5231:   Elevation Permanent Datum
 LMF .                 KB:   Log Measured From
 DMF .                 KB:   Drilling Measured From
 TLI .F               228:   Top log interval
~OTHER INFORMATION
~A   DEPT       CORR       CALD      GRD         RHOB       NPHI      SPR       SGRD        ILD        ILM   
# ...
  617.5000     0.0300     9.9460   107.3450     2.4510     0.2190   -52.0620     6.7440     8.1940     7.4010
  618.0000     0.0300     9.9430   107.5930     2.4480     0.2230   -52.3380     6.7470     7.9450     7.3320
  618.5000     0.0310     9.9460   109.4380     2.4340     0.2270   -52.6160     6.5750     7.6690     7.2330
  619.0000     0.0310     9.9610   111.2530     2.4120     0.2300   -52.8930     6.3830     7.3920     7.1340
  619.5000     0.0320     9.9620   113.0660     2.3890     0.2290   -53.1700     6.0950     7.1990     7.0350
  620.0000     0.0320     9.9620   114.8340     2.3660     0.2340   -53.4170     6.1310     7.2180     6.9360
  620.5000     0.0310     9.9620   115.0890     2.3440     0.2360   -53.4230     6.2020     7.2340     6.8370
  621.0000     0.0220     9.9620   113.1910     2.3210     0.2380   -53.4700     6.2560     7.2490     6.7470
  621.5000     0.0100     9.9620   111.2890     2.2980     0.2400   -53.5160     6.0260     7.2660     6.6080
  622.0000    -0.0030     9.9620   109.4190     2.2870     0.2420   -53.5620     5.8740     7.1250     6.4820
  622.5000    -0.0150     9.9620   109.1810     2.3440     0.2390   -53.6080     5.9910     6.9250     6.3550
  623.0000    -0.0030     9.9620   109.2540     2.4340     0.2350   -53.5930     6.1220     6.7240     6.1600
  623.5000     0.0040     9.9620   109.4170     2.4710     0.2330   -53.4820     6.2660     6.4330     5.8720
  624.0000     0.0030     9.9620   109.6770     2.4650     0.2330   -53.2590     5.9720     6.0520     5.5020
  624.5000     0.0000     9.9620   110.2970     2.4580     0.2300   -53.2170     5.6340     5.6710     5.1310
  625.0000    -0.0030     9.9620   111.4030     2.4500     0.2300   -53.2180     5.2570     5.3110     4.7610
  625.5000    -0.0060     9.9620   113.3980     2.4430     0.2320   -53.2190     4.9270     4.9610     4.3910
  626.0000    -0.0090     9.9620   114.6590     2.4360     0.2340   -53.2190     4.1960     4.5760     4.0580
  626.5000    -0.0120     9.9620   111.2170     2.4350     0.2290   -53.2190     3.5650     4.3700     4.9630
  627.0000    -0.0090     9.9620   111.3720     2.4400     0.2290   -53.2190     5.0640     4.2100     5.7860
  627.5000    -0.0060     9.9620   113.1730     2.4450     0.2290   -53.2190     6.9370     4.5500     6.6100
  628.0000    -0.0020     9.9620   111.9690     2.4500     0.2270   -53.1900     7.4940     4.8120     7.6800
  628.5000     0.0000     9.9620   109.8020     2.4550     0.2250   -53.1580     7.7710     5.0730     7.6350
  629.0000     0.0000     9.9620   107.6080     2.4600     0.2270   -53.1250     8.0440     5.3340     7.5710
  629.5000    -0.0010     9.9620   105.4070     2.4650     0.2290   -53.0930     8.0630     5.5960     7.5070
  630.0000    -0.0010     9.9620   104.3690     2.4700     0.2270   -53.0600     8.0810     5.8570     7.4420
  630.5000    -0.0020     9.9620   104.3050     2.4750     0.2230   -53.0250     8.0990     6.1190     7.3780
  631.0000    -0.0020     9.9620   104.2420     2.4800     0.2210   -52.9750     8.1180     6.3800     7.3330
  631.5000     0.0000     9.9620   104.1850     2.4830     0.2210   -52.8010     8.1580     6.5820     7.4890
  632.0000     0.0040     9.9620   104.1280     2.4840     0.2220   -52.4980     8.2150     6.6470     7.6090
  632.5000     0.0060     9.9620   104.0700     2.4840     0.2200   -52.2570     8.2710     6.7120     7.7290
  633.0000     0.0040     9.9780   104.0110     2.4760     0.2190   -52.0170     8.3280     6.7760     7.8490
  633.5000     0.0020     9.9950   103.9530     2.4690     0.2180   -51.7800     8.3850     6.8410     7.9700
  634.0000    -0.0010    10.0120   103.8950     2.4620     0.2170   -51.6060     8.4430     6.9060     8.0900
  634.5000    -0.0030    10.0280   103.8370     2.4540     0.2140   -51.5730     8.5050     6.9710     8.2100
  635.0000    -0.0040    10.0430   103.7790     2.4480     0.2110   -51.5320     8.5670     7.0350     8.3090
  635.5000    -0.0010    10.0450   103.7210     2.4530     0.2100   -51.4910     8.6290     7.1000     8.3870
  636.0000     0.0010    10.0470   103.6630     2.4610     0.2080   -51.4500     8.6910     7.1320     8.4650
  636.5000     0.0030    10.0500   103.6040     2.4700     0.2100   -51.4080     8.7530     7.1320     8.5810
  637.0000     0.0060    10.0530   103.5930     2.4730     0.2130   -51.3670     8.8150     7.1320     8.5580
  637.5000     0.0080    10.0550   103.5930     2.4750     0.2150   -51.3260     8.8760     7.1320     8.5110
  638.0000     0.0100    10.0580   103.5890     2.4810     0.2130   -51.2850     8.9380     7.1320     8.4630
  638.5000     0.0120    10.0600   103.9420     2.4930     0.2160   -51.2440     9.0000     7.1320     8.4160
  639.0000     0.0120    10.0630   104.5150     2.4980     0.2180   -51.2090     9.0620     7.1320     8.3690
  639.5000     0.0100    10.0650   105.0750     2.4930     0.2150   -51.2790     9.1550     7.1320     8.3210
  640.0000     0.0070    10.0680   106.6250     2.4860     0.2200   -51.3580     9.1210     7.1320     8.2740
  640.5000     0.0040    10.0710   107.2260     2.4800     0.2120   -51.4380     9.0510     7.1320     8.2270
  641.0000     0.0020    10.0730   107.9570     2.4740     0.2120   -51.5170     8.9810     7.1320     8.1710
  641.5000     0.0020    10.0760   108.7270     2.4740     0.2130   -51.5960     8.9050     7.1320     8.0970
  642.0000     0.0020    10.0780   109.4910     2.4730     0.2140   -51.6760     9.0000     7.1320     8.0230
  642.5000     0.0020    10.0810   110.2520     2.4670     0.2170   -51.7550     9.1050     7.1320     7.9490
  643.0000     0.0020    10.0820   111.0140     2.4640     0.2190   -51.8100     9.2100     7.1320     7.8750
  643.5000     0.0020    10.0830   111.7760     2.4640     0.2190   -51.6560     9.3260     7.1330     7.8230
  644.0000     0.0020    10.0840   112.5380     2.4630     0.2190   -51.6440     9.2930     7.1330     7.9660
  644.5000     0.0020    10.0850   113.3000     2.4620     0.2170   -51.7670     9.2400     7.0820     8.0440
  645.0000     0.0020    10.0860   114.0630     2.4610     0.2180   -51.8880     9.2100     7.0250     8.1220
  645.5000     0.0020    10.0870   114.8250     2.4610     0.2200   -52.0080     9.1750     6.9690     8.2000
  646.0000     0.0020    10.0880   115.5870     2.4660     0.2220   -52.1290     9.1410     6.9130     8.2700
  646.5000     0.0050    10.0890   116.3490     2.4760     0.2240   -52.2490     9.1070     6.8730     8.1850
  647.0000     0.0080    10.0900   117.1150     2.4870     0.2270   -52.3700     9.0730     6.9290     8.0640
  647.5000     0.0110    10.0910   117.8730     2.4970     0.2310   -52.4910     9.0390     6.9720     7.9430
  648.0000     0.0140    10.0920   117.9580     2.4990     0.2360   -52.6110     9.0050     7.0020     7.8210
  648.5000     0.0140    10.0930   117.6800     2.4970     0.2330   -52.7300     8.9880     6.9700     7.7000
  649.0000     0.0120    10.0940   116.5450     2.4910     0.2330   -52.7980     9.0370     6.9370     7.5790
  649.5000     0.0100    10.0950   115.4410     2.4850     0.2340   -52.7160     9.0710     6.8760     7.4700
  650.0000     0.0080    10.0960   114.3470     2.4790     0.2350   -52.6340     8.8830     6.8070     7.3490
  650.5000     0.0040    10.0970   113.5560     2.4770     0.2370   -52.7440     8.6740     6.7390     7.2390
  651.0000     0.0010    10.0980   113.6120     2.4770     0.2380   -52.9210     8.4660     6.6710     7.1290
  651.5000    -0.0020    10.0990   113.6870     2.4750     0.2390   -53.1000     8.2570     6.6020     7.0190
  652.0000    -0.0060    10.1000   113.7620     2.4670     0.2380   -53.2790     8.0480     6.5340     6.9090
  652.5000    -0.0090    10.1010   113.8380     2.4600     0.2380   -53.4590     7.8960     6.4650     6.8730
  653.0000    -0.0100    10.1020   113.9140     2.4590     0.2410   -53.6380     7.9590     6.2500     6.8730
  653.5000    -0.0100    10.1030   113.9890     2.4640     0.2420   -53.8180     8.0080     6.0950     6.8730
