~VERSION INFORMATION
 VERS.                2.0:   CWLS LOG ASCII STANDARD - VERSION 2.0
 WRAP.                 NO:   ONE LINE PER DEPTH STEP
~WELL INFORMATION
#MNEM.UNIT      DATA TYPE    INFORMATION
#----------   ------------   ------------------------------
 STRT.F          216.0000:   START DEPTH
 STOP.F         3350.0000:   STOP DEPTH
 STEP.F            0.5000:   STEP LENGTH
 NULL.          -999.2500:   NO VALUE
 COMP.    FENIX & SCISSON:   COMPANY
 WELL. FENIX 52 "AX" #3-15:   WELL
 FLD .              N P R:   FIELD
 LOC .      S15 T38N R78W:   LOCATION
 CNTY.            NATRONA:   COUNTY
 STAT.            WYOMING:   STATE
 CTRY. UNITED STATES OF AMERICA:   COUNTRY
 SRVC.              WELEX:   SERVICE COMPANY
 DATE.        13-AUG-1977:   LOGDATE
 API .     49025104110000:   API NUMBER
~CURVE INFORMATION
#MNEM.UNIT       API CODE    CURVE DESCRIPTION
#----------   ------------   ------------------------------
 DEPT.F                  :   
 CORR.G/C3   45 356 01 00:   DENSITY CORRECTION
 CALD.IN     45 280 60 00:   CALIPER FROM DENSITY LOG
 GRD .GAPI   45 310 01 00:   GAMMA RAY FROM DENSITY LOG
 RHOB.G/C3   45 350 01 00:   BULK DENSITY
 NPHI.DEC    42 890 03 00:   NEUTRON POROSITY SANDSTONE
 SPR .MV     07 010 01 00:   SPONTANEOUS POTENTIAL
 SGRD.OHMM   07 220 05 00:   SHALLOW SHORT GUARD RESISTIVITY
 ILD .OHMM   07 120 46 00:   DEEP INDUCTION RESISTIVITY
 ILM .OHMM   07 120 44 00:   INDUCTION LOG MEDIUM RESISTIVITY
~PARAMETER INFORMATION
#MNEM.UNIT          VALUE    DESCRIPTION
#----------   ------------   ------------------------------
 EKB .F         5241.0000:   Kelly bushing
 EGL .F         5231.0000:   Ground level
 TD  .F         3352.0000:   Total depth
 DATE.        13-AUG-1977:   Date logged
 CLNT.            A2DTECH:   Client Code
 SL  . 940' FNL & 2310' FEL:   Surface Location
 PD  .                 GL:   Permanent Datum
 DD  .F              3350:   Depth driller
 DL  .F              3352:   Depth logger
 BLI .F              3350:   Bottom log interval
 CS1 .IN            8.625:   Casing size
 CBD1.      8.625" @ 227':   Casing driller 1
 CBL1.F               228:   Casing logger 1
 BS1 .IN            7.875:   Bit size
 DFT .          KCL WATER:   Type fluid in hole
 DFD .                8.9:   Density
 DFV .                 41:   Viscosity
 DFPH.                 11:   pH
 DFL .               17.2:   Fluid loss
 MSS .            MUD PIT:   Source of sample
 RMS .OHMM           .172:   Rm
 MST .F                74:   Rm Meas. temp.
 RMF .OHMM           .203:   Rmf
 MFST.F                74:   Rmf Meas. temp.
 RMC .OHMM           .220:   Rmc
 MCST.F                74:   Rmc Meas. temp.
 MFSS.               MEAS:   Source Rmf.
 RMB .OHMM           .105:   Rm. at BHT
 BHT .F               121:   BHT.
 TCS .HRS               4:   Time Circ. stopped
 MRT .F               121:   Maximum recorded temp.
 LUN .               9685:   Logging unit number
 LUL .             CASPER:   Logging unit location
 ENGI.             JOYNER:   Recorded By
 WITN.         PETTINGILL:   Witnessed by
 ORIG.           5" PRINT:   Origin of data
 UWI .     49025104110000:   Unique Well ID
 DICO. A2D TECHNOLOGIES, INC.:   Digitizing Company
 DAPD.F                10:   Feet Above Permanent Datum
 BSD1.F              3350:   Depth drilled with bit1
 EPD .F              5231:   Elevation Permanent Datum
 LMF .                 KB:   Log Measured From
 DMF .                 KB:   Drilling Measured From
 TLI .F               228:   Top log interval
~OTHER INFORMATION
~A   DEPT       CORR       CALD      GRD         RHOB       NPHI      SPR       SGRD        ILD        ILM   
# ...
 1676.0000     0.0280     9.2430   118.7700     2.5130     0.3130   -60.6190     8.0760     5.8840     6.9870
 1676.5000     0.0300     9.2600   119.7420     2.5000     0.3150   -60.6290     8.1100     5.8570     6.9870
 1677.0000     0.0290     9.2750   120.7160     2.4880     0.3140   -60.6390     8.1450     5.9140     6.9870
 1677.5000     0.0210     9.2900   120.4250     2.4750     0.3130   -60.6490     8.1790     5.9920     6.9870
 1678.0000     0.0160     9.3050   120.0460     2.4640     0.3150   -60.6590     8.2130     6.1370     7.1940
 1678.5000     0.0190     9.3200   119.9840     2.4760     0.3200   -60.6700     8.2470     6.1370     7.4630
 1679.0000     0.0320     9.3350   119.1920     2.4930     0.3170   -60.6800     8.3850     6.1450     7.7330
 1679.5000     0.0370     9.3500   118.1960     2.5090     0.3200   -60.6900     8.5570     6.1560     8.0020
 1680.0000     0.0420     9.3650   117.1820     2.5250     0.3220   -60.7000     8.8080     6.1670     8.1790
 1680.5000     0.0470     9.3800   116.7550     2.5370     0.3160   -60.7100     8.6900     6.1780     7.9470
 1681.0000     0.0530     9.3820   117.2560     2.5410     0.3190   -60.7200     8.4710     6.1890     7.7430
 1681.5000     0.0580     9.3800   117.8760     2.5460     0.3170   -60.7290     8.2520     6.2000     7.5390
 1682.0000     0.0530     9.3780   118.7760     2.5510     0.3210   -60.7410     8.0320     6.2110     7.3180
 1682.5000     0.0460     9.3760   118.9770     2.5440     0.3190   -60.7620     7.8810     6.2220     7.1800
 1683.0000     0.0390     9.3740   118.5550     2.5320     0.3190   -60.3220     7.8810     6.2330     7.0520
 1683.5000     0.0310     9.3730   118.1210     2.5300     0.3160   -60.1210     7.9550     6.2440     7.2190
 1684.0000     0.0300     9.3710   117.6880     2.5260     0.3210   -60.1390     8.0830     6.2520     7.4560
 1684.5000     0.0300     9.3690   117.2570     2.5230     0.3160   -60.2190     8.2010     5.8460     7.6940
 1685.0000     0.0370     9.3670   116.8270     2.5190     0.3190   -60.3550     8.3180     5.5320     7.9310
 1685.5000     0.0440     9.3650   116.7470     2.5160     0.3190   -60.4910     8.4880     5.2180     8.1040
 1686.0000     0.0500     9.3640   117.7780     2.5210     0.3200   -60.6280     8.5670     5.0520     8.0760
 1686.5000     0.0570     9.3830   119.2860     2.5270     0.3220   -60.7710     8.3170     5.7320     8.0550
 1687.0000     0.0640     9.4060   120.8890     2.5320     0.3230   -60.9360     7.7370     5.9690     8.0340
 1687.5000     0.0710     9.4280   121.3260     2.5350     0.3220   -60.8970     7.8480     5.7410     8.0130
 1688.0000     0.0720     9.4510   117.3730     2.5310     0.3210   -60.9490     8.0940     5.5940     7.9920
 1688.5000     0.0560     9.4740   117.1410     2.5220     0.3200   -60.9470     8.3400     5.8440     7.9700
 1689.0000     0.0390     9.4960   117.2380     2.5130     0.3200   -60.9440     8.7270     6.0240     7.9490
 1689.5000     0.0230     9.5190   117.3960     2.5030     0.3190   -60.9440     8.5300     5.9380     7.9280
 1690.0000     0.0120     9.5420   117.5750     2.5080     0.3170   -60.9440     8.0700     5.8330     7.9070
 1690.5000     0.0120     9.5090   117.9570     2.5190     0.3190   -60.9440     7.5250     5.6980     7.8850
 1691.0000     0.0130     9.4730   117.9130     2.5210     0.3160   -60.9430     7.9150     5.7520     7.8640
 1691.5000     0.0140     9.4370   117.5940     2.5230     0.3120   -60.9430     8.8080     5.9150     7.8430
 1692.0000     0.0140     9.4010   117.2700     2.5250     0.3140   -60.8940     8.6270     6.0300     7.8220
 1692.5000     0.0140     9.3660   116.9470     2.5250     0.3130   -60.7840     8.3260     6.0610     7.7810
 1693.0000     0.0140     9.3540   116.6260     2.5250     0.3140   -60.5390     8.0240     6.0910     7.6650
 1693.5000     0.0140     9.3850   116.3600     2.5240     0.3140   -60.5480     7.5950     6.1220     7.5950
 1694.0000     0.0140     9.4150   116.5200     2.5220     0.3140   -60.6190     8.6470     6.1520     7.4550
 1694.5000     0.0220     9.4450   117.3330     2.5200     0.3140   -60.6940     8.5240     6.1830     7.4250
 1695.0000     0.0310     9.4620   118.1380     2.5250     0.3160   -60.7700     8.3090     6.2140     7.3870
 1695.5000     0.0400     9.4430   118.9550     2.5320     0.3190   -60.8450     8.0930     6.2440     7.3480
 1696.0000     0.0490     9.4220   120.0210     2.5280     0.3210   -60.9210     7.8780     6.2520     7.3100
 1696.5000     0.0570     9.4020   120.2080     2.5200     0.3210   -60.9970     7.7370     6.2520     7.2710
 1697.0000     0.0660     9.3820   119.5200     2.5120     0.3180   -61.0720     8.5660     6.2520     7.2330
 1697.5000     0.0750     9.3640   118.8500     2.5030     0.3180   -61.1480     9.2260     6.2470     7.1940
 1698.0000     0.0840     9.3780   118.3530     2.5010     0.3140   -61.2240     9.3990     6.2100     7.1560
 1698.5000     0.0920     9.3910   119.1760     2.5010     0.3090   -61.2990     9.0090     6.1720     7.1170
 1699.0000     0.1010     9.4050   119.9670     2.5020     0.3070   -61.3750     8.5870     6.1350     7.0790
 1699.5000     0.1090     9.4190   120.3210     2.4990     0.3060   -61.4510     8.1650     6.0980     6.9870
 1700.0000     0.1110     9.4320   119.4860     2.4870     0.3070   -61.5260     7.9550     6.0600     6.9870
 1700.5000     0.0930     9.4460   118.6740     2.4760     0.3090   -61.6020     8.1920     6.0230     6.9770
 1701.0000     0.0750     9.4600   117.8650     2.4640     0.3100   -61.6770     8.4920     5.9860     6.9670
 1701.5000     0.0570     9.4730   117.0550     2.4580     0.3060   -61.7460     8.8900     5.9480     6.9580
 1702.0000     0.0400     9.4870   116.3870     2.4870     0.3060   -61.7470     8.8220     5.9140     6.9480
 1702.5000     0.0280     9.5010   117.5970     2.5120     0.3130   -61.7470     8.7220     5.9820     6.9390
 1703.0000     0.0280     9.5140   118.9180     2.5290     0.3170   -61.7470     8.4050     6.0450     6.9300
 1703.5000     0.0290     9.5280   120.2340     2.5300     0.3170   -61.7470     7.4560     6.0800     6.9230
 1704.0000     0.0300     9.5410   121.5420     2.5290     0.3190   -61.7470     6.7330     6.0090     6.7490
 1704.5000     0.0320     9.5550   122.3600     2.5300     0.3190   -61.7470     7.1100     5.9450     6.6940
 1705.0000     0.0320     9.5690   121.9200     2.5230     0.3210   -61.7470     7.4160     5.8800     6.6380
 1705.5000     0.0320     9.5820   120.8010     2.5140     0.3230   -61.7470     7.7210     5.8160     6.5830
 1706.0000     0.0320     9.5960   119.6900     2.5060     0.3230   -61.7470     8.0260     5.7520     6.5280
 1706.5000     0.0320     9.6100   118.5800     2.4990     0.3260   -61.7470     8.3320     5.8050     6.4730
 1707.0000     0.0340     9.6230   117.4680     2.4990     0.3260   -61.7470     7.9470     5.7520     6.4170
 1707.5000     0.0460     9.6010   116.3090     2.5000     0.3290   -61.7470     7.5600     5.7870     6.3620
 1708.0000     0.0580     9.5850   115.9780     2.5000     0.3300   -61.7470     7.3060     5.8160     6.3070
 1708.5000     0.0690     9.6430   115.9650     2.5010     0.3290   -61.7470     7.2740     5.8460     6.2520
 1709.0000     0.0810     9.7010   115.9670     2.5020     0.3290   -61.7470     7.2420     5.9140     6.1940
 1709.5000     0.0930     9.7440   115.9680     2.5030     0.3230   -61.7480     7.2100     5.9100     6.1940
 1710.0000     0.0880     9.7430   115.9680     2.4820     0.3190   -61.7540     7.1780     5.8840     6.2520
 1710.5000     0.0720     9.7420   115.9680     2.4610     0.3190   -61.7600     7.1460     5.8580     6.2520
 1711.0000     0.0570     9.7430   115.9680     2.4560     0.3180   -61.7660     7.1180     5.8320     6.2520
 1711.5000     0.0410     9.7430   115.9680     2.4870     0.3160   -61.7710     7.1910     5.8060     6.2520
 1712.0000     0.0330     9.7430   115.9680     2.5170     0.3140   -61.7770     7.2710     5.7800     6.2770
