~VERSION INFORMATION
 VERS.                2.0:   CWLS LOG ASCII STANDARD - VERSION 2.0
 WRAP.                 NO:   ONE LINE PER DEPTH STEP
~WELL INFORMATION
#MNEM.UNIT      DATA TYPE    INFORMATION
#----------   ------------   ------------------------------
 STRT.F          216.0000:   START DEPTH
 STOP.F         3350.0000:   STOP DEPTH
 STEP.F            0.5000:   STEP LENGTH
 NULL.          -999.2500:   NO VALUE
 COMP.    FENIX & SCISSON:   COMPANY
 WELL. FENIX 52 "AX" #3-15:   WELL
 FLD .              N P R:   FIELD
 LOC .      S15 T38N R78W:   LOCATION
 CNTY.            NATRONA:   COUNTY
 STAT.            WYOMING:   STATE
 CTRY. UNITED STATES OF AMERICA:   COUNTRY
 SRVC.              WELEX:   SERVICE COMPANY
 DATE.        13-AUG-1977:   LOGDATE
 API .     49025104110000:   API NUMBER
~CURVE INFORMATION
#MNEM.UNIT       API CODE    CURVE DESCRIPTION
#----------   ------------   ------------------------------
 DEPT.F                  :   
 CORR.G/C3   45 356 01 00:   DENSITY CORRECTION
 CALD.IN     45 280 60 00:   CALIPER FROM DENSITY LOG
 GRD .GAPI   45 310 01 00:   GAMMA RAY FROM DENSITY LOG
 RHOB.G/C3   45 350 01 00:   BULK DENSITY
 NPHI.DEC    42 890 03 00:   NEUTRON POROSITY SANDSTONE
 SPR .MV     07 010 01 00:   SPONTANEOUS POTENTIAL
 SGRD.OHMM   07 220 05 00:   SHALLOW SHORT GUARD RESISTIVITY
 ILD .OHMM   07 120 46 00:   DEEP INDUCTION RESISTIVITY
 ILM .OHMM   07 120 44 00:   INDUCTION LOG MEDIUM RESISTIVITY
~PARAMETER INFORMATION
#MNEM.UNIT          VALUE    DESCRIPTION
#----------   ------------   ------------------------------
 EKB .F         5241.0000:   Kelly bushing
 EGL .F         5231.0000:   Ground level
 TD  .F         3352.0000:   Total depth
 DATE.        13-AUG-1977:   Date logged
 CLNT.            A2DTECH:   Client Code
 SL  . 940' FNL & 2310' FEL:   Surface Location
 PD  .                 GL:   Permanent Datum
 DD  .F              3350:   Depth driller
 DL  .F              3352:   Depth logger
 BLI .F              3350:   Bottom log interval
 CS1 .IN            8.625:   Casing size
 CBD1.      8.625" @ 227':   Casing driller 1
 CBL1.F               228:   Casing logger 1
 BS1 .IN            7.875:   Bit size
 DFT .          KCL WATER:   Type fluid in hole
 DFD .                8.9:   Density
 DFV .                 41:   Viscosity
 DFPH.                 11:   pH
 DFL .               17.2:   Fluid loss
 MSS .            MUD PIT:   Source of sample
 RMS .OHMM           .172:   Rm
 MST .F                74:   Rm Meas. temp.
 RMF .OHMM           .203:   Rmf
 MFST.F                74:   Rmf Meas. temp.
 RMC .OHMM           .220:   Rmc
 MCST.F                74:   Rmc Meas. temp.
 MFSS.               MEAS:   Source Rmf.
 RMB .OHMM           .105:   Rm. at BHT
 BHT .F               121:   BHT.
 TCS .HRS               4:   Time Circ. stopped
 MRT .F               121:   Maximum recorded temp.
 LUN .               9685:   Logging unit number
 LUL .             CASPER:   Logging unit location
 ENGI.             JOYNER:   Recorded By
 WITN.         PETTINGILL:   Witnessed by
 ORIG.           5" PRINT:   Origin of data
 UWI .     49025104110000:   Unique Well ID
 DICO. A2D TECHNOLOGIES, INC.:   Digitizing Company
 DAPD.F                10:   Feet Above Permanent Datum
 BSD1.F              3350:   Depth drilled with bit1
 EPD .F              5231:   Elevation Permanent Datum
 LMF .                 KB:   Log Measured From
 DMF .                 KB:   Drilling Measured From
 TLI .F               228:   Top log interval
~OTHER INFORMATION
~A   DEPT       CORR       CALD      GRD         RHOB       NPHI      SPR       SGRD        ILD        ILM   
  216.0000     0.0960     8.6850   114.3710     2.0920     0.2670  -999.2500  -999.2500  -999.2500  -999.2500
  216.5000     0.0960     9.0060   114.3370     2.0920     0.2660  -999.2500  -999.2500  -999.2500  -999.2500
  217.0000     0.0980     9.3440   113.1180     2.0920     0.2630  -999.2500  -999.2500  -999.2500  -999.2500
  217.5000     0.1050     9.5140   111.8990     2.0970     0.2600  -999.2500  -999.2500  -999.2500  -999.2500
  218.0000     0.1080     9.5620   110.9860     2.0950     0.2580  -999.2500  -999.2500  -999.2500  -999.2500
  218.5000     0.1080     9.6240   109.7700     2.0970     0.2560  -999.2500  -999.2500  -999.2500  -999.2500
  219.0000     0.1020     9.6810   108.5310     2.0990     0.2540  -999.2500  -999.2500  -999.2500  -999.2500
  219.5000     0.0800     9.9360   107.6660     2.1070     0.2560  -999.2500  -999.2500  -999.2500  -999.2500
  220.0000     0.0710    10.2490   107.5620     2.1640     0.2580    -1.5090     0.3370     4.2500     1.7010
  220.5000     0.0700    10.5640   108.1400     2.2620     0.2600    -1.5090     0.6830     4.2500     1.7010
  221.0000     0.0620    10.8780   108.8810     2.3480     0.2620    -1.5090     1.6990     4.2500     1.7010
  221.5000     0.0600    11.0970   109.6240     2.3400     0.2650    -1.5090     2.9580     4.2370     1.7050
  222.0000     0.0610    11.1210   110.3660     2.3260     0.2640    -1.5130     2.9490     4.2500     1.5890
  222.5000     0.0630    11.1150   111.1080     2.3110     0.2620    -1.5050     3.9440     4.4940     1.1600
  223.0000     0.0650    10.9010   111.8500     2.2960     0.2610    -1.4950     4.1580     4.7250     0.7310
  223.5000     0.0610    10.6750   112.5920     2.2880     0.2620    -1.7550     4.3720     4.9560     0.4520
  224.0000     0.0430    10.4500   113.3330     2.2920     0.2640    -7.1760     4.5860     5.1870     0.3530
  224.5000     0.0260    10.2240   114.0820     2.3480     0.2670   -10.8930     4.8000     5.4180     0.3870
  225.0000     0.0240    10.0010   114.2460     2.4080     0.2690   -14.0390     4.9690     5.6490     0.4880
  225.5000     0.0280     9.8170   114.0490     2.4490     0.2710   -16.7230     5.0730     5.8800     1.1630
  226.0000     0.0160     9.8220   113.8490     2.4440     0.2740   -19.4330     5.1770     6.1110     2.2170
  226.5000     0.0060     9.8260   113.6480     2.4370     0.2730   -22.1440     5.2810     6.4190     3.2710
  227.0000     0.0070     9.8440   113.4470     2.4300     0.2680   -24.8540     5.3850     6.8730     4.3240
  227.5000     0.0110     9.8610   113.2470     2.4370     0.2650   -27.5630     5.4880     6.5630     5.3430
  228.0000     0.0140     9.8790   113.0460     2.4480     0.2630   -30.2730     5.5570     6.5000     6.3330
  228.5000     0.0170     9.8960   112.8370     2.4590     0.2610   -32.9820     5.6820     6.4500     7.3230
  229.0000     0.0170     9.9140   112.7760     2.4690     0.2660   -35.6700     5.7130     6.9150     8.1940
  229.5000     0.0130     9.9310   112.7730     2.4680     0.2700   -38.2610     5.7170     7.3330     8.1940
  230.0000     0.0090     9.9490   112.7740     2.4620     0.2730   -39.7390     5.7250     7.5390     8.1940
  230.5000     0.0080     9.9660   113.0530     2.4560     0.2770   -41.2730     5.7340     7.6020     8.1180
  231.0000     0.0080     9.9840   113.3750     2.4540     0.2790   -42.8160     5.7420     7.6590     7.5080
  231.5000     0.0080    10.0020   113.6980     2.4690     0.2780   -44.3710     5.7500     7.7160     6.6240
  232.0000     0.0070    10.0190   114.0200     2.4780     0.2780   -45.9140     5.7580     7.7730     6.5020
  232.5000     0.0050    10.0350   114.3420     2.4600     0.2790   -47.6910     5.7660     7.8300     6.5020
  233.0000     0.0040    10.0720   114.6640     2.4410     0.2780   -49.4170     5.5720     7.8870     6.6240
  233.5000     0.0060    10.0820   114.9870     2.4220     0.2780   -50.6580     5.3550     7.9010     6.8100
  234.0000     0.0050    10.0690   115.3090     2.4030     0.2760   -50.9050     5.4710     7.9080     6.8730
  234.5000     0.0050    10.0500   115.6310     2.3990     0.2730   -51.1780     5.6120     7.9140     6.9370
  235.0000     0.0040    10.0310   115.9530     2.4010     0.2700   -51.4560     5.7530     7.9210     6.8730
  235.5000     0.0030    10.0130   116.2760     2.4080     0.2670   -51.7380     5.8940     7.9270     6.7470
  236.0000     0.0030     9.9940   116.5980     2.4140     0.2640   -52.0820     6.0350     7.9330     6.5630
  236.5000     0.0020     9.9750   116.9200     2.4190     0.2650   -52.6400     6.1520     7.9400     6.7180
  237.0000     0.0030     9.9560   117.2410     2.4180     0.2660   -53.1940     6.1260     7.9460     6.9180
  237.5000     0.0050     9.9380   117.5650     2.4250     0.2680   -53.7510     6.0570     7.9520     7.1180
  238.0000     0.0080     9.9220   117.9140     2.4430     0.2690   -54.3060     5.9830     7.9590     7.3180
  238.5000     0.0100     9.9220   117.2340     2.4470     0.2690   -54.8080     5.8740     7.9650     7.5180
  239.0000     0.0130     9.9220   116.2880     2.4420     0.2670   -55.5210     5.8810     7.9690     7.7180
  239.5000     0.0140     9.9220   115.3330     2.4370     0.2650   -56.5620     5.8880     7.9700     7.8680
  240.0000     0.0140     9.9220   114.3780     2.4410     0.2640   -57.6080     5.8960     7.9700     7.7740
  240.5000     0.0130     9.9130   113.4240     2.4540     0.2640   -58.6660     5.9040     7.8800     7.6090
  241.0000     0.0080     9.9040   112.4700     2.4550     0.2640   -59.0580     5.9120     7.6980     7.4440
  241.5000     0.0030     9.9070   111.5150     2.4440     0.2630   -59.0940     5.9190     7.5160     7.2790
  242.0000    -0.0020     9.9200   110.5640     2.4310     0.2630   -59.1270     5.9270     7.3350     7.1140
  242.5000    -0.0070     9.9330   110.3810     2.4280     0.2650   -59.1580     5.9110     7.1940     6.9490
  243.0000    -0.0070     9.9460   110.7560     2.4300     0.2670   -59.1880     5.8900     7.1770     6.7840
  243.5000    -0.0040     9.9590   112.4080     2.4350     0.2680   -59.2190     5.8700     7.1600     6.6190
  244.0000    -0.0010     9.9710   113.4240     2.4360     0.2670   -59.2510     5.8500     7.1430     6.4540
  244.5000     0.0000     9.9840   112.8200     2.4340     0.2670   -59.1680     5.8290     7.1320     6.3120
  245.0000     0.0020     9.9970   112.3970     2.4330     0.2670   -59.0580     5.8090     7.1320     6.2660
  245.5000     0.0030    10.0100   113.4130     2.4400     0.2660   -58.9470     5.7890     7.1100     6.2660
  246.0000     0.0070    10.0230   114.4240     2.4480     0.2630   -58.8360     5.7680     7.0810     6.2680
  246.5000     0.0080     9.9710   115.4280     2.4550     0.2660   -58.7250     5.7480     7.0530     6.2780
  247.0000     0.0080     9.8930   116.4330     2.4620     0.2650   -58.6140     5.7270     7.0250     6.2870
  247.5000     0.0080     9.8150   117.4380     2.4700     0.2670   -58.5030     5.7070     6.9960     6.2970
  248.0000     0.0130     9.7460   118.4370     2.4770     0.2690   -58.3920     5.6870     6.9680     6.3060
  248.5000     0.0090     9.7220   119.4230     2.4820     0.2690   -58.2780     5.6660     6.9370     6.3160
  249.0000     0.0040     9.7230   118.2850     2.4650     0.2690   -58.2510     5.6460     6.9340     6.3250
  249.5000     0.0050     9.7240   115.7180     2.4580     0.2720   -58.2500     5.6260     6.9300     6.3250
  250.0000     0.0080     9.7270   115.7120     2.4620     0.2740   -58.2460     5.6050     6.9260     6.3030
  250.5000     0.0120     9.7300   118.0710     2.4730     0.2770   -58.0340     5.5850     6.9220     6.2320
  251.0000     0.0150     9.7340   115.5920     2.4840     0.2750   -57.7950     5.5650     6.9190     6.1600
  251.5000     0.0180     9.7370   114.3920     2.4830     0.2740   -57.5560     5.5440     6.9150     6.0890
  252.0000     0.0190     9.7400   115.2660     2.4750     0.2720   -57.3170     5.5240     6.9110     6.0390
