~VERSION INFORMATION
 VERS.                2.0:   CWLS LOG ASCII STANDARD - VERSION 2.0
 WRAP.                 NO:   ONE LINE PER DEPTH STEP
~WELL INFORMATION
#MNEM.UNIT      DATA TYPE    INFORMATION
#----------   ------------   ------------------------------
 STRT.F          216.0000:   START DEPTH
 STOP.F         3350.0000:   STOP DEPTH
 STEP.F            0.5000:   STEP LENGTH
 NULL.          -999.2500:   NO VALUE
 COMP.    FENIX & SCISSON:   COMPANY
 WELL. FENIX 52 "AX" #3-15:   WELL
 FLD .              N P R:   FIELD
 LOC .      S15 T38N R78W:   LOCATION
 CNTY.            NATRONA:   COUNTY
 STAT.            WYOMING:   STATE
 CTRY. UNITED STATES OF AMERICA:   COUNTRY
 SRVC.              WELEX:   SERVICE COMPANY
 DATE.        13-AUG-1977:   LOGDATE
 API .     49025104110000:   API NUMBER
~CURVE INFORMATION
#MNEM.UNIT       API CODE    CURVE DESCRIPTION
#----------   ------------   ------------------------------
 DEPT.F                  :   
 CORR.G/C3   45 356 01 00:   DENSITY CORRECTION
 CALD.IN     45 280 60 00:   CALIPER FROM DENSITY LOG
 GRD .GAPI   45 310 01 00:   GAMMA RAY FROM DENSITY LOG
 RHOB.G/C3   45 350 01 00:   BULK DENSITY
 NPHI.DEC    42 890 03 00:   NEUTRON POROSITY SANDSTONE
 SPR .MV     07 010 01 00:   SPONTANEOUS POTENTIAL
 SGRD.OHMM   07 220 05 00:   SHALLOW SHORT GUARD RESISTIVITY
 ILD .OHMM   07 120 46 00:   DEEP INDUCTION RESISTIVITY
 ILM .OHMM   07 120 44 00:   INDUCTION LOG MEDIUM RESISTIVITY
~PARAMETER INFORMATION
#MNEM.UNIT          VALUE    DESCRIPTION
#----------   ------------   ------------------------------
 EKB .F         5241.0000:   Kelly bushing
 EGL .F         5231.0000:   Ground level
 TD  .F         3352.0000:   Total depth
 DATE.        13-AUG-1977:   Date logged
 CLNT.            A2DTECH:   Client Code
 SL  . 940' FNL & 2310' FEL:   Surface Location
 PD  .                 GL:   Permanent Datum
 DD  .F              3350:   Depth driller
 DL  .F              3352:   Depth logger
 BLI .F              3350:   Bottom log interval
 CS1 .IN            8.625:   Casing size
 CBD1.      8.625" @ 227':   Casing driller 1
 CBL1.F               228:   Casing logger 1
 BS1 .IN            7.875:   Bit size
 DFT .          KCL WATER:   Type fluid in hole
 DFD .                8.9:   Density
 DFV .                 41:   Viscosity
 DFPH.                 11:   pH
 DFL .               17.2:   Fluid loss
 MSS .            MUD PIT:   Source of sample
 RMS .OHMM           .172:   Rm
 MST .F                74:   Rm Meas. temp.
 RMF .OHMM           .203:   Rmf
 MFST.F                74:   Rmf Meas. temp.
 RMC .OHMM           .220:   Rmc
 MCST.F                74:   Rmc Meas. temp.
 MFSS.               MEAS:   Source Rmf.
 RMB .OHMM           .105:   Rm. at BHT
 BHT .F               121:   BHT.
 TCS .HRS               4:   Time Circ. stopped
 MRT .F               121:   Maximum recorded temp.
 LUN .               9685:   Logging unit number
 LUL .             CASPER:   Logging unit location
 ENGI.             JOYNER:   Recorded By
 WITN.         PETTINGILL:   Witnessed by
 ORIG.           5" PRINT:   Origin of data
 UWI .     49025104110000:   Unique Well ID
 DICO. A2D TECHNOLOGIES, INC.:   Digitizing Company
 DAPD.F                10:   Feet Above Permanent Datum
 BSD1.F              3350:   Depth drilled with bit1
 EPD .F              5231:   Elevation Permanent Datum
 LMF .                 KB:   Log Measured From
 DMF .                 KB:   Drilling Measured From
 TLI .F               228:   Top log interval
~OTHER INFORMATION
~A   DEPT       CORR       CALD      GRD         RHOB       NPHI      SPR       SGRD        ILD        ILM   
# ...
 3318.5000     0.0410     8.1010   200.1630     2.5030     0.2380   -62.5410     7.2510     4.5850     5.1940
 3319.0000     0.0410     8.1030   200.6010     2.4950     0.2310   -62.2390     6.8260     4.5580     5.1940
 3319.5000     0.0400     8.1040   200.5940     2.4880     0.2340   -61.9320     6.3410     4.5310     5.1940
 3320.0000     0.0380     8.1000   200.5980     2.4840     0.2380   -61.9440     6.0520     4.5040     5.2910
 3320.5000     0.0410     8.0770   200.6350     2.4860     0.2410   -61.9070     5.9690     4.4780     5.5420
 3321.0000     0.0450     8.0550   200.6910     2.4900     0.2530   -61.8160     6.5550     4.5730     5.8520
 3321.5000     0.0480     8.0320   200.1980     2.4950     0.2690   -61.7250     7.4540     4.6630     6.1460
 3322.0000     0.0510     8.0100   191.4510     2.5000     0.2990   -61.6340     8.3540     4.7530     6.4210
 3322.5000     0.0510     7.9870   159.9880     2.5050  -999.2500   -61.5470     9.2260     4.8420     6.6860
 3323.0000     0.0480     7.9640   141.8910     2.5090  -999.2500   -61.5180     8.8990     4.9320     6.9510
 3323.5000     0.0450     7.9420   137.5030     2.5140  -999.2500   -61.3820     8.5040     5.0220     7.2160
 3324.0000     0.0420     7.9190   133.8870     2.5160  -999.2500   -61.2480     7.9610     5.1120     7.3450
 3324.5000     0.0390     7.8970   133.4940     2.5190  -999.2500   -61.1140     7.9870     5.2020     7.4090
 3325.0000     0.0350     7.8740   136.6470     2.5230  -999.2500   -60.9810     8.0400     5.2910     7.4730
 3325.5000     0.0340     7.8520   134.7460     2.5270  -999.2500   -60.8470     8.0930     5.3360     7.5740
 3326.0000     0.0350     7.8290   135.7310     2.5310  -999.2500   -60.7130     8.1460     5.3810     7.8300
 3326.5000     0.0370     7.8060   137.2880     2.5370  -999.2500   -60.5790     8.2550     5.5400     8.0850
 3327.0000     0.0390     7.7870   135.3490     2.5480  -999.2500   -60.4450     8.3880     5.7300     8.3400
 3327.5000     0.0410     7.7860   132.3800     2.5500  -999.2500   -60.3110     9.1380     5.9200     8.5950
 3328.0000     0.0430     7.7860   129.3740     2.5500  -999.2500   -60.1770     9.8870     6.1100     8.9320
 3328.5000     0.0450     7.7850   126.3700     2.5510  -999.2500   -60.0430    10.6560     6.2990     9.6820
 3329.0000     0.0470     7.7840   123.3450     2.5520  -999.2500   -59.9090    12.1830     6.4890    10.4320
 3329.5000     0.0490     7.7830   120.7700     2.5530  -999.2500   -59.7750    12.0890     6.6790    11.5240
 3330.0000     0.0510     7.7820   118.4970     2.5540  -999.2500   -59.6420    11.9200     6.8690    11.1230
 3330.5000     0.0520     7.7810   116.5170     2.5550  -999.2500   -59.5120    11.7390     7.0590    10.3860
 3331.0000     0.0530     7.7800   114.5050     2.5500  -999.2500   -59.3910    12.9860     7.2490     9.6490
 3331.5000     0.0510     7.7790   104.8000     2.5430  -999.2500   -59.1620    14.3220     7.4390     8.9120
 3332.0000     0.0490     7.7780  -999.2500     2.5370  -999.2500   -59.2640    15.4070     7.6290     8.4100
 3332.5000     0.0470     7.7770  -999.2500     2.5310  -999.2500   -59.3550    14.5960     7.8190     8.4210
 3333.0000     0.0460     7.7760  -999.2500     2.5260  -999.2500   -59.4480    13.8700     8.0090     8.4330
 3333.5000     0.0480     7.7750  -999.2500     2.5260  -999.2500   -59.5410    15.5920     8.1040     8.4450
 3334.0000     0.0510     7.7740  -999.2500     2.5370  -999.2500   -59.6350    17.1650     8.1040     8.4570
 3334.5000     0.0540     7.7730  -999.2500     2.5450  -999.2500   -59.7280    16.5630     8.1040     8.4690
 3335.0000     0.0510     7.7720  -999.2500     2.5430  -999.2500   -59.7390    15.3330     7.8060     8.4810
 3335.5000     0.0470     7.7710  -999.2500     2.5350  -999.2500   -59.7950    14.4340     7.5320     8.4880
 3336.0000     0.0450     7.7700  -999.2500     2.5280  -999.2500   -59.9130    13.6690     7.2510     8.3560
 3336.5000     0.0470     7.7690  -999.2500     2.5230  -999.2500   -60.0300    12.6430     7.1840     8.2060
 3337.0000     0.0510     7.7680  -999.2500     2.5290  -999.2500   -60.1470    13.1320     7.2190     8.0550
 3337.5000     0.0550     7.7670  -999.2500     2.5350  -999.2500   -60.2650    14.1980     7.2510     7.9040
 3338.0000     0.0590     7.7630  -999.2500     2.5410  -999.2500   -60.3820    15.6050     7.0720     7.8810
 3338.5000     0.0590     7.7460  -999.2500     2.5360  -999.2500   -60.4990    15.4620     6.7960     7.8810
 3339.0000     0.0550     7.7290  -999.2500     2.5170  -999.2500   -60.6170    14.4050     6.5200     7.7000
 3339.5000     0.0510     7.7120  -999.2500     2.4980  -999.2500   -60.7340    12.9060     6.2520     7.4150
 3340.0000     0.0460     7.6950  -999.2500     2.4800  -999.2500   -60.8510    11.6000     6.2650     7.1840
 3340.5000     0.0440     7.6780  -999.2500     2.4690  -999.2500   -60.9690    10.9690     6.2970     7.1180
 3341.0000     0.0450     7.6610  -999.2500     2.4790  -999.2500   -61.2560    10.2160     6.4280     7.3180
 3341.5000     0.0520     7.6440  -999.2500     2.4940  -999.2500   -62.7810    11.2260     6.2810     7.1110
 3342.0000     0.0580     7.6270  -999.2500     2.5060  -999.2500   -64.8310    12.4770     6.0380     6.7690
 3342.5000     0.0550     7.6100  -999.2500     2.5090  -999.2500   -66.8510    13.4900     5.7950     6.4280
 3343.0000     0.0510     7.5930  -999.2500     2.5040  -999.2500   -68.8760    10.7070     5.5870     6.0800
 3343.5000     0.0480     7.5720  -999.2500     2.4900  -999.2500   -70.9260     8.3710     5.4340     6.0350
 3344.0000     0.0450     7.5500  -999.2500     2.4770  -999.2500   -71.5390     5.9690     5.2810     5.9890
 3344.5000     0.0420     7.5280  -999.2500     2.4630  -999.2500   -71.4180     6.5020     5.1280     5.9690
 3345.0000     0.0400     7.5060  -999.2500     2.4550  -999.2500   -71.1610     7.0500     4.9750     5.9690
 3345.5000     0.0380     7.4840  -999.2500     2.4530  -999.2500   -71.1790     7.5980     4.8210     6.0240
 3346.0000     0.0430     7.4670  -999.2500     2.4510  -999.2500   -71.1790     8.1470     4.6680     6.0240
 3346.5000     0.0480     7.4660  -999.2500     2.4320  -999.2500   -71.3950     8.7270     4.5150     6.1370
 3347.0000     0.0530     7.4510  -999.2500     2.3930  -999.2500   -71.5140     8.1840     4.3620     5.8540
 3347.5000     0.0590     7.4470  -999.2500     2.3540  -999.2500   -71.2460     7.6080     4.2090     5.1850
 3348.0000     0.0640     7.4470  -999.2500     2.3150  -999.2500   -71.1860     6.9870     4.0450     4.6480
 3348.5000     0.0760     7.4470  -999.2500     2.2660  -999.2500   -71.1850     7.3440     4.0580     4.6480
 3349.0000     0.0890     7.4470  -999.2500     2.1880  -999.2500   -71.1850     7.8370     4.0720     4.6910
 3349.5000     0.1020     7.4470  -999.2500     2.1120  -999.2500   -71.1850     7.8420     4.1960     4.7350
 3350.0000     0.1040     7.4470  -999.2500     2.0430  -999.2500   -71.1850     6.8590     4.6050     4.8460
