~VERSION INFORMATION
 VERS.                2.0:   CWLS LOG ASCII STANDARD - VERSION 2.0
 WRAP.                 NO:   ONE LINE PER DEPTH STEP
~WELL INFORMATION
#MNEM.UNIT      DATA TYPE    INFORMATION
#----------   ------------   ------------------------------
 STRT.F          214.0000:   START DEPTH
 STOP.F         3064.0000:   STOP DEPTH
 STEP.F            0.5000:   STEP LENGTH
 NULL.          -999.2500:   NO VALUE
 COMP.    FENIX & SCISSON:   COMPANY
 WELL.    FENIX "A" #76-3:   WELL
 FLD .                NPR:   FIELD
 LOC .       S3 T38N R78W:   LOCATION
 CNTY.            NATRONA:   COUNTY
 STAT.            WYOMING:   STATE
 CTRY. UNITED STATES OF AMERICA:   COUNTRY
 SRVC.              WELEX:   SERVICE COMPANY
 DATE.        07-AUG-1988:   LOGDATE
 API .     49025104070000:   API NUMBER
~CURVE INFORMATION
#MNEM.UNIT       API CODE    CURVE DESCRIPTION
#----------   ------------   ------------------------------
 DEPT.F                  :   
 NPHI.DEC    42 890 00 00:   NEUTRON POROSITY
 SPR .MV     07 010 01 00:   SPONTANEOUS POTENTIAL
 SGRD.OHMM   07 220 05 00:   SHALLOW GUARD LOG RESISTIVITY
 ILD .OHMM   07 120 46 00:   DEEP INDUCTION RESISTIVITY
 ILM .OHMM   07 120 44 00:   INDUCTION LOG MEDIUM RESISTIVITY
 CALD.IN     45 280 60 00:   CALIPER FROM DENSITY LOG
 GRD .GAPI   45 310 01 00:   GAMMA RAY FROM DENSITY LOG
 CORR.G/C3   45 356 01 00:   DENSITY CORRECTION
 RHOB.G/C3   45 350 01 00:   BULK DENSITY
~PARAMETER INFORMATION
#MNEM.UNIT          VALUE    DESCRIPTION
#----------   ------------   ------------------------------
 EKB .F         5154.0000:   Kelly bushing
 EGL .F         5144.0000:   Ground level
 EDF .F            0.0000:   Drilling floor
 TD  .F         3054.0000:   Total depth
 DATE.        07-AUG-1988:   Date logged
 CLNT.            A2DTECH:   Client Code
 SL  . 1650' FSL & 990' FEL:   Surface Location
 PD  .                 GL:   Permanent Datum
 DD  .F              3054:   Depth driller
 DL  .F              3052:   Depth logger
 BLI .F              3060:   Bottom log interval
 CS1 .IN            8.625:   Casing size
 CBD1.      8.625" @ 210':   Casing driller 1
 CBL1.F               225:   Casing logger 1
 BS1 .IN            7.875:   Bit size
 DFT .            KCL MUD:   Type fluid in hole
 DFD .                9.2:   Density
 DFV .                 37:   Viscosity
 DFPH.                 10:   pH
 DFL .                  8:   Fluid loss
 MSS .           FLOWLINE:   Source of sample
 RMS .OHMM            .29:   Rm
 MST .F                75:   Rm Meas. temp.
 RMF .OHMM            .27:   Rmf
 MFST.F                75:   Rmf Meas. temp.
 RMC .OHMM            .32:   Rmc
 MCST.F                75:   Rmc Meas. temp.
 MFSS.               MEAS:   Source Rmf.
 RMB .OHMM            .19:   Rm. at BHT
 BHT .F               112:   BHT.
 TCS .HRS               5:   Time Circ. stopped
 MRT .F               112:   Maximum recorded temp.
 LUN .               9685:   Logging unit number
 LUL .             CASPER:   Logging unit location
 ENGI.      JOUNER & DOAK:   Recorded By
 WITN.      B. HARRINGTON:   Witnessed by
 ORIG.           5" PRINT:   Origin of data
 UWI .     49025104070000:   Unique Well ID
 DICO. A2D TECHNOLOGIES, INC.:   Digitizing Company
 DAPD.                 10:   Feet Above Permanent Datum
 BSD1.               3054:   Depth drilled with bit1
 MCSS.               MEAS:   Source Rmc.
 EPD .               5144:   Elevation Permanent Datum
 LMF .                 KB:   Log Measured From
 DMF .                 KB:   Drilling Measured From
 TLI .                225:   Top log interval
~OTHER INFORMATION
~A   DEPT     NPHI        SPR       SGRD        ILD        ILM       CALD         GRD       CORR        RHOB 
# ...
  579.0000     0.3100   -45.8270     9.4480     7.8280     7.2490     9.9760   170.6160     0.1000     2.4710
  579.5000     0.3060   -45.7640     9.4090     7.8180     7.3080     9.9860   169.3620     0.0920     2.4590
  580.0000     0.3040   -45.7020     9.3700     7.8080     7.3510     9.9950   167.2900     0.0850     2.4420
  580.5000     0.3020   -45.6390     9.3330     7.7980     7.3510    10.0020   165.2770     0.0790     2.4330
  581.0000     0.3000   -45.5770     9.3010     7.7880     7.3510     9.9960   164.8550     0.0810     2.4370
  581.5000     0.2990   -45.5140     9.2710     7.7790     7.3510     9.9900   168.5140     0.0840     2.4430
  582.0000     0.2970   -45.4510     9.1630     7.7690     7.3010     9.9840   171.7610     0.0840     2.4490
  582.5000     0.2960   -45.3890     9.0910     7.7460     7.2230    10.0060   174.9920     0.0840     2.4510
  583.0000     0.2950   -45.3260     9.0220     7.7210     7.1450    10.0300   178.2120     0.0830     2.4500
  583.5000     0.2940   -45.2620     8.9140     7.6960     7.0860    10.0540   180.4390     0.0830     2.4500
  584.0000     0.2950   -45.2040     8.9590     7.7650     7.1450    10.0790   180.1640     0.0850     2.4510
  584.5000     0.2920   -45.3640     9.0630     7.8320     7.2020    10.0470   178.7600     0.0860     2.4510
  585.0000     0.2920   -45.5370     9.1660     7.8980     7.2600    10.0020   176.9580     0.0850     2.4460
  585.5000     0.2920   -45.7100     9.2930     7.9650     7.3170     9.9890   174.3650     0.0840     2.4410
  586.0000     0.2940   -45.8810     9.4990     8.0550     7.4370     9.9970   171.8170     0.0830     2.4360
  586.5000     0.2900   -46.0020     9.7060     8.0420     7.7670    10.0050   172.0340     0.0830     2.4350
  587.0000     0.2870   -46.0220     9.9530     8.0160     7.7570    10.0130   172.3620     0.0840     2.4370
  587.5000     0.2860   -46.0430     9.9430     7.9840     7.7320    10.0220   172.0900     0.0860     2.4390
  588.0000     0.2840   -46.0640     9.9280     8.0120     7.7060    10.0170   173.2940     0.0870     2.4400
  588.5000     0.2870   -46.0850     9.9120     8.0470     7.6790    10.0100   175.2940     0.0850     2.4400
  589.0000     0.2870   -46.1060     9.8960     8.0820     7.6500    10.0020   181.5140     0.0860     2.4410
  589.5000     0.2850   -46.1270     9.8810     8.1320     7.6260     9.9950   186.2690     0.0870     2.4450
  590.0000     0.2840   -46.1490     9.8650     8.1270     7.6960     9.9880   188.2730     0.0880     2.4490
  590.5000     0.2900   -46.1700     9.7720     8.1190     7.7550     9.9840   191.1460     0.0880     2.4480
  591.0000     0.2890   -46.1910     9.7840     8.1110     7.8140     9.9840   192.3600     0.0870     2.4420
  591.5000     0.2930   -46.1550     9.8190     8.1030     7.8740     9.9830   192.0500     0.0810     2.4400
  592.0000     0.2930   -46.1140     9.8620     8.0950     7.9110     9.9840   188.3620     0.0720     2.4450
  592.5000     0.2910   -46.0740     9.8270     8.0870     7.8880     9.9790   186.2010     0.0700     2.4500
  593.0000     0.2900   -46.0340     9.7720     8.0790     7.8680     9.9710   184.7200     0.0700     2.4510
  593.5000     0.2860   -45.9940     9.8190     8.0710     7.8480     9.9630   183.2610     0.0690     2.4530
  594.0000     0.2880   -45.9530     9.8830     8.0630     7.8270     9.9560   181.6140     0.0690     2.4590
  594.5000     0.2840   -45.9130     9.9470     8.0580     7.8040     9.9480   179.7270     0.0730     2.4640
  595.0000     0.2850   -45.8730    10.0100     8.1390     7.7820     9.9400   178.0290     0.0780     2.4610
  595.5000     0.2860   -45.8330    10.0740     8.1990     7.7600     9.9330   176.6440     0.0730     2.4490
  596.0000     0.2830   -45.7930    10.1370     8.2590     7.7380     9.9250   174.6900     0.0650     2.4370
  596.5000     0.2860   -45.7530    10.2310     8.3190     7.7160     9.9320   172.4850     0.0600     2.4310
  597.0000     0.2920   -45.7120    10.2070     8.3590     7.6990     9.9420   169.3550     0.0620     2.4340
  597.5000     0.3000   -45.6710    10.1630     8.3590     7.7210     9.9520   166.2450     0.0700     2.4370
  598.0000     0.3050   -45.6310    10.1190     8.3590     7.7430     9.9610   163.9070     0.0780     2.4410
  598.5000     0.3100   -45.6130    10.0750     8.3590     7.7660     9.9710   165.3020     0.0770     2.4400
  599.0000     0.3090   -45.9160    10.0440     8.3590     7.7880     9.9810   165.9570     0.0730     2.4380
  599.5000     0.3140   -46.0110    10.0900     8.3590     7.8100     9.9630   166.3980     0.0740     2.4430
  600.0000     0.3150   -46.1570    10.1240     8.3590     7.8320     9.9320   170.5650     0.0740     2.4480
  600.5000     0.3160   -46.1940    10.1580     8.3720     7.8750     9.9440   175.2080     0.0630     2.4470
  601.0000     0.3130   -46.1520    10.1930     8.4160     7.9270     9.9840   179.8760     0.0620     2.4480
  601.5000     0.3110   -46.1110    10.2310     8.4590     7.9800     9.9980   184.6510     0.0690     2.4510
  602.0000     0.3060   -46.0730    10.2910     8.5030     8.0320     9.9890   185.7940     0.0740     2.4530
  602.5000     0.3050   -46.0340    10.4110     8.5460     8.0730     9.9810   180.4040     0.0740     2.4550
  603.0000     0.2990   -45.9960    10.5310     8.5890     8.1040     9.9710   176.8090     0.0730     2.4540
  603.5000     0.2990   -45.9570    10.6510     8.6330     8.1320     9.9620   173.2730     0.0710     2.4530
  604.0000     0.2970   -45.9190    10.7510     8.6720     8.2520     9.9540   170.0120     0.0650     2.4510
  604.5000     0.2920   -45.8800    10.8290     8.7210     8.3600     9.9450   166.7540     0.0580     2.4450
  605.0000     0.2870   -45.8420    10.9080     8.7660     8.4630     9.9370   163.4920     0.0520     2.4400
  605.5000     0.2840   -45.8030    11.0110     8.8100     8.5530     9.9280   160.2220     0.0470     2.4370
  606.0000     0.2830   -45.7650    10.9100     8.8740     8.6440     9.9200   156.9440     0.0430     2.4390
  606.5000     0.2830   -45.7260    11.3020     8.9570     8.7340     9.9110   154.9170     0.0430     2.4410
  607.0000     0.2860   -45.6880    12.0870     9.0390     8.8330     9.9040   154.3900     0.0480     2.4400
  607.5000     0.2800   -45.6490    12.6370     9.1630     8.5160     9.9040   155.6870     0.0540     2.4340
  608.0000     0.2820   -45.6110    11.8670     9.1390     8.1630     9.9040   157.9750     0.0510     2.4290
  608.5000     0.2770   -45.5720    11.0450     9.0900     8.0380     9.9040   160.2100     0.0490     2.4230
  609.0000     0.2820   -45.5340    10.8230     9.0420     8.0100     9.9140   160.8480     0.0550     2.4230
  609.5000     0.2830   -45.4950    10.7110     8.9930     7.9840     9.9290   160.6340     0.0680     2.4260
  610.0000     0.2880   -45.4570    10.8910     8.9450     8.1780     9.9450   160.0630     0.0740     2.4310
  610.5000     0.2830   -45.4190    11.0280     8.8960     8.3930     9.9610   158.6050     0.0770     2.4420
  611.0000     0.2870   -45.4310    11.1660     8.8330     8.6080     9.9550   161.8830     0.0730     2.4490
  611.5000     0.2860   -45.5030    11.3180     8.8700     8.6720     9.9440   164.4190     0.0700     2.4490
  612.0000     0.2830   -45.5760    11.2790     8.9240     8.6720     9.9330   165.1960     0.0700     2.4500
  612.5000     0.2860   -45.6480    11.2360     8.9780     8.6720     9.9230   163.0740     0.0760     2.4600
  613.0000     0.2860   -45.7210    11.2150     9.0310     8.5930     9.9120   160.7790     0.0900     2.4700
  613.5000     0.2830   -45.7930    11.2150     9.0790     8.6700     9.9070   158.2430     0.1040     2.4790
  614.0000     0.2850   -45.8660    11.2150     9.2020     8.8260     9.9180   156.5600     0.1100     2.4850
  614.5000     0.2820   -45.9380    11.3710     9.3140     8.9960     9.9270   158.5550     0.1080     2.4840
  615.0000     0.2790   -46.0110    11.5470     9.4260     8.8450     9.9390   157.6790     0.1040     2.4790
