~VERSION INFORMATION
 VERS.                2.0:   CWLS LOG ASCII STANDARD - VERSION 2.0
 WRAP.                 NO:   ONE LINE PER DEPTH STEP
~WELL INFORMATION
#MNEM.UNIT      DATA TYPE    INFORMATION
#----------   ------------   ------------------------------
 STRT.F          216.0000:   START DEPTH
 STOP.F         3350.0000:   STOP DEPTH
 STEP.F            0.5000:   STEP LENGTH
 NULL.          -999.2500:   NO VALUE
 COMP.    FENIX & SCISSON:   COMPANY
 WELL. FENIX 52 "AX" #3-15:   WELL
 FLD .              N P R:   FIELD
 LOC .      S15 T38N R78W:   LOCATION
 CNTY.            NATRONA:   COUNTY
 STAT.            WYOMING:   STATE
 CTRY. UNITED STATES OF AMERICA:   COUNTRY
 SRVC.              WELEX:   SERVICE COMPANY
 DATE.        13-AUG-1977:   LOGDATE
 API .     49025104110000:   API NUMBER
~CURVE INFORMATION
#MNEM.UNIT       API CODE    CURVE DESCRIPTION
#----------   ------------   ------------------------------
 DEPT.F                  :   
 CORR.G/C3   45 356 01 00:   DENSITY CORRECTION
 CALD.IN     45 280 60 00:   CALIPER FROM DENSITY LOG
 GRD .GAPI   45 310 01 00:   GAMMA RAY FROM DENSITY LOG
 RHOB.G/C3   45 350 01 00:   BULK DENSITY
 NPHI.DEC    42 890 03 00:   NEUTRON POROSITY SANDSTONE
 SPR .MV     07 010 01 00:   SPONTANEOUS POTENTIAL
 SGRD.OHMM   07 220 05 00:   SHALLOW SHORT GUARD RESISTIVITY
 ILD .OHMM   07 120 46 00:   DEEP INDUCTION RESISTIVITY
 ILM .OHMM   07 120 44 00:   INDUCTION LOG MEDIUM RESISTIVITY
~PARAMETER INFORMATION
#MNEM.UNIT          VALUE    DESCRIPTION
#----------   ------------   ------------------------------
 EKB .F         5241.0000:   Kelly bushing
 EGL .F         5231.0000:   Ground level
 TD  .F         3352.0000:   Total depth
 DATE.        13-AUG-1977:   Date logged
 CLNT.            A2DTECH:   Client Code
 SL  . 940' FNL & 2310' FEL:   Surface Location
 PD  .                 GL:   Permanent Datum
 DD  .F              3350:   Depth driller
 DL  .F              3352:   Depth logger
 BLI .F              3350:   Bottom log interval
 CS1 .IN            8.625:   Casing size
 CBD1.      8.625" @ 227':   Casing driller 1
 CBL1.F               228:   Casing logger 1
 BS1 .IN            7.875:   Bit size
 DFT .          KCL WATER:   Type fluid in hole
 DFD .                8.9:   Density
 DFV .                 41:   Viscosity
 DFPH.                 11:   pH
 DFL .               17.2:   Fluid loss
 MSS .            MUD PIT:   Source of sample
 RMS .OHMM           .172:   Rm
 MST .F                74:   Rm Meas. temp.
 RMF .OHMM           .203:   Rmf
 MFST.F                74:   Rmf Meas. temp.
 RMC .OHMM           .220:   Rmc
 MCST.F                74:   Rmc Meas. temp.
 MFSS.               MEAS:   Source Rmf.
 RMB .OHMM           .105:   Rm. at BHT
 BHT .F               121:   BHT.
 TCS .HRS               4:   Time Circ. stopped
 MRT .F               121:   Maximum recorded temp.
 LUN .               9685:   Logging unit number
 LUL .             CASPER:   Logging unit location
 ENGI.             JOYNER:   Recorded By
 WITN.         PETTINGILL:   Witnessed by
 ORIG.           5" PRINT:   Origin of data
 UWI .     49025104110000:   Unique Well ID
 DICO. A2D TECHNOLOGIES, INC.:   Digitizing Company
 DAPD.F                10:   Feet Above Permanent Datum
 BSD1.F              3350:   Depth drilled with bit1
 EPD .F              5231:   Elevation Permanent Datum
 LMF .                 KB:   Log Measured From
 DMF .                 KB:   Drilling Measured From
 TLI .F               228:   Top log interval
~OTHER INFORMATION
~A   DEPT       CORR       CALD      GRD         RHOB       NPHI      SPR       SGRD        ILD        ILM   
# ...
 2077.5000     0.0020     8.9090   158.1860     2.3110     0.3120   -56.2610    11.7570     7.0050    10.2760
 2078.0000     0.0020     8.9260   158.4830     2.2830     0.3130   -56.3290    11.9280     7.0190    10.2170
 2078.5000     0.0030     8.9430   158.6500     2.2560     0.3120   -56.1020    12.0990     7.0340    10.2370
 2079.0000     0.0040     8.9640   157.7800     2.2280     0.3090   -56.3400    12.2700     7.0520    10.2570
 2079.5000     0.0050     8.9640   156.9430     2.2010     0.3090   -56.2820    12.4100     7.0330    10.2780
 2080.0000     0.0070     8.9620   156.1140     2.1870     0.3110   -56.2250    12.0970     7.0010    10.2990
 2080.5000     0.0080     8.9600   155.2860     2.1970     0.3090   -56.1720    11.8310     6.9830    10.3190
 2081.0000     0.0020     8.9570   154.4570     2.1920     0.3080   -56.1190    11.5660     6.9770    10.3400
 2081.5000    -0.0090     8.9540   153.6290     2.1910     0.3070   -56.0660    11.3000     6.9710    10.3610
 2082.0000    -0.0200     8.9520   152.8000     2.2010     0.3050   -56.0140    11.0350     6.9650    10.3820
 2082.5000    -0.0280     8.9490   151.9710     2.2180     0.3040   -55.9610    10.7690     6.9590    10.4070
 2083.0000    -0.0220     8.9460   151.1450     2.2410     0.3000   -55.9230    10.6020     6.9530    10.3310
 2083.5000    -0.0170     8.9440   150.3180     2.2670     0.2990   -55.9240    10.5040     6.9470    10.2310
 2084.0000    -0.0140     8.9410   149.9040     2.2940     0.2980   -55.9240    10.3330     6.9410    10.1320
 2084.5000    -0.0150     8.9390   149.9020     2.2980     0.2950   -55.9230    10.1610     6.9350    10.0280
 2085.0000    -0.0170     8.9360   149.8990     2.2940     0.2920   -55.8480     9.9900     6.9290     9.7930
 2085.5000    -0.0180     8.9330   149.9000     2.2870     0.2900   -55.7650     9.8180     6.9220     9.5480
 2086.0000    -0.0200     8.9310   149.9070     2.2790     0.2910   -55.6810     9.6460     6.8490     9.3030
 2086.5000    -0.0210     8.9280   149.9000     2.2730     0.2880   -55.5970     9.4750     6.7720     9.0590
 2087.0000    -0.0230     8.9250   150.3520     2.2600     0.2890   -55.5140     9.3030     6.6950     8.8140
 2087.5000    -0.0250     8.9230   149.8150     2.2470     0.2910   -55.4300     9.1410     6.6190     8.5690
 2088.0000    -0.0260     8.9200   149.1180     2.2410     0.2930   -55.3450     9.2260     6.5420     8.3330
 2088.5000    -0.0280     8.9180   148.4240     2.2470     0.2940   -55.3450     9.2070     6.4650     8.1130
 2089.0000    -0.0280     8.9150   147.7290     2.2530     0.2930   -55.4300     9.1820     6.3880     7.8810
 2089.5000    -0.0210     8.9120   147.1140     2.2730     0.2950   -55.5140     9.1570     6.3480     8.1450
 2090.0000    -0.0100     8.9100   147.1750     2.3060     0.2960   -55.5970     9.1370     6.3100     8.4250
 2090.5000     0.0000     8.9070   147.5100     2.3500     0.2930   -55.6810     9.1270     6.2720     8.7050
 2091.0000     0.0100     8.9050   149.0530     2.3950     0.2900   -55.7220     9.1160     6.2340     8.8900
 2091.5000     0.0210     8.8930   148.5930     2.4320     0.2870   -55.7220     9.1060     6.1940     8.6880
 2092.0000     0.0310     8.8780   148.4080     2.4540     0.2900   -55.7220     9.0950     6.2480     8.5370
 2092.5000     0.0300     8.8630   148.3490     2.4620     0.2910   -55.7270     9.0850     6.3100     8.3860
 2093.0000     0.0260     8.8480   149.4590     2.4640     0.2910   -55.5040     9.0750     6.2990     8.2350
 2093.5000     0.0220     8.8330   150.5290     2.4650     0.2930   -55.1980     9.0640     6.2880     8.0850
 2094.0000     0.0190     8.8180   151.5910     2.4660     0.2960   -54.9240     9.0570     6.2770     7.9380
 2094.5000     0.0150     8.8030   152.6490     2.4570     0.2990   -54.9190     9.2390     6.2650     7.7900
 2095.0000     0.0110     8.7870   153.7080     2.4470     0.2990   -54.9200     9.3770     6.2540     7.6430
 2095.5000     0.0070     8.7720   154.8150     2.4370     0.3000   -54.9190     9.5140     6.2430     7.4960
 2096.0000     0.0060     8.7570   155.2760     2.4310     0.3000   -54.9190     9.6640     6.2310     7.3480
 2096.5000     0.0060     8.7420   155.9400     2.4330     0.3010   -54.9220     9.1950     6.2200     7.2010
 2097.0000     0.0060     8.7270   157.3300     2.4380     0.3010   -54.7860     7.8810     6.2090     7.0540
 2097.5000     0.0070     8.7120   158.9170     2.4430     0.2990   -54.5990     7.8090     6.1940     6.9310
 2098.0000     0.0070     8.6960   160.5180     2.4430     0.2990   -54.4110     9.2920     6.3890     7.0060
 2098.5000     0.0070     8.6810   162.1310     2.4340     0.2980   -54.2230    10.9010     6.6630     7.0810
 2099.0000     0.0070     8.6660   163.8190     2.4250     0.2970   -54.0350    11.5120     6.9380     7.5810
 2099.5000     0.0080     8.6870   164.2060     2.4190     0.2980   -53.8480    11.9060     7.1840     8.4990
 2100.0000     0.0080     8.7330   163.8580     2.4260     0.2950   -53.7130    12.3010     6.9870     9.1410
 2100.5000     0.0130     8.7780   163.3740     2.4330     0.2930   -53.7630    12.6960     7.1270     9.1150
 2101.0000     0.0190     8.8230   162.8960     2.4330     0.2920   -53.8160    13.0910     7.4070     9.0950
 2101.5000     0.0240     8.8650   162.4060     2.4340     0.2980   -53.8680    13.3870     7.6870     9.0750
 2102.0000     0.0290     8.8810   162.2770     2.4400     0.2950   -53.9140    13.4560     7.8810     9.0590
 2102.5000     0.0340     8.8800   162.2770     2.4450     0.2940   -53.9110    13.5260     7.8810     9.0840
 2103.0000     0.0390     8.7860   162.7570     2.4480     0.2990   -53.9090    13.5950     7.8810     9.1090
 2103.5000     0.0440     8.6950   163.3010     2.4400     0.2980   -53.5350    13.6480     7.8810     9.1340
 2104.0000     0.0490     8.6870   163.8400     2.4310     0.2980   -53.4810    13.6930     7.8810     9.4430
 2104.5000     0.0540     8.7460   164.3780     2.4220     0.2980   -53.3870    13.7420     7.8810     9.8660
 2105.0000     0.0590     8.8050   165.2270     2.4130     0.2970   -53.2930    13.3230     7.9120    10.2890
 2105.5000     0.0650     8.8620   166.6430     2.4050     0.2970   -53.1980    12.8670     7.9550    10.8440
 2106.0000     0.0790     8.9210   164.6720     2.3960     0.2980   -53.1030    12.4110     7.9980    11.7390
 2106.5000     0.0920     8.9440   161.7230     2.3810     0.2990   -53.0070    11.7390     8.0410    11.4880
 2107.0000     0.1050     8.8960   158.7650     2.3660     0.2990   -52.9120    11.9400     8.0830    11.0100
 2107.5000     0.1180     8.8250   155.8090     2.3520     0.2970   -52.8170    12.3210     8.1040    10.5310
 2108.0000     0.1310     8.7530   152.8770     2.3240     0.2960   -52.7220    12.8790     8.0290    10.0530
 2108.5000     0.1360     8.8020   150.6470     2.2830     0.2960   -52.6260    12.7750     7.9290     9.5740
 2109.0000     0.1310     8.8870   150.6960     2.2420     0.2970   -52.5310    12.5790     7.7920     9.0960
 2109.5000     0.1280     8.9720   148.8080     2.2010     0.2950   -52.4360    12.4320     7.6560     8.6170
 2110.0000     0.1160     8.9820   146.6270     2.1590     0.2930   -52.3400    13.2860     7.5190     8.1390
 2110.5000     0.1030     8.9350   145.9010     2.1220     0.2910   -52.2450    13.6740     7.3830     7.6600
 2111.0000     0.0900     8.8880   146.5680     2.1180     0.2900   -52.1500    14.0630     7.2460     7.2510
 2111.5000     0.0770     8.8410   147.5570     2.1320     0.2890   -52.0540    14.4510     7.1840     8.2570
 2112.0000     0.0700     8.7940   148.5570     2.1600     0.2900   -51.9590    14.9370     7.2510     9.1800
 2112.5000     0.0730     8.7470   149.5530     2.1880     0.2940   -51.8640    14.4050     7.3860    10.1020
 2113.0000     0.0800     8.7000   150.5020     2.2160     0.2970   -51.7700    13.6950     7.5950    10.7000
 2113.5000     0.0860     8.6640   150.7580     2.2450     0.2990   -51.7120    12.9840     7.9080     9.9330
