~VERSION INFORMATION
 VERS.                2.0:   CWLS LOG ASCII STANDARD - VERSION 2.0
 WRAP.                 NO:   ONE LINE PER DEPTH STEP
~WELL INFORMATION
#MNEM.UNIT      DATA TYPE    INFORMATION
#----------   ------------   ------------------------------
 STRT.F          216.0000:   START DEPTH
 STOP.F         3350.0000:   STOP DEPTH
 STEP.F            0.5000:   STEP LENGTH
 NULL.          -999.2500:   NO VALUE
 COMP.    FENIX & SCISSON:   COMPANY
 WELL. FENIX 52 "AX" #3-15:   WELL
 FLD .              N P R:   FIELD
 LOC .      S15 T38N R78W:   LOCATION
 CNTY.            NATRONA:   COUNTY
 STAT.            WYOMING:   STATE
 CTRY. UNITED STATES OF AMERICA:   COUNTRY
 SRVC.              WELEX:   SERVICE COMPANY
 DATE.        13-AUG-1977:   LOGDATE
 API .     49025104110000:   API NUMBER
~CURVE INFORMATION
#MNEM.UNIT       API CODE    CURVE DESCRIPTION
#----------   ------------   ------------------------------
 DEPT.F                  :   
 CORR.G/C3   45 356 01 00:   DENSITY CORRECTION
 CALD.IN     45 280 60 00:   CALIPER FROM DENSITY LOG
 GRD .GAPI   45 310 01 00:   GAMMA RAY FROM DENSITY LOG
 RHOB.G/C3   45 350 01 00:   BULK DENSITY
 NPHI.DEC    42 890 03 00:   NEUTRON POROSITY SANDSTONE
 SPR .MV     07 010 01 00:   SPONTANEOUS POTENTIAL
 SGRD.OHMM   07 220 05 00:   SHALLOW SHORT GUARD RESISTIVITY
 ILD .OHMM   07 120 46 00:   DEEP INDUCTION RESISTIVITY
 ILM .OHMM   07 120 44 00:   INDUCTION LOG MEDIUM RESISTIVITY
~PARAMETER INFORMATION
#MNEM.UNIT          VALUE    DESCRIPTION
#----------   ------------   ------------------------------
 EKB .F         5241.0000:   Kelly bushing
 EGL .F         5231.0000:   Ground level
 TD  .F         3352.0000:   Total depth
 DATE.        13-AUG-1977:   Date logged
 CLNT.            A2DTECH:   Client Code
 SL  . 940' FNL & 2310' FEL:   Surface Location
 PD  .                 GL:   Permanent Datum
 DD  .F              3350:   Depth driller
 DL  .F              3352:   Depth logger
 BLI .F              3350:   Bottom log interval
 CS1 .IN            8.625:   Casing size
 CBD1.      8.625" @ 227':   Casing driller 1
 CBL1.F               228:   Casing logger 1
 BS1 .IN            7.875:   Bit size
 DFT .          KCL WATER:   Type fluid in hole
 DFD .                8.9:   Density
 DFV .                 41:   Viscosity
 DFPH.                 11:   pH
 DFL .               17.2:   Fluid loss
 MSS .            MUD PIT:   Source of sample
 RMS .OHMM           .172:   Rm
 MST .F                74:   Rm Meas. temp.
 RMF .OHMM           .203:   Rmf
 MFST.F                74:   Rmf Meas. temp.
 RMC .OHMM           .220:   Rmc
 MCST.F                74:   Rmc Meas. temp.
 MFSS.               MEAS:   Source Rmf.
 RMB .OHMM           .105:   Rm. at BHT
 BHT .F               121:   BHT.
 TCS .HRS               4:   Time Circ. stopped
 MRT .F               121:   Maximum recorded temp.
 LUN .               9685:   Logging unit number
 LUL .             CASPER:   Logging unit location
 ENGI.             JOYNER:   Recorded By
 WITN.         PETTINGILL:   Witnessed by
 ORIG.           5" PRINT:   Origin of data
 UWI .     49025104110000:   Unique Well ID
 DICO. A2D TECHNOLOGIES, INC.:   Digitizing Company
 DAPD.F                10:   Feet Above Permanent Datum
 BSD1.F              3350:   Depth drilled with bit1
 EPD .F              5231:   Elevation Permanent Datum
 LMF .                 KB:   Log Measured From
 DMF .                 KB:   Drilling Measured From
 TLI .F               228:   Top log interval
~OTHER INFORMATION
~A   DEPT       CORR       CALD      GRD         RHOB       NPHI      SPR       SGRD        ILD        ILM   
# ...
  435.0000     0.0080     9.7480   125.8650     2.4110     0.2720   -55.7540     5.5230     4.9370     5.2130
  435.5000     0.0010     9.7650   125.2250     2.4180     0.2710   -55.8670     5.3430     4.8820     5.2230
  436.0000     0.0000     9.7820   124.5720     2.4350     0.2710   -55.9810     5.1630     4.8710     5.1870
  436.5000     0.0010     9.7990   123.9220     2.4520     0.2720   -56.0320     5.0400     4.7870     5.1520
  437.0000     0.0020     9.8160   123.2720     2.4420     0.2730   -55.9590     5.2200     4.7030     5.1130
  437.5000     0.0010     9.8330   122.6200     2.4290     0.2770   -55.6790     5.4550     4.6190     5.0290
  438.0000    -0.0010     9.8500   121.9740     2.4160     0.2800   -55.4090     5.2440     4.5350     4.8620
  438.5000    -0.0020     9.8670   120.9960     2.4050     0.2830   -55.1370     4.9410     4.4510     4.6960
  439.0000    -0.0010     9.8840   120.7200     2.4050     0.2810   -54.8230     4.5760     4.3670     4.5340
  439.5000     0.0010     9.9010   120.2430     2.4060     0.2790   -54.6400     4.7050     4.2890     4.5340
  440.0000     0.0040     9.9180   119.7290     2.4110     0.2790   -54.7670     4.9400     4.3690     4.6000
  440.5000     0.0060     9.9350   119.2050     2.4100     0.2780   -54.9220     5.1610     4.5390     4.7440
  441.0000     0.0090     9.9520   118.6820     2.4060     0.2760   -55.0800     5.3810     4.6990     4.8880
  441.5000     0.0110     9.9690   118.3480     2.4010     0.2730   -55.2370     5.6020     4.8590     5.0320
  442.0000     0.0140     9.9860   118.7360     2.3970     0.2690   -55.3940     5.8230     5.0190     5.1760
  442.5000     0.0130    10.0030   119.1960     2.3980     0.2640   -55.5520     6.0390     5.2080     5.3200
  443.0000     0.0110    10.0200   119.6620     2.4080     0.2610   -55.7080     5.9990     5.1600     5.4050
  443.5000     0.0090    10.0370   120.1190     2.4320     0.2610   -55.8420     5.9280     5.0190     5.2970
  444.0000     0.0070    10.0540   120.5510     2.4560     0.2600   -55.6970     5.7810     4.8820     5.2080
  444.5000     0.0050    10.0710   121.1590     2.4720     0.2600   -55.5280     5.6340     4.7920     5.0570
  445.0000     0.0030    10.0880   121.1440     2.4550     0.2600   -55.3590     5.4870     4.6750     4.9050
  445.5000     0.0010    10.1050   120.8240     2.4550     0.2610   -55.1890     5.1410     4.5250     4.7530
  446.0000     0.0020    10.1220   119.3050     2.4580     0.2600   -55.0190     4.7370     4.3750     4.6010
  446.5000     0.0060    10.1390   117.8130     2.4620     0.2590   -54.8490     4.3340     4.2250     4.4490
  447.0000     0.0040    10.1560   116.3240     2.4620     0.2610   -54.6800     3.9300     4.0750     4.2890
  447.5000     0.0010    10.1880   114.8320     2.4540     0.2630   -54.5090     3.6650     3.9630     4.4120
  448.0000    -0.0020    10.2280   113.3370     2.4460     0.2650   -54.3370     3.9520     4.1330     4.5780
  448.5000    -0.0040    10.2680   111.9960     2.4410     0.2650   -54.1400     4.1660     4.2920     4.7430
  449.0000     0.0000    10.3080   112.8240     2.4420     0.2600   -53.8470     4.3800     4.4520     4.9080
  449.5000     0.0030    10.3480   113.7990     2.4540     0.2570   -53.5610     4.5940     4.6110     5.0730
  450.0000     0.0050    10.3880   114.7710     2.4660     0.2590   -53.2760     4.8080     4.7710     5.2390
  450.5000     0.0030    10.4280   115.7380     2.4620     0.2590   -52.9900     5.0220     4.9300     5.4040
  451.0000     0.0000    10.4680   116.7090     2.4530     0.2570   -52.7050     5.2360     5.0890     5.4550
  451.5000    -0.0030    10.5080   117.1580     2.4440     0.2570   -52.4200     5.4500     5.2490     5.5050
  452.0000    -0.0040    10.5480   116.9400     2.4390     0.2580   -52.1330     5.6640     5.4080     5.5570
  452.5000    -0.0040    10.5880   116.7010     2.4390     0.2590   -51.8500     5.8190     5.5570     5.7130
  453.0000    -0.0030    10.6280   116.4600     2.4410     0.2580   -51.8140     5.9950     5.6600     5.7660
  453.5000    -0.0030    10.6680   116.2190     2.4470     0.2560   -51.8520     6.1580     5.6600     5.7660
  454.0000    -0.0020    10.7080   115.9790     2.4430     0.2550   -51.8900     6.3220     5.6080     5.7730
  454.5000    -0.0010    10.7480   115.7390     2.4350     0.2560   -51.9270     6.4860     5.5480     5.7820
  455.0000     0.0000    10.7880   115.4970     2.4320     0.2580   -51.9640     6.6490     5.5110     5.7900
  455.5000     0.0010    10.8280   115.2500     2.4310     0.2590   -52.0070     6.8130     5.4750     5.7990
  456.0000     0.0080    10.8680   114.7050     2.4300     0.2590   -51.7390     6.8730     5.4380     5.8070
  456.5000     0.0140    10.9080   113.6340     2.4270     0.2580   -51.5090     7.0020     5.4020     5.8160
  457.0000     0.0080    10.9480   112.5700     2.4180     0.2570   -51.2700     7.0020     5.3660     5.8190
  457.5000     0.0090    10.9880   111.5040     2.4080     0.2560   -51.0280     6.9770     5.3290     5.7340
  458.0000     0.0130    11.0280   110.4390     2.3980     0.2570   -50.7860     6.9470     5.2930     5.6830
  458.5000     0.0090    11.0680   109.3730     2.3870     0.2590   -50.5440     6.9160     5.2560     5.6310
  459.0000     0.0050    11.1080   108.2890     2.3650     0.2580   -50.2990     6.8730     5.2200     5.5800
  459.5000     0.0010    11.1480   107.2460     2.3420     0.2570   -50.1680     6.8940     5.1830     5.5280
  460.0000     0.0190    11.1880   106.4590     2.3180     0.2560   -49.9750     6.9300     5.1470     5.4550
  460.5000     0.0220    11.2280   104.5050     2.2920     0.2560   -49.7820     6.9650     5.1110     5.5050
  461.0000     0.0260    11.2680   103.1010     2.2640     0.2570   -49.5910     7.1320     5.0740     5.5160
  461.5000     0.0290    11.3080   102.9280     2.2180     0.2600   -49.3990     7.1120     5.0660     5.5820
  462.0000     0.0300    11.3480   103.1030     2.1670     0.2630   -49.2080     7.0760     5.0660     5.6480
  462.5000     0.0200    11.3880   103.2990     2.1150     0.2650   -49.0160     7.0410     5.1130     5.7130
  463.0000     0.0100    11.4290   103.4980     2.0740     0.2680   -48.8240     7.0050     5.1130     5.7790
  463.5000     0.0020    11.4730   103.6950     2.0940     0.2710   -48.6330     6.9690     5.1600     5.8450
  464.0000     0.0010    11.5180   103.8930     2.2620     0.2730   -48.4440     6.9330     5.1600     5.9100
  464.5000     0.0050    11.5630   104.0870     2.4710     0.2710   -48.0950     6.8980     5.1600     5.9280
  465.0000     0.0110    11.6080   104.2800     2.4920     0.2670   -47.5940     6.7470     5.1600     5.6100
  465.5000     0.0160    11.6530   103.9180     2.4980     0.2620   -47.0530     6.3420     5.1600     5.1710
  466.0000     0.0200    11.6980   102.9080     2.4980     0.2600   -46.5120     5.5660     5.2570     4.7320
  466.5000     0.0220    11.7430   101.9010     2.4980     0.2620   -45.9710     4.5310     5.7660     4.2930
  467.0000     0.0230    11.7880   100.8910     2.4980     0.2620   -45.4290     3.4960     6.7470     3.8540
  467.5000     0.0240    11.8330    99.8820     2.4910     0.2580   -44.8870     2.5550    25.8460     3.6310
  468.0000     0.0260    11.8770    98.8710     2.4850     0.2560   -44.3460     2.5320    66.2380     3.6310
  468.5000     0.0250    11.9220    97.8500     2.4730     0.2570   -43.8040     4.1810    55.8480     3.6650
  469.0000     0.0230    11.9660    96.0620     2.4600     0.2560   -43.2620     5.1200    27.2950     3.8390
  469.5000     0.0220    12.0360    92.7120     2.4460     0.2550   -42.7210     5.1480     6.2290     4.0580
  470.0000     0.0200    12.1110    89.3900     2.4320     0.2490   -42.1790     5.1750     5.9860     4.6980
  470.5000     0.0180    12.1870    86.0660     2.4180     0.2450   -41.6370     5.2020     5.7130     5.2980
  471.0000     0.0170    12.2630    82.7360     2.4040     0.2420   -41.0970     5.2300     5.8190     5.8990
