~VERSION INFORMATION
 VERS.                2.0:   CWLS LOG ASCII STANDARD - VERSION 2.0
 WRAP.                 NO:   ONE LINE PER DEPTH STEP
~WELL INFORMATION
#MNEM.UNIT      DATA TYPE    INFORMATION
#----------   ------------   ------------------------------
 STRT.F          216.0000:   START DEPTH
 STOP.F         3350.0000:   STOP DEPTH
 STEP.F            0.5000:   STEP LENGTH
 NULL.          -999.2500:   NO VALUE
 COMP.    FENIX & SCISSON:   COMPANY
 WELL. FENIX 52 "AX" #3-15:   WELL
 FLD .              N P R:   FIELD
 LOC .      S15 T38N R78W:   LOCATION
 CNTY.            NATRONA:   COUNTY
 STAT.            WYOMING:   STATE
 CTRY. UNITED STATES OF AMERICA:   COUNTRY
 SRVC.              WELEX:   SERVICE COMPANY
 DATE.        13-AUG-1977:   LOGDATE
 API .     49025104110000:   API NUMBER
~CURVE INFORMATION
#MNEM.UNIT       API CODE    CURVE DESCRIPTION
#----------   ------------   ------------------------------
 DEPT.F                  :   
 CORR.G/C3   45 356 01 00:   DENSITY CORRECTION
 CALD.IN     45 280 60 00:   CALIPER FROM DENSITY LOG
 GRD .GAPI   45 310 01 00:   GAMMA RAY FROM DENSITY LOG
 RHOB.G/C3   45 350 01 00:   BULK DENSITY
 NPHI.DEC    42 890 03 00:   NEUTRON POROSITY SANDSTONE
 SPR .MV     07 010 01 00:   SPONTANEOUS POTENTIAL
 SGRD.OHMM   07 220 05 00:   SHALLOW SHORT GUARD RESISTIVITY
 ILD .OHMM   07 120 46 00:   DEEP INDUCTION RESISTIVITY
 ILM .OHMM   07 120 44 00:   INDUCTION LOG MEDIUM RESISTIVITY
~PARAMETER INFORMATION
#MNEM.UNIT          VALUE    DESCRIPTION
#----------   ------------   ------------------------------
 EKB .F         5241.0000:   Kelly bushing
 EGL .F         5231.0000:   Ground level
 TD  .F         3352.0000:   Total depth
 DATE.        13-AUG-1977:   Date logged
 CLNT.            A2DTECH:   Client Code
 SL  . 940' FNL & 2310' FEL:   Surface Location
 PD  .                 GL:   Permanent Datum
 DD  .F              3350:   Depth driller
 DL  .F              3352:   Depth logger
 BLI .F              3350:   Bottom log interval
 CS1 .IN            8.625:   Casing size
 CBD1.      8.625" @ 227':   Casing driller 1
 CBL1.F               228:   Casing logger 1
 BS1 .IN            7.875:   Bit size
 DFT .          KCL WATER:   Type fluid in hole
 DFD .                8.9:   Density
 DFV .                 41:   Viscosity
 DFPH.                 11:   pH
 DFL .               17.2:   Fluid loss
 MSS .            MUD PIT:   Source of sample
 RMS .OHMM           .172:   Rm
 MST .F                74:   Rm Meas. temp.
 RMF .OHMM           .203:   Rmf
 MFST.F                74:   Rmf Meas. temp.
 RMC .OHMM           .220:   Rmc
 MCST.F                74:   Rmc Meas. temp.
 MFSS.               MEAS:   Source Rmf.
 RMB .OHMM           .105:   Rm. at BHT
 BHT .F               121:   BHT.
 TCS .HRS               4:   Time Circ. stopped
 MRT .F               121:   Maximum recorded temp.
 LUN .               9685:   Logging unit number
 LUL .             CASPER:   Logging unit location
 ENGI.             JOYNER:   Recorded By
 WITN.         PETTINGILL:   Witnessed by
 ORIG.           5" PRINT:   Origin of data
 UWI .     49025104110000:   Unique Well ID
 DICO. A2D TECHNOLOGIES, INC.:   Digitizing Company
 DAPD.F                10:   Feet Above Permanent Datum
 BSD1.F              3350:   Depth drilled with bit1
 EPD .F              5231:   Elevation Permanent Datum
 LMF .                 KB:   Log Measured From
 DMF .                 KB:   Drilling Measured From
 TLI .F               228:   Top log interval
~OTHER INFORMATION
~A   DEPT       CORR       CALD      GRD         RHOB       NPHI      SPR       SGRD        ILD        ILM   
# ...
 1858.5000     0.0290     9.8900   135.3170     2.5080     0.3210   -55.0190     4.5180     3.0500     3.6570
 1859.0000     0.0360     9.9540   136.5020     2.5070     0.3250   -55.3920     3.8260     2.5880     3.1490
 1859.5000     0.0340     9.9090   137.5600     2.5060     0.3250   -55.7640     4.0820     2.1540     3.1200
 1860.0000     0.0290     9.8480   137.4250     2.5060     0.3260   -56.1370     4.8610     3.6150     3.1200
 1860.5000     0.0240     9.7850   137.2210     2.5070     0.3290   -56.5100     5.6820     5.1560     3.2080
 1861.0000     0.0220     9.7760   137.0220     2.5110     0.3280   -56.8780     6.5040     6.3610     3.5180
 1861.5000     0.0230     9.7690   136.8200     2.5150     0.3260   -57.0300     7.1520     6.8710     4.0470
 1862.0000     0.0250     9.7630   136.7270     2.5190     0.3220   -57.1800     7.4480     7.3810     4.5770
 1862.5000     0.0270     9.7560   136.7850     2.5190     0.3210   -57.3310     7.5950     7.7370     5.1070
 1863.0000     0.0280     9.7490   137.1900     2.5170     0.3200   -57.4810     7.5430     7.3660     5.6360
 1863.5000     0.0240     9.7420   137.6050     2.5150     0.3170   -57.6300     7.4850     6.9230     6.1660
 1864.0000     0.0190     9.7350   138.2220     2.5070     0.3200   -57.7820     7.4550     6.9730     6.8590
 1864.5000     0.0140     9.7280   138.7160     2.4980     0.3210   -57.9720     7.5950     7.0790     6.7580
 1865.0000     0.0100     9.7220   138.0560     2.4900     0.3240   -58.1200     7.6650     7.1850     6.5430
 1865.5000     0.0050     9.7150   137.3880     2.4820     0.3280   -58.3570     7.7370     7.2900     6.3290
 1866.0000     0.0040     9.7080   136.7220     2.4740     0.3290   -58.3730     7.6780     7.3960     6.0800
 1866.5000     0.0020     9.7010   136.3320     2.4670     0.3280   -58.3990     7.6310     7.4550     6.0860
 1867.0000     0.0050     9.6940   136.3210     2.4700     0.3270   -58.4290     7.5950     7.2810     6.0920
 1867.5000     0.0080     9.6870   136.0600     2.4760     0.3260   -58.4600     7.8190     7.1400     6.0980
 1868.0000     0.0120     9.6810   135.8000     2.4830     0.3230   -58.4900     8.1900     6.9990     6.1040
 1868.5000     0.0110     9.6740   135.5420     2.4890     0.3210   -58.5200     8.6470     6.8590     6.1100
 1869.0000     0.0070     9.6670   135.2830     2.4960     0.3180   -58.5340     8.5680     6.9670     6.1170
 1869.5000     0.0040     9.6600   135.0250     2.4970     0.3150   -58.5460     8.4700     7.2400     6.1230
 1870.0000     0.0020     9.6530   134.7660     2.4950     0.3190   -58.6440     8.3720     7.5120     6.1290
 1870.5000     0.0020     9.6460   134.5070     2.4930     0.3180   -58.7440     8.2740     7.7370     6.1350
 1871.0000     0.0020     9.6400   134.3270     2.4900     0.3170   -58.8430     8.1760     7.7370     6.1410
 1871.5000     0.0040     9.6330   134.4520     2.4880     0.3190   -58.9430     8.0780     7.7370     6.1480
 1872.0000     0.0040     9.6260   135.3710     2.4870     0.3200   -59.0420     7.9800     7.7370     6.1540
 1872.5000     0.0060     9.6100   136.2990     2.4870     0.3190   -59.1420     7.9550     7.7370     6.1600
 1873.0000     0.0060     9.5880   137.2190     2.4910     0.3170   -59.2410     8.2940     7.7370     6.1660
 1873.5000     0.0060     9.5610   138.1320     2.4940     0.3220   -59.3340     8.6540     7.7370     6.1720
 1874.0000     0.0060     9.5550   138.8060     2.4980     0.3270   -59.3300     8.9730     7.7370     6.1790
 1874.5000     0.0080     9.5470   139.1060     2.5010     0.3250   -59.2960     8.8140     7.7370     6.1850
 1875.0000     0.0130     9.5390   139.1090     2.5040     0.3260   -59.2620     8.6640     7.7370     6.1910
 1875.5000     0.0180     9.5310   140.6600     2.5080     0.3300   -59.2280     8.5140     7.7360     6.1950
 1876.0000     0.0230     9.5230   143.1720     2.5110     0.3330   -59.1940     8.3650     7.7360     6.1730
 1876.5000     0.0280     9.5140   145.5220     2.5140     0.3330   -59.1600     8.2150     7.7360     6.1530
 1877.0000     0.0240     9.5060   144.6320     2.5140     0.3300   -59.1260     8.0650     7.7370     6.1340
 1877.5000     0.0240     9.4980   143.5700     2.5130     0.3320   -59.0920     7.9550     7.4100     6.1140
 1878.0000     0.0270     9.4900   142.5050     2.5110     0.3350   -59.0570     7.8810     7.0520     6.0930
 1878.5000     0.0280     9.4820   141.4430     2.5090     0.3370   -59.0230     7.8090     6.9230     6.0830
 1879.0000     0.0280     9.4740   140.3820     2.5070     0.3350   -58.9890     7.8090     7.0930     6.1320
 1879.5000     0.0240     9.4660   139.3200     2.5060     0.3360   -58.9550     8.0880     7.2550     6.1290
 1880.0000     0.0170     9.4580   138.2650     2.5040     0.3380   -58.9210     8.5280     7.4180     6.1240
 1880.5000     0.0170     9.4500   137.5080     2.5020     0.3390   -58.8870     8.9690     7.5810     6.1200
 1881.0000     0.0190     9.4410   137.4420     2.5000     0.3390   -58.8530     9.3120     7.7440     6.1150
 1881.5000     0.0200     9.4330   137.2840     2.4990     0.3370   -58.8190     8.9330     7.8090     6.1110
 1882.0000     0.0220     9.4250   137.1250     2.4970     0.3390   -58.7850     8.6190     7.3700     6.1070
 1882.5000     0.0240     9.4170   136.9660     2.4950     0.3350   -58.7510     8.3050     7.0040     6.1030
 1883.0000     0.0260     9.4090   136.8060     2.4940     0.3340   -58.7170     7.9910     6.8590     6.0980
 1883.5000     0.0270     9.4010   136.6470     2.4920     0.3350   -58.6830     7.6650     6.9210     6.0940
 1884.0000     0.0290     9.3930   136.4870     2.4930     0.3350   -58.6490     7.6650     6.9850     6.0900
 1884.5000     0.0310     9.3850   136.3320     2.4950     0.3380   -58.6150     7.8810     7.0500     6.0860
 1885.0000     0.0330     9.3770   136.3250     2.4970     0.3330   -58.5810     8.0290     7.1180     6.0820
 1885.5000     0.0340     9.3680   136.2390     2.4990     0.3300   -58.5470     8.0210     7.0180     6.0420
 1886.0000     0.0300     9.3600   136.0180     2.4920     0.3260   -58.5130     8.0110     6.9540     5.9890
 1886.5000     0.0220     9.3520   135.7980     2.4810     0.3210   -58.4790     8.0010     6.8910     5.9360
 1887.0000     0.0140     9.3440   135.5780     2.4690     0.3180   -58.4450     7.9910     6.7950     5.8840
 1887.5000     0.0070     9.3360   135.3580     2.4580     0.3140   -58.4110     7.9800     6.8070     5.8310
 1888.0000     0.0040     9.3280   135.1380     2.4560     0.3130   -58.3780     7.9700     6.8310     5.7780
 1888.5000     0.0030     9.3200   134.9190     2.4660     0.3120   -58.3450     7.9550     6.8540     5.7260
 1889.0000     0.0000     9.3120   134.6990     2.4730     0.3110   -58.3300     7.9780     6.8770     5.6980
 1889.5000     0.0020     9.3040   134.4790     2.4710     0.3100   -58.5550     8.0260     6.9010     5.7520
 1890.0000     0.0040     9.2950   134.2590     2.4670     0.3080   -58.6630     8.0750     6.9230     5.9550
 1890.5000     0.0060     9.2870   134.0410     2.4680     0.3110   -58.7960     8.1230     7.0460     6.1460
 1891.0000     0.0070     9.2690   133.9350     2.4760     0.3100   -58.9330     8.1710     7.2780     6.2520
 1891.5000     0.0090     9.2400   133.9140     2.4850     0.3150   -59.0700     8.4130     7.5110     6.2900
 1892.0000     0.0100     9.2120   133.6020     2.4920     0.3140   -59.2070     8.7770     7.7370     6.3260
 1892.5000     0.0090     9.1840   133.5470     2.4910     0.3170   -59.3340     9.1410     8.5250     6.3620
 1893.0000     0.0050     9.1550   134.8350     2.4880     0.3190   -59.3380     9.5740     8.9730     6.5800
 1893.5000     0.0020     9.1270   136.2250     2.4840     0.3150   -59.3390     9.5190     8.8060     6.7280
 1894.0000     0.0000     9.1030   137.6170     2.4800     0.3190   -59.3390     9.3830     8.5320     6.8770
 1894.5000     0.0000     9.1040   139.0730     2.4750     0.3130   -59.2960     9.2480     8.2550     7.0260
