~VERSION INFORMATION
 VERS.                2.0:   CWLS LOG ASCII STANDARD - VERSION 2.0
 WRAP.                 NO:   ONE LINE PER DEPTH STEP
~WELL INFORMATION
#MNEM.UNIT      DATA TYPE    INFORMATION
#----------   ------------   ------------------------------
 STRT.F          214.0000:   START DEPTH
 STOP.F         3064.0000:   STOP DEPTH
 STEP.F            0.5000:   STEP LENGTH
 NULL.          -999.2500:   NO VALUE
 COMP.    FENIX & SCISSON:   COMPANY
 WELL.    FENIX "A" #76-3:   WELL
 FLD .                NPR:   FIELD
 LOC .       S3 T38N R78W:   LOCATION
 CNTY.            NATRONA:   COUNTY
 STAT.            WYOMING:   STATE
 CTRY. UNITED STATES OF AMERICA:   COUNTRY
 SRVC.              WELEX:   SERVICE COMPANY
 DATE.        07-AUG-1988:   LOGDATE
 API .     49025104070000:   API NUMBER
~CURVE INFORMATION
#MNEM.UNIT       API CODE    CURVE DESCRIPTION
#----------   ------------   ------------------------------
 DEPT.F                  :   
 NPHI.DEC    42 890 00 00:   NEUTRON POROSITY
 SPR .MV     07 010 01 00:   SPONTANEOUS POTENTIAL
 SGRD.OHMM   07 220 05 00:   SHALLOW GUARD LOG RESISTIVITY
 ILD .OHMM   07 120 46 00:   DEEP INDUCTION RESISTIVITY
 ILM .OHMM   07 120 44 00:   INDUCTION LOG MEDIUM RESISTIVITY
 CALD.IN     45 280 60 00:   CALIPER FROM DENSITY LOG
 GRD .GAPI   45 310 01 00:   GAMMA RAY FROM DENSITY LOG
 CORR.G/C3   45 356 01 00:   DENSITY CORRECTION
 RHOB.G/C3   45 350 01 00:   BULK DENSITY
~PARAMETER INFORMATION
#MNEM.UNIT          VALUE    DESCRIPTION
#----------   ------------   ------------------------------
 EKB .F         5154.0000:   Kelly bushing
 EGL .F         5144.0000:   Ground level
 EDF .F            0.0000:   Drilling floor
 TD  .F         3054.0000:   Total depth
 DATE.        07-AUG-1988:   Date logged
 CLNT.            A2DTECH:   Client Code
 SL  . 1650' FSL & 990' FEL:   Surface Location
 PD  .                 GL:   Permanent Datum
 DD  .F              3054:   Depth driller
 DL  .F              3052:   Depth logger
 BLI .F              3060:   Bottom log interval
 CS1 .IN            8.625:   Casing size
 CBD1.      8.625" @ 210':   Casing driller 1
 CBL1.F               225:   Casing logger 1
 BS1 .IN            7.875:   Bit size
 DFT .            KCL MUD:   Type fluid in hole
 DFD .                9.2:   Density
 DFV .                 37:   Viscosity
 DFPH.                 10:   pH
 DFL .                  8:   Fluid loss
 MSS .           FLOWLINE:   Source of sample
 RMS .OHMM            .29:   Rm
 MST .F                75:   Rm Meas. temp.
 RMF .OHMM            .27:   Rmf
 MFST.F                75:   Rmf Meas. temp.
 RMC .OHMM            .32:   Rmc
 MCST.F                75:   Rmc Meas. temp.
 MFSS.               MEAS:   Source Rmf.
 RMB .OHMM            .19:   Rm. at BHT
 BHT .F               112:   BHT.
 TCS .HRS               5:   Time Circ. stopped
 MRT .F               112:   Maximum recorded temp.
 LUN .               9685:   Logging unit number
 LUL .             CASPER:   Logging unit location
 ENGI.      JOUNER & DOAK:   Recorded By
 WITN.      B. HARRINGTON:   Witnessed by
 ORIG.           5" PRINT:   Origin of data
 UWI .     49025104070000:   Unique Well ID
 DICO. A2D TECHNOLOGIES, INC.:   Digitizing Company
 DAPD.                 10:   Feet Above Permanent Datum
 BSD1.               3054:   Depth drilled with bit1
 MCSS.               MEAS:   Source Rmc.
 EPD .               5144:   Elevation Permanent Datum
 LMF .                 KB:   Log Measured From
 DMF .                 KB:   Drilling Measured From
 TLI .                225:   Top log interval
~OTHER INFORMATION
~A   DEPT     NPHI        SPR       SGRD        ILD        ILM       CALD         GRD       CORR        RHOB 
# ...
 1893.0000     0.3230   -51.1110    10.0190     6.9100     8.1430     8.5760   134.7660     0.0730     2.5170
 1893.5000     0.3230   -50.9550     9.7440     6.8730     8.2480     8.5760   136.1490     0.0770     2.5190
 1894.0000     0.3220   -50.7980     9.6990     6.8300     8.4350     8.5760   137.5240     0.0820     2.5220
 1894.5000     0.3170   -50.6410     9.6820     6.8450     8.6230     8.5760   138.0810     0.0820     2.5180
 1895.0000     0.3130   -50.4860    10.6120     6.8630     8.8100     8.5760   136.6440     0.0800     2.5150
 1895.5000     0.3130   -50.3780    11.1120     6.8820     8.9700     8.5760   138.2720     0.0790     2.5110
 1896.0000     0.3130   -50.4660    10.7730     6.9000     9.1630     8.5760   138.2090     0.0780     2.5080
 1896.5000     0.3100   -50.5500    10.5160     6.9180     9.1080     8.5760   137.0470     0.0770     2.5070
 1897.0000     0.3120   -50.6330    10.7690     6.9360     8.9860     8.5760   136.0410     0.0770     2.5080
 1897.5000     0.3130   -50.7160    11.0110     6.9540     8.8640     8.5760   137.1490     0.0770     2.5090
 1898.0000     0.3120   -50.7280    10.8740     6.9890     8.7520     8.5760   136.0250     0.0780     2.5100
 1898.5000     0.3120   -50.6570    10.6710     7.0270     8.8150     8.5760   135.4600     0.0800     2.5100
 1899.0000     0.3110   -50.5860    10.4690     7.0650     8.8730     8.5760   135.1760     0.0790     2.5020
 1899.5000     0.3100   -50.5150    10.3250     7.1020     8.9500     8.5760   134.9090     0.0720     2.4940
 1900.0000     0.3100   -50.4430    11.4220     7.1400     9.0740     8.5760   134.8170     0.0650     2.4860
 1900.5000     0.3120   -50.3720    11.4060     7.2750     9.1980     8.5760   135.5780     0.0590     2.4780
 1901.0000     0.3100   -50.3000    11.3730     7.4520     9.3330     8.5760   135.5140     0.0550     2.4780
 1901.5000     0.3060   -50.2290    11.3410     7.6300     9.2980     8.5760   134.3410     0.0530     2.4770
 1902.0000     0.3020   -50.1700    11.3180     7.8070     9.2480     8.5760   133.2240     0.0530     2.4780
 1902.5000     0.3010   -50.2020    11.6260     7.9840     9.5160     8.5760   133.6780     0.0530     2.4800
 1903.0000     0.3010   -50.2350    11.8610     8.1610     9.8950     8.5760   133.6590     0.0530     2.4820
 1903.5000     0.3080   -50.2690    12.0370     8.3080    10.2920     8.5760   131.4660     0.0530     2.4870
 1904.0000     0.3040   -50.3020    11.5350     8.5270    10.8330     8.5760   129.5200     0.0540     2.4960
 1904.5000     0.2990   -50.3350    10.8810     8.7470    11.3740     8.5750   130.8630     0.0600     2.5070
 1905.0000     0.2990   -50.3640    10.2270     8.9660    11.6790     8.5740   132.5810     0.0650     2.5180
 1905.5000     0.3000   -50.3640     9.9530     9.1850    11.7640     8.5730   134.0380     0.0700     2.5250
 1906.0000     0.3000   -50.3640    10.1370     9.4050    11.8500     8.5720   133.6670     0.0750     2.5280
 1906.5000     0.3010   -50.3640    11.4730     9.6240    11.9360     8.5710   135.2240     0.0760     2.5240
 1907.0000     0.3010   -50.3640    12.9190     9.8260    11.9590     8.5700   138.0450     0.0770     2.5200
 1907.5000     0.3020   -50.3640    13.8420     9.9930    11.9590     8.5690   136.5730     0.0770     2.5140
 1908.0000     0.2970   -50.3640    14.2390    10.1370    11.6640     8.5680   134.3380     0.0760     2.5080
 1908.5000     0.2980   -50.3650    14.1920     9.9750    11.2590     8.5670   136.4320     0.0630     2.5030
 1909.0000     0.2990   -50.4000    14.1420     9.8000    10.9100     8.5660   138.4280     0.0570     2.4970
 1909.5000     0.3000   -50.5240    14.0130     9.6260    10.7490     8.5650   140.4180     0.0530     2.4910
 1910.0000     0.3000   -50.6430    13.6000     9.4520    10.5160     8.5640   141.4910     0.0490     2.4880
 1910.5000     0.3010   -50.7630    13.6420     9.2780    10.4730     8.5620   140.9880     0.0540     2.4930
 1911.0000     0.2990   -50.8820    13.7250     9.1460    10.4280     8.5610   140.4900     0.0610     2.4970
 1911.5000     0.2990   -50.9690    13.5270     9.0270    10.3820     8.5600   139.9870     0.0640     2.5020
 1912.0000     0.2960   -50.9910    13.3520     8.9080    10.3370     8.5590   139.5640     0.0660     2.5040
 1912.5000     0.2940   -51.0150    13.5640     8.7890    10.3000     8.5580   140.0410     0.0670     2.5030
 1913.0000     0.2940   -51.0380    13.7210     8.6700    10.2560     8.5570   140.5220     0.0680     2.5060
 1913.5000     0.2920   -51.0610    13.8780     8.5640    10.2110     8.5560   141.0430     0.0700     2.5080
 1914.0000     0.2940   -51.0840    13.9950     8.4820    10.1660     8.5550   139.6290     0.0700     2.5090
 1914.5000     0.2960   -51.1070    14.0380     8.4000    10.1110     8.5540   139.6910     0.0670     2.5070
 1915.0000     0.2970   -51.1300    14.0810     8.3190     9.9440     8.5530   140.6680     0.0690     2.5070
 1915.5000     0.2980   -51.1540    14.1090     8.2830     9.7780     8.5520   140.9800     0.0720     2.5090
 1916.0000     0.3000   -51.1590    13.8950     8.2830     9.5280     8.5510   140.0500     0.0750     2.5100
 1916.5000     0.3010   -51.1590    13.2310     8.2830     9.5890     8.5500   139.1280     0.0750     2.5110
 1917.0000     0.3030   -51.1580    12.0690     8.2830     9.8170     8.5490   138.4100     0.0690     2.5040
 1917.5000     0.3010   -51.1580    12.5770     8.2830    10.0450     8.5480   138.9760     0.0640     2.4970
 1918.0000     0.3030   -51.0860    13.8520     8.2830    10.2730     8.5470   139.5170     0.0590     2.4910
 1918.5000     0.3100   -50.9630    13.7610     8.5130    10.5750     8.5460   140.0540     0.0540     2.4840
 1919.0000     0.3090   -50.8400    13.2980     8.7510    10.8980     8.5450   140.5940     0.0540     2.4820
 1919.5000     0.3120   -50.7140    12.7460     8.9880    11.2220     8.5430   141.1140     0.0530     2.4800
 1920.0000     0.3060   -50.5840    12.2930     9.2250    11.4190     8.5420   140.7110     0.0530     2.4790
 1920.5000     0.3030   -50.7200    13.7170     9.4380    11.3900     8.5410   140.0480     0.0530     2.4830
 1921.0000     0.3050   -50.9190    14.9240     9.5420    11.3660     8.5400   139.5440     0.0540     2.4860
 1921.5000     0.3000   -50.9880    15.4660     9.6460    11.3420     8.5390   140.1230     0.0540     2.4900
 1922.0000     0.2980   -51.0260    14.9800     9.7500    11.3180     8.5380   140.0220     0.0540     2.4940
 1922.5000     0.2910   -51.0630    14.5700     9.7720    10.9860     8.5370   138.6630     0.0520     2.4900
 1923.0000     0.2930   -51.1000    14.2080     9.5900    10.6500     8.5360   137.3390     0.0490     2.4830
 1923.5000     0.2950   -51.1370    14.0450     9.2830    10.3150     8.5360   137.4450     0.0460     2.4760
 1924.0000     0.2950   -51.1780    13.9600     8.9770    10.0440     8.5350   138.0270     0.0420     2.4690
 1924.5000     0.2940   -51.2250    13.9260     8.7550    10.0440     8.5350   137.9570     0.0380     2.4630
 1925.0000     0.2960   -51.2720    13.8920     8.5580    10.0440     8.5350   136.4130     0.0340     2.4590
 1925.5000     0.2970   -51.3200    13.8590     8.3610    10.0440     8.5340   137.2220     0.0300     2.4540
 1926.0000     0.2980   -51.3670    13.4040     8.2440    10.0540     8.5340   137.1020     0.0270     2.4600
 1926.5000     0.2990   -51.4150    12.8470     8.1790    10.1040     8.5330   135.4950     0.0300     2.4690
 1927.0000     0.3010   -51.4620    12.2930     8.1130    10.1530     8.5330   133.9240     0.0340     2.4780
 1927.5000     0.3020   -51.5100    12.9490     8.0480    10.2310     8.5330   133.3880     0.0370     2.4800
 1928.0000     0.3050   -51.5520    13.8230     7.9840    10.2210     8.5320   134.7060     0.0330     2.4780
 1928.5000     0.3020   -51.4610    13.6930     8.0090    10.1990     8.5320   135.4960     0.0390     2.4830
 1929.0000     0.3020   -51.3660    13.4330     8.0400    10.1770     8.5310   134.8590     0.0450     2.4880
