~VERSION INFORMATION
 VERS.                2.0:   CWLS LOG ASCII STANDARD - VERSION 2.0
 WRAP.                 NO:   ONE LINE PER DEPTH STEP
~WELL INFORMATION
#MNEM.UNIT      DATA TYPE    INFORMATION
#----------   ------------   ------------------------------
 STRT.F          216.0000:   START DEPTH
 STOP.F         3350.0000:   STOP DEPTH
 STEP.F            0.5000:   STEP LENGTH
 NULL.          -999.2500:   NO VALUE
 COMP.    FENIX & SCISSON:   COMPANY
 WELL. FENIX 52 "AX" #3-15:   WELL
 FLD .              N P R:   FIELD
 LOC .      S15 T38N R78W:   LOCATION
 CNTY.            NATRONA:   COUNTY
 STAT.            WYOMING:   STATE
 CTRY. UNITED STATES OF AMERICA:   COUNTRY
 SRVC.              WELEX:   SERVICE COMPANY
 DATE.        13-AUG-1977:   LOGDATE
 API .     49025104110000:   API NUMBER
~CURVE INFORMATION
#MNEM.UNIT       API CODE    CURVE DESCRIPTION
#----------   ------------   ------------------------------
 DEPT.F                  :   
 CORR.G/C3   45 356 01 00:   DENSITY CORRECTION
 CALD.IN     45 280 60 00:   CALIPER FROM DENSITY LOG
 GRD .GAPI   45 310 01 00:   GAMMA RAY FROM DENSITY LOG
 RHOB.G/C3   45 350 01 00:   BULK DENSITY
 NPHI.DEC    42 890 03 00:   NEUTRON POROSITY SANDSTONE
 SPR .MV     07 010 01 00:   SPONTANEOUS POTENTIAL
 SGRD.OHMM   07 220 05 00:   SHALLOW SHORT GUARD RESISTIVITY
 ILD .OHMM   07 120 46 00:   DEEP INDUCTION RESISTIVITY
 ILM .OHMM   07 120 44 00:   INDUCTION LOG MEDIUM RESISTIVITY
~PARAMETER INFORMATION
#MNEM.UNIT          VALUE    DESCRIPTION
#----------   ------------   ------------------------------
 EKB .F         5241.0000:   Kelly bushing
 EGL .F         5231.0000:   Ground level
 TD  .F         3352.0000:   Total depth
 DATE.        13-AUG-1977:   Date logged
 CLNT.            A2DTECH:   Client Code
 SL  . 940' FNL & 2310' FEL:   Surface Location
 PD  .                 GL:   Permanent Datum
 DD  .F              3350:   Depth driller
 DL  .F              3352:   Depth logger
 BLI .F              3350:   Bottom log interval
 CS1 .IN            8.625:   Casing size
 CBD1.      8.625" @ 227':   Casing driller 1
 CBL1.F               228:   Casing logger 1
 BS1 .IN            7.875:   Bit size
 DFT .          KCL WATER:   Type fluid in hole
 DFD .                8.9:   Density
 DFV .                 41:   Viscosity
 DFPH.                 11:   pH
 DFL .               17.2:   Fluid loss
 MSS .            MUD PIT:   Source of sample
 RMS .OHMM           .172:   Rm
 MST .F                74:   Rm Meas. temp.
 RMF .OHMM           .203:   Rmf
 MFST.F                74:   Rmf Meas. temp.
 RMC .OHMM           .220:   Rmc
 MCST.F                74:   Rmc Meas. temp.
 MFSS.               MEAS:   Source Rmf.
 RMB .OHMM           .105:   Rm. at BHT
 BHT .F               121:   BHT.
 TCS .HRS               4:   Time Circ. stopped
 MRT .F               121:   Maximum recorded temp.
 LUN .               9685:   Logging unit number
 LUL .             CASPER:   Logging unit location
 ENGI.             JOYNER:   Recorded By
 WITN.         PETTINGILL:   Witnessed by
 ORIG.           5" PRINT:   Origin of data
 UWI .     49025104110000:   Unique Well ID
 DICO. A2D TECHNOLOGIES, INC.:   Digitizing Company
 DAPD.F                10:   Feet Above Permanent Datum
 BSD1.F              3350:   Depth drilled with bit1
 EPD .F              5231:   Elevation Permanent Datum
 LMF .                 KB:   Log Measured From
 DMF .                 KB:   Drilling Measured From
 TLI .F               228:   Top log interval
~OTHER INFORMATION
~A   DEPT       CORR       CALD      GRD         RHOB       NPHI      SPR       SGRD        ILD        ILM   
# ...
 1457.0000     0.0120    10.1450   122.0380     2.5030     0.3340   -59.3370     7.3230     4.6900     5.9970
 1457.5000     0.0060    10.1350   123.3010     2.5010     0.3290   -59.4480     7.2490     4.6360     5.9910
 1458.0000     0.0010    10.1160   123.9350     2.4990     0.3250   -59.5790     7.1750     4.5820     5.9850
 1458.5000    -0.0040    10.0980   123.7430     2.4980     0.3300   -59.7130     7.1180     4.4940     5.9790
 1459.0000    -0.0100    10.0800   122.5940     2.4960     0.3310   -59.7380     7.1180     4.3870     5.9720
 1459.5000    -0.0140    10.0620   121.4620     2.4950     0.3270   -59.7310     7.1180     4.2790     5.9690
 1460.0000    -0.0070    10.0640   120.4310     2.4960     0.3270   -59.5390     7.1140     4.1720     5.9720
 1460.5000     0.0010    10.0450   120.1620     2.5010     0.3290   -59.3500     7.1090     4.0640     5.9740
 1461.0000     0.0040    10.0610   121.1810     2.5070     0.3250   -59.1570     7.1040     4.0410     5.9760
 1461.5000     0.0040    10.0770   122.0570     2.5140     0.3240   -59.2840     7.0990     4.0370     5.9780
 1462.0000     0.0040    10.0920   122.3320     2.5200     0.3190   -59.4000     7.0930     4.0330     5.9800
 1462.5000     0.0050    10.1080   122.1900     2.5260     0.3190   -59.5130     7.0880     4.0290     5.9830
 1463.0000     0.0080    10.1240   122.0290     2.5280     0.3250   -59.5370     7.0830     4.0250     5.9850
 1463.5000     0.0080    10.1390   121.8660     2.5200     0.3280   -59.5580     7.0770     4.0210     5.9870
 1464.0000     0.0070    10.1550   121.7060     2.5120     0.3300   -59.5860     7.0720     4.0170     5.9890
 1464.5000     0.0060    10.1710   121.5450     2.5040     0.3300   -59.6130     7.0670     4.0130     5.9910
 1465.0000     0.0020    10.1860   121.3840     2.5040     0.3280   -59.6400     7.0620     4.0070     5.9930
 1465.5000     0.0000    10.2020   121.2240     2.5060     0.3290   -59.6670     7.0570     4.0450     5.9960
 1466.0000     0.0030    10.2180   121.0620     2.5090     0.3310   -59.6940     7.0530     4.1100     5.9980
 1466.5000     0.0070    10.2330   120.9000     2.5110     0.3260   -59.7220     7.0500     4.1750     6.0000
 1467.0000     0.0100    10.2490   120.7740     2.5140     0.3250   -59.7490     7.1160     4.2400     6.0020
 1467.5000     0.0130    10.2650   121.0840     2.5150     0.3290   -59.7760     7.1880     4.3060     6.0040
 1468.0000     0.0120    10.2800   121.6330     2.5100     0.3340   -59.8030     7.1840     4.3710     6.0060
 1468.5000     0.0090    10.2510   122.1520     2.5050     0.3320   -59.8310     7.2230     4.4360     6.0090
 1469.0000     0.0060    10.2170   123.9030     2.5000     0.3340   -59.8580     7.2000     4.4780     6.0110
 1469.5000     0.0040    10.1840   123.3890     2.4950     0.3330   -59.8850     7.1760     4.6480     6.0130
 1470.0000     0.0000    10.1500   122.5660     2.4940     0.3320   -59.9120     7.1520     4.5500     6.0150
 1470.5000     0.0010    10.1170   121.7590     2.4990     0.3310   -59.9390     7.1290     4.3700     6.0170
 1471.0000     0.0040    10.1020   120.9560     2.5060     0.3290   -59.9670     7.0950     4.1900     6.0190
 1471.5000     0.0060    10.1020   120.1420     2.5130     0.3270   -59.9940     7.0260     4.0100     6.0210
 1472.0000     0.0080    10.1020   120.2770     2.5150     0.3220   -60.0210     6.9580     3.8300     6.0240
 1472.5000     0.0070    10.1020   121.1740     2.5040     0.3240   -60.0480     6.8890     3.6500     6.0270
 1473.0000     0.0060    10.0970   121.5490     2.4940     0.3280   -60.0750     6.8210     3.4550     6.0300
 1473.5000     0.0060    10.0910   121.1020     2.4910     0.3290   -60.1020     6.7530     3.9710     6.0330
 1474.0000     0.0060    10.0860   120.3430     2.4970     0.3320   -60.1290     6.7330     4.5340     6.0360
 1474.5000     0.0120    10.0810   119.5780     2.5040     0.3360   -60.1190     6.7950     5.0970     6.0390
 1475.0000     0.0170    10.0760   118.8100     2.5120     0.3390   -60.0130     6.7950     5.7540     6.0430
 1475.5000     0.0220    10.0710   118.0430     2.5200     0.3420   -59.9590     6.8590     5.9140     6.0460
 1476.0000     0.0230    10.0650   117.2690     2.5140     0.3440   -59.7440     7.0520     5.2790     6.0490
 1476.5000     0.0180    10.0600   116.4650     2.5020     0.3430   -59.7690     7.1840     4.8480     6.0520
 1477.0000     0.0140    10.0550   117.3510     2.4980     0.3400   -59.7850     7.1600     4.4180     6.0550
 1477.5000     0.0130    10.0500   118.7460     2.5010     0.3410   -59.8030     7.1420     3.9870     6.0580
 1478.0000     0.0170    10.0440   120.1410     2.5110     0.3420   -59.8220     7.1230     3.3290     6.0620
 1478.5000     0.0210    10.0390   121.5620     2.5220     0.3400   -59.8400     7.1050     3.7510     6.0650
 1479.0000     0.0260    10.0340   123.0840     2.5310     0.3410   -59.8590     7.0860     4.6420     6.0680
 1479.5000     0.0300    10.0290   119.2710     2.5290     0.3410   -59.8780     7.0680     5.5320     6.0710
 1480.0000     0.0340    10.0230   117.6920     2.5260     0.3440   -59.8970     7.0500     6.5020     6.0740
 1480.5000     0.0460    10.0180   119.9140     2.5390     0.3440   -59.9180     7.0310     6.1870     6.0780
 1481.0000     0.0580    10.0130   122.0210     2.5530     0.3430   -59.9370     7.0130     5.7660     6.0810
 1481.5000     0.0640    10.0080   121.9790     2.5460     0.3410   -59.8980     6.9940     5.3460     6.0840
 1482.0000     0.0640    10.0020   120.9200     2.5340     0.3370   -59.7490     6.9760     4.9260     6.0870
 1482.5000     0.0640     9.9970   119.4350     2.5210     0.3330   -59.7400     6.9570     4.5940     6.0900
 1483.0000     0.0640     9.9920   118.3390     2.5080     0.3280   -59.7390     6.9390     4.3760     6.0940
 1483.5000     0.0590     9.9860   118.3640     2.4950     0.3290   -59.7390     6.9210     4.1570     6.0970
 1484.0000     0.0420     9.9820   118.4500     2.4890     0.3330   -59.7340     6.9020     4.1090     6.1000
 1484.5000     0.0250    10.0050   118.5440     2.4960     0.3310   -59.7240     6.8840     4.0960     6.1030
 1485.0000     0.0220    10.0220   118.6400     2.5020     0.3290   -59.7140     6.8650     4.0820     6.1060
 1485.5000     0.0170    10.0330   118.7430     2.4970     0.3300   -59.7050     6.8470     4.0690     6.1090
 1486.0000     0.0130    10.0430   119.4850     2.4860     0.3320   -59.6950     6.8280     4.0550     6.1130
 1486.5000     0.0170    10.0530   119.3790     2.4750     0.3290   -59.6850     6.8090     4.0450     6.1160
 1487.0000     0.0230    10.0630   119.0190     2.4710     0.3260   -59.6750     6.7950     4.4890     6.1190
 1487.5000     0.0290    10.0730   118.6630     2.4720     0.3220   -59.6650     6.7950     5.0050     6.1220
 1488.0000     0.0350    10.0830   118.3080     2.4740     0.3240   -59.6550     6.8840     5.0010     6.1250
 1488.5000     0.0410    10.0930   117.9540     2.4770     0.3240   -59.6460     7.0180     4.9950     6.1290
 1489.0000     0.0480    10.1030   117.5990     2.4820     0.3260   -59.6360     7.1840     4.9890     6.1320
 1489.5000     0.0500    10.1140   117.2400     2.4900     0.3250   -59.6260     7.1230     4.9830     6.1350
 1490.0000     0.0480    10.1240   117.1720     2.4980     0.3270   -59.6160     7.0460     4.9770     6.1370
 1490.5000     0.0470    10.1340   117.3450     2.5060     0.3290   -59.6060     6.9680     4.9710     6.1370
 1491.0000     0.0460    10.1440   117.8030     2.5130     0.3310   -59.5960     6.8910     4.9640     6.1370
 1491.5000     0.0440    10.1540   119.0830     2.5130     0.3280   -59.5870     6.8130     4.9580     6.1370
 1492.0000     0.0430    10.1640   119.0530     2.5100     0.3300   -59.5770     6.7360     4.9520     6.1370
 1492.5000     0.0410    10.1740   118.5070     2.5080     0.3280   -59.5670     6.6710     4.9460     6.1370
 1493.0000     0.0400    10.1840   117.9550     2.5060     0.3250   -59.5570     6.6710     4.9400     6.1370
