~VERSION INFORMATION
 VERS.                2.0:   CWLS LOG ASCII STANDARD - VERSION 2.0
 WRAP.                 NO:   ONE LINE PER DEPTH STEP
~WELL INFORMATION
#MNEM.UNIT      DATA TYPE    INFORMATION
#----------   ------------   ------------------------------
 STRT.F          214.0000:   START DEPTH
 STOP.F         3064.0000:   STOP DEPTH
 STEP.F            0.5000:   STEP LENGTH
 NULL.          -999.2500:   NO VALUE
 COMP.    FENIX & SCISSON:   COMPANY
 WELL.    FENIX "A" #76-3:   WELL
 FLD .                NPR:   FIELD
 LOC .       S3 T38N R78W:   LOCATION
 CNTY.            NATRONA:   COUNTY
 STAT.            WYOMING:   STATE
 CTRY. UNITED STATES OF AMERICA:   COUNTRY
 SRVC.              WELEX:   SERVICE COMPANY
 DATE.        07-AUG-1988:   LOGDATE
 API .     49025104070000:   API NUMBER
~CURVE INFORMATION
#MNEM.UNIT       API CODE    CURVE DESCRIPTION
#----------   ------------   ------------------------------
 DEPT.F                  :   
 NPHI.DEC    42 890 00 00:   NEUTRON POROSITY
 SPR .MV     07 010 01 00:   SPONTANEOUS POTENTIAL
 SGRD.OHMM   07 220 05 00:   SHALLOW GUARD LOG RESISTIVITY
 ILD .OHMM   07 120 46 00:   DEEP INDUCTION RESISTIVITY
 ILM .OHMM   07 120 44 00:   INDUCTION LOG MEDIUM RESISTIVITY
 CALD.IN     45 280 60 00:   CALIPER FROM DENSITY LOG
 GRD .GAPI   45 310 01 00:   GAMMA RAY FROM DENSITY LOG
 CORR.G/C3   45 356 01 00:   DENSITY CORRECTION
 RHOB.G/C3   45 350 01 00:   BULK DENSITY
~PARAMETER INFORMATION
#MNEM.UNIT          VALUE    DESCRIPTION
#----------   ------------   ------------------------------
 EKB .F         5154.0000:   Kelly bushing
 EGL .F         5144.0000:   Ground level
 EDF .F            0.0000:   Drilling floor
 TD  .F         3054.0000:   Total depth
 DATE.        07-AUG-1988:   Date logged
 CLNT.            A2DTECH:   Client Code
 SL  . 1650' FSL & 990' FEL:   Surface Location
 PD  .                 GL:   Permanent Datum
 DD  .F              3054:   Depth driller
 DL  .F              3052:   Depth logger
 BLI .F              3060:   Bottom log interval
 CS1 .IN            8.625:   Casing size
 CBD1.      8.625" @ 210':   Casing driller 1
 CBL1.F               225:   Casing logger 1
 BS1 .IN            7.875:   Bit size
 DFT .            KCL MUD:   Type fluid in hole
 DFD .                9.2:   Density
 DFV .                 37:   Viscosity
 DFPH.                 10:   pH
 DFL .                  8:   Fluid loss
 MSS .           FLOWLINE:   Source of sample
 RMS .OHMM            .29:   Rm
 MST .F                75:   Rm Meas. temp.
 RMF .OHMM            .27:   Rmf
 MFST.F                75:   Rmf Meas. temp.
 RMC .OHMM            .32:   Rmc
 MCST.F                75:   Rmc Meas. temp.
 MFSS.               MEAS:   Source Rmf.
 RMB .OHMM            .19:   Rm. at BHT
 BHT .F               112:   BHT.
 TCS .HRS               5:   Time Circ. stopped
 MRT .F               112:   Maximum recorded temp.
 LUN .               9685:   Logging unit number
 LUL .             CASPER:   Logging unit location
 ENGI.      JOUNER & DOAK:   Recorded By
 WITN.      B. HARRINGTON:   Witnessed by
 ORIG.           5" PRINT:   Origin of data
 UWI .     49025104070000:   Unique Well ID
 DICO. A2D TECHNOLOGIES, INC.:   Digitizing Company
 DAPD.                 10:   Feet Above Permanent Datum
 BSD1.               3054:   Depth drilled with bit1
 MCSS.               MEAS:   Source Rmc.
 EPD .               5144:   Elevation Permanent Datum
 LMF .                 KB:   Log Measured From
 DMF .                 KB:   Drilling Measured From
 TLI .                225:   Top log interval
~OTHER INFORMATION
~A   DEPT     NPHI        SPR       SGRD        ILD        ILM       CALD         GRD       CORR        RHOB 
# ...
  396.5000     0.2700   -30.6430    10.5670     9.1540     9.7910    10.9740    51.5630     0.1280     2.3480
  397.0000     0.2750   -30.0300    10.8100     9.2590     9.7270    10.9660    47.6620     0.1250     2.3280
  397.5000     0.2690   -29.4160    10.6390     9.4630     9.6820    10.9590    45.7750     0.1230     2.3090
  398.0000     0.2660   -29.1090    10.4930     9.6950     9.9750    10.9530    44.3830     0.1260     2.2950
  398.5000     0.2610   -29.1080    10.4200     9.9060    10.2010    10.9480    43.0150     0.1260     2.2880
  399.0000     0.2620   -29.1060    10.6070    10.1370    10.4260    10.9440    40.6470     0.1240     2.2890
  399.5000     0.2670   -29.1060    10.7510    10.3200    10.6510    10.9390    37.3690     0.1220     2.2930
  400.0000     0.2650   -29.1060    10.9100    10.5230    10.8770    10.9350    35.5530     0.1210     2.3040
  400.5000     0.2670   -29.1060    11.2550    10.7260    11.1020    10.9300    35.6780     0.1190     2.3140
  401.0000     0.2610   -29.1070    11.6390    10.9290    11.3350    10.9260    36.2260     0.1180     2.3150
  401.5000     0.2640   -29.1100    12.0220    11.1120    11.5770    10.9210    36.7920     0.1170     2.3130
  402.0000     0.2690   -29.0820    12.4060    11.1640    11.8180    10.9170    37.3550     0.1180     2.3120
  402.5000     0.2690   -28.5460    12.6370    11.2100    12.0600    10.9080    37.7570     0.1200     2.3030
  403.0000     0.2630   -28.0270    12.6370    11.2570    12.2930    10.8980    36.8880     0.1230     2.3020
  403.5000     0.2640   -27.5130    12.5960    11.3040    12.2380    10.8870    35.3150     0.1250     2.3030
  404.0000     0.2610   -26.9990    12.4620    11.3760    12.0530    10.8770    33.7110     0.1260     2.2990
  404.5000     0.2580   -26.4860    12.3280    11.4590    11.8500    10.8670    34.9250     0.1210     2.3010
  405.0000     0.2630   -26.0420    12.1810    11.5430    11.7410    10.8560    37.1480     0.1190     2.3050
  405.5000     0.2610   -25.7630    12.1810    11.6340    11.6200    10.8310    39.4200     0.1240     2.3150
  406.0000     0.2670   -25.4830    12.2930    11.5780    11.4990    10.8030    41.6970     0.1280     2.3240
  406.5000     0.2630   -25.2040    12.6760    11.5160    11.3780    10.7960    40.9030     0.1210     2.3240
  407.0000     0.2650   -24.9240    13.0230    11.4220    11.3180    10.7960    41.8500     0.1130     2.3200
  407.5000     0.2620   -24.6420    13.4750    11.5010    11.3180    10.7960    42.5700     0.1130     2.3150
  408.0000     0.2600   -24.3510    13.3230    11.6590    11.3180    10.7960    42.1800     0.1120     2.3100
  408.5000     0.2740   -24.3760    13.1090    11.8170    11.3180    10.7960    41.7940     0.1090     2.3110
  409.0000     0.2690   -24.4230    13.2770    11.9590    11.5280    10.7960    41.6300     0.1060     2.3120
  409.5000     0.2740   -24.4680    13.4750    11.9970    11.3190    10.7900    42.1490     0.1040     2.3070
  410.0000     0.2790   -24.5130    13.3450    12.0320    11.0190    10.7830    42.7160     0.0970     2.2990
  410.5000     0.2780   -24.5100    13.1580    12.0690    10.7110    10.7750    43.2390     0.0890     2.2920
  411.0000     0.2810   -24.4580    12.9890    11.9530    10.7830    10.7670    43.4100     0.0830     2.2850
  411.5000     0.2780   -24.4060    13.0590    11.8240    10.8480    10.7590    44.8050     0.0790     2.2800
  412.0000     0.2810   -24.3460    13.1090    11.6950    10.9130    10.7520    47.3190     0.0750     2.2750
  412.5000     0.2760   -24.6040    12.8150    11.5670    10.9780    10.7440    49.8450     0.0740     2.2760
  413.0000     0.2780   -24.9780    12.5890    11.4900    11.0720    10.7360    52.3570     0.0780     2.2850
  413.5000     0.2760   -25.3550    12.5210    11.4350    11.2780    10.7280    54.6950     0.0820     2.2940
  414.0000     0.2750   -25.7320    13.0600    11.3800    11.4360    10.7200    54.9890     0.0840     2.3010
  414.5000     0.2770   -26.1120    13.4750    11.3250    11.4800    10.7000    52.7720     0.0810     2.2950
  415.0000     0.2740   -26.5070    13.6470    11.2710    11.5240    10.6690    50.5760     0.0780     2.2900
  415.5000     0.2730   -26.6920    13.7250    11.2160    11.5680    10.6380    48.4150     0.0750     2.2870
  416.0000     0.2700   -26.8730    12.9440    11.1610    11.6120    10.6200    46.6480     0.0770     2.2940
  416.5000     0.2640   -27.0560    12.4070    11.1120    11.6920    10.6010    47.5480     0.0800     2.2990
  417.0000     0.2570   -27.2410    13.0540    11.1410    11.8080    10.5830    46.9080     0.0740     2.3010
  417.5000     0.2520   -27.4260    13.2300    11.1730    11.9240    10.5640    46.3510     0.0680     2.3020
  418.0000     0.2530   -27.7660    13.3320    11.2050    12.1970    10.5450    48.0030     0.0630     2.3060
  418.5000     0.2520   -28.2620    13.6690    11.4750    12.4530    10.5260    48.0230     0.0570     2.3130
  419.0000     0.2490   -28.7580    14.0070    11.8460    12.7080    10.4860    47.4660     0.0510     2.3200
  419.5000     0.2440   -29.2550    14.3330    12.1810    12.9890    10.4590    46.8630     0.0450     2.3220
  420.0000     0.2400   -29.7560    14.5700    12.4500    13.0900    10.4300    47.7470     0.0400     2.3250
  420.5000     0.2340   -30.2760    15.5750    12.6940    13.2300    10.4010    48.9710     0.0350     2.3280
  421.0000     0.2380   -30.4540    16.9170    12.9380    12.6370    10.3720    49.7950     0.0310     2.3230
  421.5000     0.2400   -30.6210    17.5870    13.1260    11.2460    10.3670    50.0200     0.0350     2.3140
  422.0000     0.2410   -30.7900    15.5720    13.1810    10.4200    10.3780    50.2560     0.0410     2.3060
  422.5000     0.2410   -30.9590    13.8650    13.2220    10.4200    10.3900    50.5130     0.0580     2.2970
  423.0000     0.2450   -31.1290    13.0530    12.7400    10.7450    10.4010    49.9420     0.0520     2.2880
  423.5000     0.2480   -31.2990    12.5210    12.3290    11.0110    10.4130    49.9800     0.0510     2.2870
  424.0000     0.2530   -31.4680    12.6690    11.9590    11.2150    10.4230    51.8060     0.0480     2.2900
  424.5000     0.2600   -31.6370    12.9640    11.6650    11.5280    10.4320    53.3280     0.0540     2.2930
  425.0000     0.2640   -31.9390    13.2300    11.4000    11.4170    10.4400    51.9670     0.0720     2.3040
  425.5000     0.2670   -32.2950    13.0450    11.0930    11.1970    10.4490    50.1280     0.0850     2.3130
  426.0000     0.2690   -32.6510    12.6370    10.6890    10.9760    10.4580    47.5530     0.0870     2.3180
  426.5000     0.2660   -33.0080    12.5180    10.3250    10.8850    10.4570    45.8340     0.0840     2.3220
  427.0000     0.2630   -33.3650    12.3860     9.6460    10.8350    10.4530    46.4140     0.0800     2.3270
  427.5000     0.2580   -33.7220    12.2630     8.8910    10.8100    10.4500    47.2010     0.0770     2.3310
  428.0000     0.2590   -34.0820    12.1610     8.4500    10.8100    10.4470    49.0330     0.0710     2.3240
  428.5000     0.2550   -34.4540    12.0690     8.3590    10.8240    10.4440    50.8950     0.0510     2.3130
  429.0000     0.2530   -34.4730    12.3010     8.5280    10.8690    10.4410    52.7500     0.0410     2.3040
  429.5000     0.2540   -34.4710    12.6370     8.8460    10.9100    10.4330    54.6050     0.0370     2.3040
  430.0000     0.2560   -34.4700    12.5950     9.3520    11.4480    10.4230    56.4630     0.0420     2.3140
  430.5000     0.2520   -34.4700    12.5210     9.8580    11.9360    10.4120    58.2490     0.0580     2.3230
  431.0000     0.2510   -34.4660    12.5210    10.5160    12.1810    10.4020    58.9330     0.0740     2.3310
  431.5000     0.2540   -34.6680    12.5210    10.4130    11.8950    10.3910    59.5540     0.0830     2.3320
  432.0000     0.2540   -34.9460    12.4910    10.2660    11.3240    10.3810    59.8040     0.0850     2.3380
  432.5000     0.2600   -35.2270    12.4490    10.0440    10.8100    10.3700    58.5100     0.0860     2.3460
