~VERSION INFORMATION
 VERS.                2.0:   CWLS LOG ASCII STANDARD - VERSION 2.0
 WRAP.                 NO:   ONE LINE PER DEPTH STEP
~WELL INFORMATION
#MNEM.UNIT      DATA TYPE    INFORMATION
#----------   ------------   ------------------------------
 STRT.F          216.0000:   START DEPTH
 STOP.F         3350.0000:   STOP DEPTH
 STEP.F            0.5000:   STEP LENGTH
 NULL.          -999.2500:   NO VALUE
 COMP.    FENIX & SCISSON:   COMPANY
 WELL. FENIX 52 "AX" #3-15:   WELL
 FLD .              N P R:   FIELD
 LOC .      S15 T38N R78W:   LOCATION
 CNTY.            NATRONA:   COUNTY
 STAT.            WYOMING:   STATE
 CTRY. UNITED STATES OF AMERICA:   COUNTRY
 SRVC.              WELEX:   SERVICE COMPANY
 DATE.        13-AUG-1977:   LOGDATE
 API .     49025104110000:   API NUMBER
~CURVE INFORMATION
#MNEM.UNIT       API CODE    CURVE DESCRIPTION
#----------   ------------   ------------------------------
 DEPT.F                  :   
 CORR.G/C3   45 356 01 00:   DENSITY CORRECTION
 CALD.IN     45 280 60 00:   CALIPER FROM DENSITY LOG
 GRD .GAPI   45 310 01 00:   GAMMA RAY FROM DENSITY LOG
 RHOB.G/C3   45 350 01 00:   BULK DENSITY
 NPHI.DEC    42 890 03 00:   NEUTRON POROSITY SANDSTONE
 SPR .MV     07 010 01 00:   SPONTANEOUS POTENTIAL
 SGRD.OHMM   07 220 05 00:   SHALLOW SHORT GUARD RESISTIVITY
 ILD .OHMM   07 120 46 00:   DEEP INDUCTION RESISTIVITY
 ILM .OHMM   07 120 44 00:   INDUCTION LOG MEDIUM RESISTIVITY
~PARAMETER INFORMATION
#MNEM.UNIT          VALUE    DESCRIPTION
#----------   ------------   ------------------------------
 EKB .F         5241.0000:   Kelly bushing
 EGL .F         5231.0000:   Ground level
 TD  .F         3352.0000:   Total depth
 DATE.        13-AUG-1977:   Date logged
 CLNT.            A2DTECH:   Client Code
 SL  . 940' FNL & 2310' FEL:   Surface Location
 PD  .                 GL:   Permanent Datum
 DD  .F              3350:   Depth driller
 DL  .F              3352:   Depth logger
 BLI .F              3350:   Bottom log interval
 CS1 .IN            8.625:   Casing size
 CBD1.      8.625" @ 227':   Casing driller 1
 CBL1.F               228:   Casing logger 1
 BS1 .IN            7.875:   Bit size
 DFT .          KCL WATER:   Type fluid in hole
 DFD .                8.9:   Density
 DFV .                 41:   Viscosity
 DFPH.                 11:   pH
 DFL .               17.2:   Fluid loss
 MSS .            MUD PIT:   Source of sample
 RMS .OHMM           .172:   Rm
 MST .F                74:   Rm Meas. temp.
 RMF .OHMM           .203:   Rmf
 MFST.F                74:   Rmf Meas. temp.
 RMC .OHMM           .220:   Rmc
 MCST.F                74:   Rmc Meas. temp.
 MFSS.               MEAS:   Source Rmf.
 RMB .OHMM           .105:   Rm. at BHT
 BHT .F               121:   BHT.
 TCS .HRS               4:   Time Circ. stopped
 MRT .F               121:   Maximum recorded temp.
 LUN .               9685:   Logging unit number
 LUL .             CASPER:   Logging unit location
 ENGI.             JOYNER:   Recorded By
 WITN.         PETTINGILL:   Witnessed by
 ORIG.           5" PRINT:   Origin of data
 UWI .     49025104110000:   Unique Well ID
 DICO. A2D TECHNOLOGIES, INC.:   Digitizing Company
 DAPD.F                10:   Feet Above Permanent Datum
 BSD1.F              3350:   Depth drilled with bit1
 EPD .F              5231:   Elevation Permanent Datum
 LMF .                 KB:   Log Measured From
 DMF .                 KB:   Drilling Measured From
 TLI .F               228:   Top log interval
~OTHER INFORMATION
~A   DEPT       CORR       CALD      GRD         RHOB       NPHI      SPR       SGRD        ILD        ILM   
# ...
 3099.5000     0.0250     8.5160   109.5810     2.3780     0.2300   -49.5130     8.6820     5.9900     6.9490
 3100.0000     0.0300     8.5210   110.8070     2.3860     0.2270   -49.7170     8.1470     5.9690     6.8960
 3100.5000     0.0310     8.5260   110.9420     2.3880     0.2250   -50.2370     7.6650     5.9490     6.8420
 3101.0000     0.0280     8.5300   111.1200     2.3930     0.2220   -50.7340     7.6650     5.9280     6.7890
 3101.5000     0.0300     8.5350   111.2980     2.4050     0.2200   -51.2280     8.0470     5.9080     6.7350
 3102.0000     0.0330     8.5400   111.5060     2.4160     0.2200   -51.7210     8.3320     5.8880     6.6810
 3102.5000     0.0360     8.5450   112.3460     2.4230     0.2170   -52.2140     8.3020     5.8670     6.6280
 3103.0000     0.0380     8.5490   115.2230     2.4320     0.2120   -52.7070     8.2780     5.8470     6.5740
 3103.5000     0.0390     8.5540   118.0030     2.4460     0.2110   -53.2010     8.2550     5.8270     6.4880
 3104.0000     0.0370     8.5590   120.7890     2.4490     0.2140   -53.6940     8.2320     5.8060     6.4880
 3104.5000     0.0350     8.5630   123.6570     2.4520     0.2160   -54.1870     8.2090     5.7860     6.4190
 3105.0000     0.0320     8.5680   125.1080     2.4560     0.2180   -54.6800     8.1850     5.7650     6.3460
 3105.5000     0.0330     8.5730   125.9840     2.4610     0.2150   -55.1730     8.1790     5.7520     6.2730
 3106.0000     0.0360     8.5770   126.8530     2.4700     0.2130   -55.6670     8.1040     5.8100     6.1940
 3106.5000     0.0380     8.5820   127.7610     2.4810     0.2160   -56.1600     8.2840     5.8540     6.1940
 3107.0000     0.0400     8.5870   129.0950     2.4850     0.2190   -56.6530     8.4440     5.8980     6.3200
 3107.5000     0.0400     8.5920   131.7110     2.4780     0.2210   -57.1460     8.6050     5.9420     6.4310
 3108.0000     0.0390     8.5960   134.2280     2.4630     0.2230   -57.6390     8.8080     5.9860     6.5430
 3108.5000     0.0390     8.6010   135.9510     2.4640     0.2250   -58.1330     8.1430     6.0190     6.6540
 3109.0000     0.0380     8.6060   135.9510     2.4680     0.2280   -58.6260     7.4550     5.9220     6.7950
 3109.5000     0.0380     8.6100   136.9580     2.4610     0.2280   -59.1190     7.7540     5.8330     6.6630
 3110.0000     0.0320     8.6150   138.3070     2.4530     0.2270   -59.6120     8.1040     5.7430     6.4820
 3110.5000     0.0260     8.6200   137.5640     2.4450     0.2260   -60.1050     8.5980     5.6530     6.3020
 3111.0000     0.0260     8.6250   136.1770     2.4380     0.2250   -60.5980     8.2570     5.5450     6.1210
 3111.5000     0.0270     8.6250   134.7870     2.4390     0.2240   -61.0540     7.9160     5.4040     5.8590
 3112.0000     0.0280     8.6260   133.3940     2.4450     0.2280   -61.4450     7.5740     5.2620     5.9540
 3112.5000     0.0290     8.6330   131.9960     2.4500     0.2270   -61.8430     7.2330     5.1210     6.1280
 3113.0000     0.0300     8.6390   133.1650     2.4550     0.2200   -61.9430     6.8920     4.9790     6.3100
 3113.5000     0.0310     8.6460   135.4160     2.4570     0.2240   -61.9470     6.5500     4.8370     6.0100
 3114.0000     0.0340     8.6530   134.9460     2.4590     0.2210   -61.9480     6.1940     4.6960     5.6890
 3114.5000     0.0370     8.6600   133.5150     2.4640     0.2180   -61.9480     6.1350     4.5200     5.3680
 3115.0000     0.0400     8.6660   135.2810     2.4690     0.2190   -61.9480     6.0570     4.5300     5.0990
 3115.5000     0.0440     8.6730   137.1260     2.4740     0.2200   -61.9480     5.9790     4.5420     5.1260
 3116.0000     0.0470     8.6800   137.7390     2.4780     0.2200   -61.9480     5.9140     4.5550     5.1060
 3116.5000     0.0500     8.6870   136.6310     2.4810     0.2210   -61.9480     6.2070     4.5670     5.0850
 3117.0000     0.0540     8.6940   135.5220     2.4740     0.2210   -61.9510     6.5910     4.5790     5.0640
 3117.5000     0.0460     8.7000   134.4070     2.4640     0.2180   -62.0160     6.9870     4.5920     5.0430
 3118.0000     0.0360     8.7050   134.0070     2.4530     0.2150   -62.2740     6.5300     4.6050     5.0220
 3118.5000     0.0280     8.6930   134.4270     2.4510     0.2150   -62.5250     5.8590     4.5760     5.0050
 3119.0000     0.0300     8.6770   134.8480     2.4600     0.2170   -62.7480     5.8960     4.5460     5.1250
 3119.5000     0.0320     8.6620   135.2640     2.4720     0.2200   -62.7510     5.9940     4.5160     5.2270
 3120.0000     0.0310     8.6470   135.3240     2.4820     0.2230   -62.7510     6.0930     4.4860     5.3280
 3120.5000     0.0280     8.6310   134.1090     2.4760     0.2240   -62.7510     6.1910     4.4560     5.4300
 3121.0000     0.0250     8.6160   132.9310     2.4700     0.2240   -62.7510     6.2520     4.4350     5.5320
 3121.5000     0.0220     8.6000   131.9290     2.4640     0.2220   -62.7510     6.2480     4.4300     5.6340
 3122.0000     0.0190     8.5850   133.5700     2.4580     0.2210   -62.7550     6.2260     4.4250     5.7360
 3122.5000     0.0180     8.5850   135.5210     2.4520     0.2220   -62.8350     6.2050     4.4190     5.8590
 3123.0000     0.0210     8.5840   132.7670     2.4510     0.2230   -62.9130     6.1840     4.4140     5.8410
 3123.5000     0.0240     8.5850   131.1320     2.4510     0.2250   -62.9470     6.1630     4.4090     5.8120
 3124.0000     0.0240     8.5630   131.7780     2.4510     0.2240   -62.8650     6.1410     4.4030     5.7820
 3124.5000     0.0190     8.5640   132.4210     2.4510     0.2230   -62.7850     6.1370     4.3980     5.7520
 3125.0000     0.0160     8.5590   133.0650     2.4480     0.2250   -62.7060     6.1150     4.3930     5.7220
 3125.5000     0.0160     8.5530   133.7100     2.4400     0.2240   -62.6270     6.0940     4.3870     5.6980
 3126.0000     0.0160     8.5480   134.3540     2.4430     0.2260   -62.5480     6.0720     4.3820     5.6660
 3126.5000     0.0170     8.5420   134.9980     2.4450     0.2250   -62.4690     6.0510     4.3770     5.6130
 3127.0000     0.0170     8.5370   135.6420     2.4470     0.2280   -62.3890     6.0290     4.3720     5.5600
 3127.5000     0.0170     8.5320   136.2860     2.4490     0.2280   -62.3610     6.0070     4.3660     5.5070
 3128.0000     0.0170     8.5260   136.9310     2.4520     0.2290   -62.5780     5.9860     4.3610     5.4530
 3128.5000     0.0170     8.5210   137.5790     2.4540     0.2330   -62.7880     5.9530     4.3560     5.4000
 3129.0000     0.0180     8.5160   138.2110     2.4550     0.2340   -62.9970     5.8790     4.3500     5.3900
 3129.5000     0.0180     8.5100   138.6920     2.4550     0.2330   -63.2050     5.8060     4.3450     5.3140
 3130.0000     0.0190     8.5050   138.6690     2.4610     0.2360   -63.3530     5.7320     4.3400     5.2710
 3130.5000     0.0230     8.5000   137.5640     2.4680     0.2350   -63.2880     5.6590     4.3340     5.2280
 3131.0000     0.0260     8.4940   136.4810     2.4720     0.2330   -63.0390     5.5850     4.3290     5.1850
 3131.5000     0.0300     8.4890   135.3870     2.4740     0.2310   -62.7990     5.5120     4.3240     5.1420
 3132.0000     0.0330     8.4850   134.3550     2.4770     0.2310   -62.5590     5.4380     4.3190     5.0990
 3132.5000     0.0370     8.4850   134.3190     2.4800     0.2330   -62.3190     5.3640     4.3110     5.0550
 3133.0000     0.0400     8.4850   134.7860     2.4830     0.2310   -62.1500     5.2910     4.2880     5.0120
 3133.5000     0.0400     8.4910   135.4930     2.4870     0.2290   -62.2400     5.2170     4.2660     4.9500
 3134.0000     0.0440     8.4990   136.1730     2.4840     0.2300   -62.3250     5.1460     4.2440     4.9370
 3134.5000     0.0370     8.5080   136.7390     2.4790     0.2290   -62.4080     5.1940     4.2220     4.9240
 3135.0000     0.0300     8.5170   136.3460     2.4730     0.2270   -62.4910     5.2910     4.2000     4.9130
 3135.5000     0.0230     8.5250   135.9110     2.4680     0.2250   -62.5750     5.2910     4.1770     4.8730
