~VERSION INFORMATION
 VERS.                2.0:   CWLS LOG ASCII STANDARD - VERSION 2.0
 WRAP.                 NO:   ONE LINE PER DEPTH STEP
~WELL INFORMATION
#MNEM.UNIT      DATA TYPE    INFORMATION
#----------   ------------   ------------------------------
 STRT.F          214.0000:   START DEPTH
 STOP.F         3064.0000:   STOP DEPTH
 STEP.F            0.5000:   STEP LENGTH
 NULL.          -999.2500:   NO VALUE
 COMP.    FENIX & SCISSON:   COMPANY
 WELL.    FENIX "A" #76-3:   WELL
 FLD .                NPR:   FIELD
 LOC .       S3 T38N R78W:   LOCATION
 CNTY.            NATRONA:   COUNTY
 STAT.            WYOMING:   STATE
 CTRY. UNITED STATES OF AMERICA:   COUNTRY
 SRVC.              WELEX:   SERVICE COMPANY
 DATE.        07-AUG-1988:   LOGDATE
 API .     49025104070000:   API NUMBER
~CURVE INFORMATION
#MNEM.UNIT       API CODE    CURVE DESCRIPTION
#----------   ------------   ------------------------------
 DEPT.F                  :   
 NPHI.DEC    42 890 00 00:   NEUTRON POROSITY
 SPR .MV     07 010 01 00:   SPONTANEOUS POTENTIAL
 SGRD.OHMM   07 220 05 00:   SHALLOW GUARD LOG RESISTIVITY
 ILD .OHMM   07 120 46 00:   DEEP INDUCTION RESISTIVITY
 ILM .OHMM   07 120 44 00:   INDUCTION LOG MEDIUM RESISTIVITY
 CALD.IN     45 280 60 00:   CALIPER FROM DENSITY LOG
 GRD .GAPI   45 310 01 00:   GAMMA RAY FROM DENSITY LOG
 CORR.G/C3   45 356 01 00:   DENSITY CORRECTION
 RHOB.G/C3   45 350 01 00:   BULK DENSITY
~PARAMETER INFORMATION
#MNEM.UNIT          VALUE    DESCRIPTION
#----------   ------------   ------------------------------
 EKB .F         5154.0000:   Kelly bushing
 EGL .F         5144.0000:   Ground level
 EDF .F            0.0000:   Drilling floor
 TD  .F         3054.0000:   Total depth
 DATE.        07-AUG-1988:   Date logged
 CLNT.            A2DTECH:   Client Code
 SL  . 1650' FSL & 990' FEL:   Surface Location
 PD  .                 GL:   Permanent Datum
 DD  .F              3054:   Depth driller
 DL  .F              3052:   Depth logger
 BLI .F              3060:   Bottom log interval
 CS1 .IN            8.625:   Casing size
 CBD1.      8.625" @ 210':   Casing driller 1
 CBL1.F               225:   Casing logger 1
 BS1 .IN            7.875:   Bit size
 DFT .            KCL MUD:   Type fluid in hole
 DFD .                9.2:   Density
 DFV .                 37:   Viscosity
 DFPH.                 10:   pH
 DFL .                  8:   Fluid loss
 MSS .           FLOWLINE:   Source of sample
 RMS .OHMM            .29:   Rm
 MST .F                75:   Rm Meas. temp.
 RMF .OHMM            .27:   Rmf
 MFST.F                75:   Rmf Meas. temp.
 RMC .OHMM            .32:   Rmc
 MCST.F                75:   Rmc Meas. temp.
 MFSS.               MEAS:   Source Rmf.
 RMB .OHMM            .19:   Rm. at BHT
 BHT .F               112:   BHT.
 TCS .HRS               5:   Time Circ. stopped
 MRT .F               112:   Maximum recorded temp.
 LUN .               9685:   Logging unit number
 LUL .             CASPER:   Logging unit location
 ENGI.      JOUNER & DOAK:   Recorded By
 WITN.      B. HARRINGTON:   Witnessed by
 ORIG.           5" PRINT:   Origin of data
 UWI .     49025104070000:   Unique Well ID
 DICO. A2D TECHNOLOGIES, INC.:   Digitizing Company
 DAPD.                 10:   Feet Above Permanent Datum
 BSD1.               3054:   Depth drilled with bit1
 MCSS.               MEAS:   Source Rmc.
 EPD .               5144:   Elevation Permanent Datum
 LMF .                 KB:   Log Measured From
 DMF .                 KB:   Drilling Measured From
 TLI .                225:   Top log interval
~OTHER INFORMATION
~A   DEPT     NPHI        SPR       SGRD        ILD        ILM       CALD         GRD       CORR        RHOB 
# ...
 2477.0000     0.3840   -54.8250     8.1320     6.1420     7.6410     9.0420   137.9480     0.0560     2.5540
 2477.5000     0.3740   -54.9160     8.2070     6.1840     7.8600     9.0400   136.6170     0.0560     2.5520
 2478.0000     0.3690   -55.0070     8.8470     6.2310     8.0800     9.0380   135.2410     0.0580     2.5570
 2478.5000     0.3640   -55.0980     9.4290     6.4400     8.2990     9.0360   135.0590     0.0610     2.5610
 2479.0000     0.3650   -55.1660     9.9530     6.6720     8.5180     9.0330   134.9150     0.0630     2.5650
 2479.5000     0.3670   -55.2220    10.0800     6.9050     8.6810     9.0320   134.7660     0.0670     2.5700
 2480.0000     0.3730   -55.2780    10.1960     7.0460     8.7120     9.0330   135.4540     0.0710     2.5750
 2480.5000     0.3700   -55.3280    10.3250     7.1280     8.7430     9.0350   136.4060     0.0760     2.5800
 2481.0000     0.3750   -55.2590    10.2530     7.2110     8.7740     9.0360   137.3630     0.0800     2.5850
 2481.5000     0.3820   -55.1870    10.1100     7.2930     8.8050     9.0370   138.3210     0.0850     2.5900
 2482.0000     0.3800   -55.1160     9.9530     7.3790     8.8330     9.0380   139.2890     0.0890     2.5900
 2482.5000     0.3760   -55.0460     9.9720     7.4740     8.8640     9.0390   140.2800     0.0930     2.5880
 2483.0000     0.3790   -54.9750     9.9990     7.5680     8.8920     9.0400   139.8980     0.0900     2.5860
 2483.5000     0.3780   -54.9680    10.0260     7.6630     8.9200     9.0420   139.6220     0.0880     2.5850
 2484.0000     0.3750   -55.0480    10.0440     7.7670     8.9480     9.0430   139.9740     0.0860     2.5810
 2484.5000     0.3790   -55.1280    10.0440     7.7070     8.9770     9.0440   140.3080     0.0810     2.5770
 2485.0000     0.3850   -55.2070    10.0440     7.6400     8.9960     9.0450   139.5100     0.0750     2.5730
 2485.5000     0.3790   -55.2860     9.8450     7.5740     8.9790     9.0460   138.5920     0.0690     2.5680
 2486.0000     0.3840   -55.3310     9.6820     7.5070     8.9650     9.0470   137.9570     0.0650     2.5640
 2486.5000     0.3810   -55.3310     9.7400     7.4240     8.9510     9.0490   139.5490     0.0650     2.5590
 2487.0000     0.3810   -55.3310     9.8050     7.3340     8.9380     9.0500   140.6660     0.0660     2.5590
 2487.5000     0.3820   -55.3310     9.8690     7.2440     8.9240     9.0510   139.4520     0.0670     2.5560
 2488.0000     0.3840   -55.3310     9.9330     7.1720     8.9090     9.0500   138.3520     0.0650     2.5530
 2488.5000     0.3830   -55.3310     9.9530     7.1070     8.8900     9.0410   138.9650     0.0630     2.5520
 2489.0000     0.3930   -55.3310     9.5180     7.0430     8.8720     9.0320   139.5350     0.0610     2.5530
 2489.5000     0.3910   -55.3310     9.0790     6.9780     8.8530     9.0320   140.1010     0.0590     2.5530
 2490.0000     0.3920   -55.3310     9.1020     6.9140     8.8330     9.0320   140.7860     0.0570     2.5460
 2490.5000     0.3860   -55.3310     9.1340     6.8300     8.7810     9.0320   140.6730     0.0550     2.5410
 2491.0000     0.3900   -55.3310     9.1630     6.8460     8.7240     9.0320   140.0780     0.0550     2.5400
 2491.5000     0.3890   -55.3310     9.3150     6.8770     8.6720     9.0320   139.4610     0.0560     2.5380
 2492.0000     0.3790   -55.3310     9.4540     6.9080     8.6720     9.0320   139.7840     0.0600     2.5460
 2492.5000     0.3840   -55.3310     9.5920     6.9390     8.6720     9.0320   141.0560     0.0670     2.5560
 2493.0000     0.3810   -55.3310     9.7300     6.9700     8.6720     9.0320   142.3790     0.0750     2.5660
 2493.5000     0.3860   -55.3310     9.7720     7.0020     8.6720     9.0320   141.8120     0.0820     2.5700
 2494.0000     0.3790   -55.3310     9.7720     7.0330     8.6720     9.0320   140.8410     0.0850     2.5680
 2494.5000     0.3790   -55.3310     9.7720     7.0640     8.6720     9.0320   142.5080     0.0820     2.5650
 2495.0000     0.3770   -55.3310     9.7720     7.0860     8.6550     9.0320   141.1650     0.0790     2.5600
 2495.5000     0.3780   -55.3310     9.7640     7.0860     8.6220     9.0320   139.4210     0.0820     2.5560
 2496.0000     0.3700   -55.3310     9.7370     7.0860     8.5930     9.0320   137.6230     0.0870     2.5650
 2496.5000     0.3690   -55.3310     9.7110     7.0860     8.3590     9.0320   137.3290     0.0940     2.5730
 2497.0000     0.3680   -55.3660     9.6820     7.0860     8.4230     9.0350   137.5290     0.1030     2.5820
 2497.5000     0.3640   -55.4370     9.7470     7.0860     8.5500     9.0420   138.1040     0.1120     2.5910
 2498.0000     0.3660   -55.5100     9.8200     7.0680     8.6780     9.0490   138.8790     0.1150     2.5920
 2498.5000     0.3680   -55.5460     9.8920     7.0520     8.8050     9.0560   139.6560     0.1100     2.5870
 2499.0000     0.3690   -55.5710     9.9650     7.0360     8.9330     9.0630   140.4360     0.1050     2.5830
 2499.5000     0.3750   -55.5950    10.0440     7.0200     8.9960     9.0700   141.2340     0.0990     2.5780
 2500.0000     0.3800   -55.6190     9.8960     7.0040     8.9960     9.0770   142.2290     0.0940     2.5750
 2500.5000     0.3780   -55.6430     9.6820     6.9870     8.9960     9.0840   142.3230     0.0890     2.5760
 2501.0000     0.3770   -55.6680     9.7230     6.9710     8.9010     9.0910   142.3210     0.0840     2.5750
 2501.5000     0.3780   -55.6920     9.8040     6.9570     8.8140     9.0930   142.4620     0.0780     2.5690
 2502.0000     0.3800   -55.7160     9.8620     6.9470     8.7050     9.0960   143.0160     0.0730     2.5630
 2502.5000     0.3800   -55.7070     9.5250     6.9330     8.5450     9.0980   143.5520     0.0690     2.5570
 2503.0000     0.3840   -55.6640     9.2650     6.9200     8.3850     9.1000   144.0890     0.0650     2.5500
 2503.5000     0.3880   -55.6210     8.9630     6.9060     8.1320     9.1020   144.6230     0.0610     2.5440
 2504.0000     0.3930   -55.5780     8.6720     6.8930     8.1470     9.1040   144.9870     0.0590     2.5430
 2504.5000     0.3910   -55.5350     9.0620     6.8320     8.1690     9.1070   144.2470     0.0620     2.5470
 2505.0000     0.3890   -55.4920     9.4220     6.7760     8.1910     9.1090   143.4970     0.0640     2.5480
 2505.5000     0.3850   -55.4490     9.6820     6.7190     8.2070     9.1110   142.7500     0.0660     2.5420
 2506.0000     0.3870   -55.4060     9.0290     6.6630     7.9350     9.1130   142.0090     0.0630     2.5350
 2506.5000     0.3870   -55.3630     8.6720     6.6120     8.0740     9.1160   141.5950     0.0600     2.5310
 2507.0000     0.3860   -55.3220     8.7800     6.5640     8.2610     9.1180   142.1560     0.0570     2.5310
 2507.5000     0.3840   -55.2900     8.9140     6.5170     8.3590     9.1200   142.7030     0.0550     2.5370
 2508.0000     0.3740   -55.2580     8.7190     6.4690     8.1050     9.1220   143.2570     0.0580     2.5420
 2508.5000     0.3710   -55.2260     8.3010     6.4050     7.9060     9.1240   142.7330     0.0610     2.5470
 2509.0000     0.3660   -55.1940     7.9110     6.4280     7.4260     9.1270   141.4180     0.0640     2.5530
 2509.5000     0.3790   -55.1620     7.8390     6.4630     7.0550     9.1290   140.1010     0.0660     2.5560
 2510.0000     0.3680   -55.1350     8.4400     6.4980     7.6630     9.1310   138.7810     0.0640     2.5580
 2510.5000     0.3620   -55.1780     9.0790     6.5500     8.5070     9.1210   138.0980     0.0600     2.5560
 2511.0000     0.3680   -55.2210     9.0190     6.6530     8.4590     9.1110   138.5520     0.0600     2.5580
 2511.5000     0.3640   -55.2640     8.9280     6.7550     8.3590     9.1000   137.7290     0.0610     2.5610
 2512.0000     0.3590   -55.3070     9.1820     6.8570     8.4990     9.0900   136.5710     0.0630     2.5610
 2512.5000     0.3620   -55.3210     9.4950     6.9090     8.8080     9.0800   137.8870     0.0650     2.5610
 2513.0000     0.3600   -55.2970     9.8080     6.9450     9.1630     9.0710   137.0550     0.0690     2.5660
