~VERSION INFORMATION
 VERS.                2.0:   CWLS LOG ASCII STANDARD - VERSION 2.0
 WRAP.                 NO:   ONE LINE PER DEPTH STEP
~WELL INFORMATION
#MNEM.UNIT      DATA TYPE    INFORMATION
#----------   ------------   ------------------------------
 STRT.F          214.0000:   START DEPTH
 STOP.F         3064.0000:   STOP DEPTH
 STEP.F            0.5000:   STEP LENGTH
 NULL.          -999.2500:   NO VALUE
 COMP.    FENIX & SCISSON:   COMPANY
 WELL.    FENIX "A" #76-3:   WELL
 FLD .                NPR:   FIELD
 LOC .       S3 T38N R78W:   LOCATION
 CNTY.            NATRONA:   COUNTY
 STAT.            WYOMING:   STATE
 CTRY. UNITED STATES OF AMERICA:   COUNTRY
 SRVC.              WELEX:   SERVICE COMPANY
 DATE.        07-AUG-1988:   LOGDATE
 API .     49025104070000:   API NUMBER
~CURVE INFORMATION
#MNEM.UNIT       API CODE    CURVE DESCRIPTION
#----------   ------------   ------------------------------
 DEPT.F                  :   
 NPHI.DEC    42 890 00 00:   NEUTRON POROSITY
 SPR .MV     07 010 01 00:   SPONTANEOUS POTENTIAL
 SGRD.OHMM   07 220 05 00:   SHALLOW GUARD LOG RESISTIVITY
 ILD .OHMM   07 120 46 00:   DEEP INDUCTION RESISTIVITY
 ILM .OHMM   07 120 44 00:   INDUCTION LOG MEDIUM RESISTIVITY
 CALD.IN     45 280 60 00:   CALIPER FROM DENSITY LOG
 GRD .GAPI   45 310 01 00:   GAMMA RAY FROM DENSITY LOG
 CORR.G/C3   45 356 01 00:   DENSITY CORRECTION
 RHOB.G/C3   45 350 01 00:   BULK DENSITY
~PARAMETER INFORMATION
#MNEM.UNIT          VALUE    DESCRIPTION
#----------   ------------   ------------------------------
 EKB .F         5154.0000:   Kelly bushing
 EGL .F         5144.0000:   Ground level
 EDF .F            0.0000:   Drilling floor
 TD  .F         3054.0000:   Total depth
 DATE.        07-AUG-1988:   Date logged
 CLNT.            A2DTECH:   Client Code
 SL  . 1650' FSL & 990' FEL:   Surface Location
 PD  .                 GL:   Permanent Datum
 DD  .F              3054:   Depth driller
 DL  .F              3052:   Depth logger
 BLI .F              3060:   Bottom log interval
 CS1 .IN            8.625:   Casing size
 CBD1.      8.625" @ 210':   Casing driller 1
 CBL1.F               225:   Casing logger 1
 BS1 .IN            7.875:   Bit size
 DFT .            KCL MUD:   Type fluid in hole
 DFD .                9.2:   Density
 DFV .                 37:   Viscosity
 DFPH.                 10:   pH
 DFL .                  8:   Fluid loss
 MSS .           FLOWLINE:   Source of sample
 RMS .OHMM            .29:   Rm
 MST .F                75:   Rm Meas. temp.
 RMF .OHMM            .27:   Rmf
 MFST.F                75:   Rmf Meas. temp.
 RMC .OHMM            .32:   Rmc
 MCST.F                75:   Rmc Meas. temp.
 MFSS.               MEAS:   Source Rmf.
 RMB .OHMM            .19:   Rm. at BHT
 BHT .F               112:   BHT.
 TCS .HRS               5:   Time Circ. stopped
 MRT .F               112:   Maximum recorded temp.
 LUN .               9685:   Logging unit number
 LUL .             CASPER:   Logging unit location
 ENGI.      JOUNER & DOAK:   Recorded By
 WITN.      B. HARRINGTON:   Witnessed by
 ORIG.           5" PRINT:   Origin of data
 UWI .     49025104070000:   Unique Well ID
 DICO. A2D TECHNOLOGIES, INC.:   Digitizing Company
 DAPD.                 10:   Feet Above Permanent Datum
 BSD1.               3054:   Depth drilled with bit1
 MCSS.               MEAS:   Source Rmc.
 EPD .               5144:   Elevation Permanent Datum
 LMF .                 KB:   Log Measured From
 DMF .                 KB:   Drilling Measured From
 TLI .                225:   Top log interval
~OTHER INFORMATION
~A   DEPT     NPHI        SPR       SGRD        ILD        ILM       CALD         GRD       CORR        RHOB 
# ...
  980.5000     0.2710   -50.4280    10.9990     8.5070     8.9330     9.9500    61.0480     0.0520     2.4670
  981.0000     0.2670   -50.5200    10.9190     8.6880     8.9140     9.9570    60.7430     0.0480     2.4620
  981.5000     0.2680   -50.6150    10.8120     8.7640     9.0340     9.9630    60.9360     0.0450     2.4570
  982.0000     0.2680   -50.7090    10.7050     8.7820     9.1290     9.9620    60.9770     0.0440     2.4510
  982.5000     0.2680   -50.8030    10.5980     8.8000     9.2040     9.9600    60.7620     0.0470     2.4550
  983.0000     0.2680   -50.8980    10.5160     8.8190     9.2680     9.9590    60.5600     0.0510     2.4600
  983.5000     0.2720   -50.9920    10.7990     8.8330     9.3320     9.9570    60.3560     0.0550     2.4650
  984.0000     0.2700   -51.0850    11.1120     8.8330     9.4110     9.9550    61.0900     0.0590     2.4700
  984.5000     0.2680   -51.1610    11.0970     8.8330     9.3300     9.9530    62.7640     0.0620     2.4720
  985.0000     0.2680   -51.1590    11.0610     8.8330     9.1890     9.9510    64.4380     0.0680     2.4730
  985.5000     0.2650   -51.1590    11.0250     8.8330     8.8720     9.9500    66.1170     0.0740     2.4770
  986.0000     0.2680   -51.1590    10.9890     8.8330     8.3730     9.9480    67.7740     0.0800     2.4830
  986.5000     0.2620   -51.1850    10.9530     8.8330     7.3400     9.9460    68.5280     0.0840     2.4840
  987.0000     0.2610   -51.2280    10.9170     8.8330     6.0490     9.9440    66.6840     0.0790     2.4810
  987.5000     0.2640   -51.2710    10.8600     8.8330     6.9580     9.9440    68.1930     0.0720     2.4730
  988.0000     0.2670   -51.3150    10.8100     8.8330     8.7190     9.9440    70.1210     0.0650     2.4650
  988.5000     0.2640   -51.3570    10.8100     8.8260     9.1750     9.9440    68.4930     0.0650     2.4590
  989.0000     0.2680   -51.3240    10.8100     8.8100     9.2430     9.9440    66.9600     0.0650     2.4620
  989.5000     0.2710   -51.2820    10.8100     8.7940     9.1990     9.9440    66.4010     0.0650     2.4640
  990.0000     0.2710   -51.2400    10.7500     8.7780     9.1630     9.9440    66.5530     0.0650     2.4660
  990.5000     0.2750   -51.1980    10.6730     8.7620     9.1630     9.9440    65.7430     0.0630     2.4620
  991.0000     0.2780   -51.1560    10.5960     8.7480     9.1630     9.9440    64.9740     0.0600     2.4580
  991.5000     0.2800   -51.1140    10.5160     8.7360     9.1630     9.9460    64.2100     0.0600     2.4550
  992.0000     0.2780   -51.0720    10.3130     8.7240     9.1630     9.9500    64.6780     0.0650     2.4590
  992.5000     0.2840   -51.0300    10.1330     8.7120     9.1630     9.9530    66.1640     0.0690     2.4640
  993.0000     0.2820   -50.9880    10.1060     8.7010     9.1630     9.9560    65.7890     0.0730     2.4690
  993.5000     0.2850   -50.9950    10.0780     8.6890     9.1630     9.9600    66.6710     0.0760     2.4700
  994.0000     0.2870   -51.0980    10.0440     8.6780     9.1640     9.9630    67.7360     0.0690     2.4690
  994.5000     0.2810   -51.1990    10.1820     8.6640     9.1150     9.9660    67.1590     0.0710     2.4720
  995.0000     0.2810   -51.3010    10.3670     8.6370     9.0630     9.9700    66.5990     0.0750     2.4750
  995.5000     0.2800   -51.4020    10.5510     8.6110     9.0120     9.9730    66.5210     0.0750     2.4780
  996.0000     0.2790   -51.5040    10.7050     8.5850     8.9600     9.9760    67.8320     0.0710     2.4790
  996.5000     0.2810   -51.6050    10.6590     8.5590     8.9090     9.9800    68.9750     0.0670     2.4720
  997.0000     0.2780   -51.7060    10.6130     8.5330     8.8330     9.9830    68.1700     0.0640     2.4660
  997.5000     0.2720   -51.7540    10.5670     8.5070     8.8560     9.9770    67.0350     0.0550     2.4600
  998.0000     0.2720   -51.7550    10.5160     8.4800     8.9000     9.9680    65.8220     0.0540     2.4570
  998.5000     0.2740   -51.7550    10.4730     8.4540     8.9430     9.9590    63.5790     0.0550     2.4540
  999.0000     0.2800   -51.7550    10.4250     8.4330     8.9870     9.9500    62.1850     0.0570     2.4560
  999.5000     0.2810   -51.7550    10.3770     8.4020     9.0310     9.9410    64.1890     0.0620     2.4640
 1000.0000     0.2840   -51.7550    10.3250     8.3720     9.0790     9.9320    63.1890     0.0660     2.4720
 1000.5000     0.2820   -51.7550    10.3250     8.3410     9.0790     9.9240    61.3100     0.0710     2.4800
 1001.0000     0.2780   -51.7550    10.3250     8.3100     9.0790     9.9200    62.4780     0.0750     2.4880
 1001.5000     0.2710   -51.7550    10.3920     8.2840     9.0640     9.9170    64.0290     0.0740     2.4960
 1002.0000     0.2780   -51.7550    10.4650     8.2960     8.9180     9.9140    66.8170     0.0700     2.4930
 1002.5000     0.2800   -51.7550    10.5160     8.3090     8.7720     9.9110    69.7860     0.0650     2.4870
 1003.0000     0.2800   -51.7540    10.4440     8.3210     8.6720     9.9080    72.1320     0.0630     2.4800
 1003.5000     0.2840   -51.6960    10.3890     8.3340     8.7050     9.9040    70.8820     0.0610     2.4730
 1004.0000     0.2870   -51.6310    10.3340     8.3460     8.7300     9.9010    69.2820     0.0580     2.4670
 1004.5000     0.2860   -51.5670    10.2790     8.3590     8.7490     9.8980    67.7000     0.0550     2.4690
 1005.0000     0.2830   -51.5030    10.2310     8.4200     8.5910     9.8950    66.1190     0.0530     2.4710
 1005.5000     0.2800   -51.4380    10.2310     8.4860     8.4480     9.8910    64.6370     0.0480     2.4620
 1006.0000     0.2880   -51.3710    10.2310     8.5520     8.3040     9.8880    64.5920     0.0430     2.4530
 1006.5000     0.2850   -51.4230    10.2310     8.6170     8.2070     9.8850    64.8880     0.0400     2.4440
 1007.0000     0.2860   -51.5090    10.2310     8.6830     8.3490     9.8870    65.3350     0.0390     2.4370
 1007.5000     0.2850   -51.5960    10.2300     8.7490     8.4570     9.8910    65.8320     0.0390     2.4400
 1008.0000     0.2820   -51.6820    10.2460     8.8150     8.5930     9.8940    67.4950     0.0370     2.4390
 1008.5000     0.2850   -51.7620    10.3660     8.8450     8.5740     9.8970    69.1790     0.0330     2.4330
 1009.0000     0.2820   -51.7860    10.4860     8.8620     8.5470     9.9010    70.6790     0.0330     2.4270
 1009.5000     0.2800   -51.8120    10.6130     8.8790     8.5140     9.9040    71.0930     0.0330     2.4240
 1010.0000     0.2800   -51.8380    10.4410     8.8960     8.5800     9.9040    71.5460     0.0330     2.4220
 1010.5000     0.2870   -51.8640    10.2580     8.9140     8.6680     9.9040    71.6260     0.0360     2.4280
 1011.0000     0.2880   -51.8910    10.1370     8.7470     8.7570     9.9040    71.3220     0.0400     2.4340
 1011.5000     0.2850   -51.9170    10.4560     8.5700     8.8330     9.9040    71.0310     0.0440     2.4410
 1012.0000     0.2870   -51.9430    10.5160     8.3930     8.8330     9.9040    70.3450     0.0480     2.4470
 1012.5000     0.2830   -51.9760    10.3790     8.2070     8.8330     9.9040    69.5650     0.0470     2.4500
 1013.0000     0.2850   -52.0130    10.2310     8.1700     8.8330     9.9020    68.7670     0.0460     2.4500
 1013.5000     0.2890   -52.0500    10.2520     8.1300     8.8330     9.8980    67.9010     0.0470     2.4540
 1014.0000     0.2900   -52.0870    10.2900     8.0910     8.8400     9.8950    70.8300     0.0540     2.4590
 1014.5000     0.2800   -52.1230    10.3280     8.0580     8.8620     9.8910    70.5160     0.0610     2.4640
 1015.0000     0.2790   -52.1620    10.3660     8.0580     8.8830     9.8880    72.1650     0.0650     2.4700
 1015.5000     0.2800   -52.2080    10.4200     8.0580     8.9130     9.8840    74.3540     0.0700     2.4680
 1016.0000     0.2840   -52.2530    10.3890     8.0580     8.8900     9.8780    76.5390     0.0670     2.4640
 1016.5000     0.2870   -52.2980    10.3330     8.0580     8.8500     9.8700    78.7220     0.0610     2.4600
