~VERSION INFORMATION
 VERS.                2.0:   CWLS LOG ASCII STANDARD - VERSION 2.0
 WRAP.                 NO:   ONE LINE PER DEPTH STEP
~WELL INFORMATION
#MNEM.UNIT      DATA TYPE    INFORMATION
#----------   ------------   ------------------------------
 STRT.F          214.0000:   START DEPTH
 STOP.F         3064.0000:   STOP DEPTH
 STEP.F            0.5000:   STEP LENGTH
 NULL.          -999.2500:   NO VALUE
 COMP.    FENIX & SCISSON:   COMPANY
 WELL.    FENIX "A" #76-3:   WELL
 FLD .                NPR:   FIELD
 LOC .       S3 T38N R78W:   LOCATION
 CNTY.            NATRONA:   COUNTY
 STAT.            WYOMING:   STATE
 CTRY. UNITED STATES OF AMERICA:   COUNTRY
 SRVC.              WELEX:   SERVICE COMPANY
 DATE.        07-AUG-1988:   LOGDATE
 API .     49025104070000:   API NUMBER
~CURVE INFORMATION
#MNEM.UNIT       API CODE    CURVE DESCRIPTION
#----------   ------------   ------------------------------
 DEPT.F                  :   
 NPHI.DEC    42 890 00 00:   NEUTRON POROSITY
 SPR .MV     07 010 01 00:   SPONTANEOUS POTENTIAL
 SGRD.OHMM   07 220 05 00:   SHALLOW GUARD LOG RESISTIVITY
 ILD .OHMM   07 120 46 00:   DEEP INDUCTION RESISTIVITY
 ILM .OHMM   07 120 44 00:   INDUCTION LOG MEDIUM RESISTIVITY
 CALD.IN     45 280 60 00:   CALIPER FROM DENSITY LOG
 GRD .GAPI   45 310 01 00:   GAMMA RAY FROM DENSITY LOG
 CORR.G/C3   45 356 01 00:   DENSITY CORRECTION
 RHOB.G/C3   45 350 01 00:   BULK DENSITY
~PARAMETER INFORMATION
#MNEM.UNIT          VALUE    DESCRIPTION
#----------   ------------   ------------------------------
 EKB .F         5154.0000:   Kelly bushing
 EGL .F         5144.0000:   Ground level
 EDF .F            0.0000:   Drilling floor
 TD  .F         3054.0000:   Total depth
 DATE.        07-AUG-1988:   Date logged
 CLNT.            A2DTECH:   Client Code
 SL  . 1650' FSL & 990' FEL:   Surface Location
 PD  .                 GL:   Permanent Datum
 DD  .F              3054:   Depth driller
 DL  .F              3052:   Depth logger
 BLI .F              3060:   Bottom log interval
 CS1 .IN            8.625:   Casing size
 CBD1.      8.625" @ 210':   Casing driller 1
 CBL1.F               225:   Casing logger 1
 BS1 .IN            7.875:   Bit size
 DFT .            KCL MUD:   Type fluid in hole
 DFD .                9.2:   Density
 DFV .                 37:   Viscosity
 DFPH.                 10:   pH
 DFL .                  8:   Fluid loss
 MSS .           FLOWLINE:   Source of sample
 RMS .OHMM            .29:   Rm
 MST .F                75:   Rm Meas. temp.
 RMF .OHMM            .27:   Rmf
 MFST.F                75:   Rmf Meas. temp.
 RMC .OHMM            .32:   Rmc
 MCST.F                75:   Rmc Meas. temp.
 MFSS.               MEAS:   Source Rmf.
 RMB .OHMM            .19:   Rm. at BHT
 BHT .F               112:   BHT.
 TCS .HRS               5:   Time Circ. stopped
 MRT .F               112:   Maximum recorded temp.
 LUN .               9685:   Logging unit number
 LUL .             CASPER:   Logging unit location
 ENGI.      JOUNER & DOAK:   Recorded By
 WITN.      B. HARRINGTON:   Witnessed by
 ORIG.           5" PRINT:   Origin of data
 UWI .     49025104070000:   Unique Well ID
 DICO. A2D TECHNOLOGIES, INC.:   Digitizing Company
 DAPD.                 10:   Feet Above Permanent Datum
 BSD1.               3054:   Depth drilled with bit1
 MCSS.               MEAS:   Source Rmc.
 EPD .               5144:   Elevation Permanent Datum
 LMF .                 KB:   Log Measured From
 DMF .                 KB:   Drilling Measured From
 TLI .                225:   Top log interval
~OTHER INFORMATION
~A   DEPT     NPHI        SPR       SGRD        ILD        ILM       CALD         GRD       CORR        RHOB 
# ...
 2258.0000     0.3720   -52.4630    12.2930     8.1200    10.9100     8.4170   140.7470     0.0890     2.4100
 2258.5000     0.3640   -52.5250    12.1810     8.0640    10.7690     8.4170   141.9150     0.0740     2.4290
 2259.0000     0.3660   -52.6230    12.7170     8.0090    10.4150     8.4170   143.0890     0.0740     2.4620
 2259.5000     0.3680   -52.7440    13.1090     7.9540    10.0880     8.4170   142.6830     0.0730     2.4700
 2260.0000     0.3640   -52.8650    12.6970     7.9110     9.8600     8.4170   142.2030     0.0660     2.4550
 2260.5000     0.3680   -52.9860    12.4890     7.9020     9.6820     8.4170   141.7260     0.0560     2.4490
 2261.0000     0.3710   -53.1070    12.2510     7.8870     9.7860     8.4190   141.2460     0.0470     2.4440
 2261.5000     0.3730   -53.2290    11.8500     7.8710     9.8710     8.4210   140.7500     0.0420     2.4400
 2262.0000     0.3760   -53.3450    12.1410     7.8560     9.9530     8.4230   140.8590     0.0460     2.4500
 2262.5000     0.3770   -53.4160    12.6370     7.8410     9.7940     8.4250   141.1290     0.0550     2.4640
 2263.0000     0.3710   -53.4850    11.4220     7.8140     9.5060     8.4280   141.3600     0.0580     2.4640
 2263.5000     0.3670   -53.5540    12.1000     7.7860     9.6820     8.4300   140.5680     0.0540     2.4630
 2264.0000     0.3590   -53.6230    13.4750     7.7570     9.4790     8.4320   136.9370     0.0510     2.4670
 2264.5000     0.3570   -53.6930    12.6320     7.7280     9.0790     8.4340   133.4090     0.0470     2.4770
 2265.0000     0.3540   -53.7800    11.5570     7.7000     9.1270     8.4360   129.8170     0.0440     2.4880
 2265.5000     0.3600   -53.9310    10.8100     7.5680     9.1630     8.4400   127.3180     0.0450     2.4990
 2266.0000     0.3650   -54.0790    10.9660     7.4220     8.8750     8.4450   129.3170     0.0510     2.5090
 2266.5000     0.3600   -54.2270    11.2150     7.2760     8.6060     8.4500   127.6830     0.0570     2.5130
 2267.0000     0.3560   -54.3770    10.9770     7.1300     8.6730     8.4550   126.0190     0.0610     2.5150
 2267.5000     0.3570   -54.5300    10.8100     6.9840     8.7520     8.4600   125.7370     0.0590     2.5120
 2268.0000     0.3550   -54.5380    11.6120     6.8380     8.3810     8.4650   124.5080     0.0560     2.5080
 2268.5000     0.3560   -54.5370    11.9590     6.6550     7.9720     8.4700   122.8580     0.0520     2.5040
 2269.0000     0.3590   -54.5360     9.6940     6.4370     7.5470     8.4760   124.0080     0.0520     2.5070
 2269.5000     0.3540   -54.5360     8.1670     6.2180     7.0860     8.4770   122.9280     0.0560     2.5090
 2270.0000     0.3530   -54.5380     7.8700     6.1120     7.0860     8.4770   120.6320     0.0590     2.5090
 2270.5000     0.3520   -54.4910     7.5560     6.0970     7.3740     8.4770   118.3450     0.0620     2.5080
 2271.0000     0.3470   -54.4310     8.3130     6.0810     7.5890     8.4770   116.0530     0.0650     2.5060
 2271.5000     0.3480   -54.3700    10.2750     6.0620     7.8040     8.4770   113.7570     0.0680     2.5070
 2272.0000     0.3410   -54.3100    11.6340     6.1230     7.9840     8.4770   111.4650     0.0700     2.5110
 2272.5000     0.3450   -54.2490    10.9100     6.2050     7.9840     8.4770   109.4240     0.0690     2.5160
 2273.0000     0.3420   -54.1890    10.9100     6.2880     8.0480     8.4770   109.3970     0.0670     2.5200
 2273.5000     0.3450   -54.1270    10.6740     6.4850     8.1610     8.4770   109.4150     0.0700     2.5250
 2274.0000     0.3460   -54.0700    10.0440     6.6860     8.3860     8.4770   108.9390     0.0760     2.5360
 2274.5000     0.3410   -54.0110     9.9530     6.8870     8.6910     8.4770   108.2850     0.0760     2.5290
 2275.0000     0.3360   -53.9520    10.1370     7.0870     8.9960     8.4770   107.8070     0.0750     2.5210
 2275.5000     0.3320   -53.8930    11.2150     7.2880     8.9350     8.4770   107.8300     0.0820     2.5160
 2276.0000     0.3380   -53.8350    13.8520     7.4870     8.8320     8.4690   108.1710     0.0890     2.5170
 2276.5000     0.3410   -53.7770    13.5980     7.6020     8.7520     8.4630   109.5240     0.0960     2.5170
 2277.0000     0.3410   -53.7980    12.9870     7.7160     8.8870     8.4560   110.0800     0.0960     2.5160
 2277.5000     0.3410   -53.9320    12.2440     7.8290     9.0520     8.4490   110.5980     0.0920     2.5130
 2278.0000     0.3430   -54.0640    11.3250     7.9430     9.1260     8.4420   113.7800     0.0860     2.5110
 2278.5000     0.3410   -54.1980    10.8100     8.0010     9.1830     8.4380   113.7630     0.0810     2.5080
 2279.0000     0.3410   -54.3310    10.9410     8.0270     9.2390     8.4490   112.6100     0.0830     2.5040
 2279.5000     0.3350   -54.4630    11.8950     8.0540     9.4270     8.4560   113.5760     0.0840     2.4970
 2280.0000     0.3310   -54.5740    13.8560     8.0580     9.5060     8.4500   116.6130     0.0840     2.4900
 2280.5000     0.3320   -54.6570    15.3240     8.0580     9.3700     8.4450   120.3160     0.0830     2.4830
 2281.0000     0.3320   -54.7410    15.3240     8.0580     9.2480     8.4400   117.3220     0.0810     2.4800
 2281.5000     0.3300   -54.8240    13.5420     8.0410     9.3600     8.4470   113.4460     0.0730     2.4790
 2282.0000     0.3270   -54.9080    12.0090     8.0210     9.5960     8.4670   116.4670     0.0650     2.4780
 2282.5000     0.3310   -54.9910    11.4220     8.0020     9.8330     8.4870   119.9370     0.0560     2.4740
 2283.0000     0.3350   -55.0740    13.0210     7.9840     9.9530     8.4890   121.6770     0.0480     2.4700
 2283.5000     0.3400   -55.1400    14.2390     7.8220     9.3380     8.4730   121.7180     0.0420     2.4660
 2284.0000     0.3440   -55.1640    12.9170     7.6730     8.8330     8.4580   123.2480     0.0410     2.4730
 2284.5000     0.3520   -55.1880     9.8640     7.5250     8.9000     8.4420   127.4700     0.0460     2.4800
 2285.0000     0.3480   -55.2130     8.7520     7.3760     8.9960     8.4270   128.3680     0.0500     2.4790
 2285.5000     0.3410   -55.2370    10.4270     7.2170     9.0790     8.4110   129.7610     0.0490     2.4750
 2286.0000     0.3390   -55.2620    12.1810     7.0490     9.0790     8.3980   132.8040     0.0470     2.4720
 2286.5000     0.3380   -55.2860    11.9590     6.9090     8.5930     8.3980   134.2220     0.0480     2.4730
 2287.0000     0.3350   -55.3100    12.9890     6.7690     8.3530     8.3980   135.2060     0.0500     2.4730
 2287.5000     0.3400   -55.3320    12.1810     6.5980     8.0980     8.3980   136.7240     0.0520     2.4740
 2288.0000     0.3330   -55.3310    10.0630     6.4650     7.9040     8.3980   139.6480     0.0540     2.4680
 2288.5000     0.3350   -55.3310     8.9140     6.3320     7.7590     8.3980   142.4880     0.0560     2.4630
 2289.0000     0.3270   -55.3310     9.0600     6.1980     7.6050     8.3980   145.3110     0.0550     2.4570
 2289.5000     0.3270   -55.3310     9.1630     6.0620     7.3510     8.3980   148.1440     0.0540     2.4520
 2290.0000     0.3210   -55.3310     8.0760     6.1730     7.5430     8.4040   151.0480     0.0530     2.4470
 2290.5000     0.3140   -55.3300     7.0210     6.2880     8.2390     8.4090   152.5020     0.0560     2.4500
 2291.0000     0.3160   -55.3350     9.7890     6.4650     8.9350     8.4150   153.5260     0.0600     2.4550
 2291.5000     0.3120   -55.4830    14.5030     6.6450     9.1050     8.4200   154.6490     0.0650     2.4610
 2292.0000     0.3120   -55.6370    16.8160     6.9010     9.1380     8.4260   156.5130     0.0690     2.4650
 2292.5000     0.3150   -55.7910    17.4260     7.2220     9.2480     8.4310   159.6930     0.0730     2.4610
 2293.0000     0.3150   -55.9450    15.6910     7.5430     9.0940     8.4370   160.8640     0.0700     2.4580
 2293.5000     0.3190   -56.1000    12.4070     7.8640     8.9410     8.4420   161.8280     0.0630     2.4540
 2294.0000     0.3260   -56.1030    12.4770     7.9840     8.6070     8.4480   162.1380     0.0560     2.4510
