~VERSION INFORMATION
 VERS.                2.0:   CWLS LOG ASCII STANDARD - VERSION 2.0
 WRAP.                 NO:   ONE LINE PER DEPTH STEP
~WELL INFORMATION
#MNEM.UNIT      DATA TYPE    INFORMATION
#----------   ------------   ------------------------------
 STRT.F          214.0000:   START DEPTH
 STOP.F         3064.0000:   STOP DEPTH
 STEP.F            0.5000:   STEP LENGTH
 NULL.          -999.2500:   NO VALUE
 COMP.    FENIX & SCISSON:   COMPANY
 WELL.    FENIX "A" #76-3:   WELL
 FLD .                NPR:   FIELD
 LOC .       S3 T38N R78W:   LOCATION
 CNTY.            NATRONA:   COUNTY
 STAT.            WYOMING:   STATE
 CTRY. UNITED STATES OF AMERICA:   COUNTRY
 SRVC.              WELEX:   SERVICE COMPANY
 DATE.        07-AUG-1988:   LOGDATE
 API .     49025104070000:   API NUMBER
~CURVE INFORMATION
#MNEM.UNIT       API CODE    CURVE DESCRIPTION
#----------   ------------   ------------------------------
 DEPT.F                  :   
 NPHI.DEC    42 890 00 00:   NEUTRON POROSITY
 SPR .MV     07 010 01 00:   SPONTANEOUS POTENTIAL
 SGRD.OHMM   07 220 05 00:   SHALLOW GUARD LOG RESISTIVITY
 ILD .OHMM   07 120 46 00:   DEEP INDUCTION RESISTIVITY
 ILM .OHMM   07 120 44 00:   INDUCTION LOG MEDIUM RESISTIVITY
 CALD.IN     45 280 60 00:   CALIPER FROM DENSITY LOG
 GRD .GAPI   45 310 01 00:   GAMMA RAY FROM DENSITY LOG
 CORR.G/C3   45 356 01 00:   DENSITY CORRECTION
 RHOB.G/C3   45 350 01 00:   BULK DENSITY
~PARAMETER INFORMATION
#MNEM.UNIT          VALUE    DESCRIPTION
#----------   ------------   ------------------------------
 EKB .F         5154.0000:   Kelly bushing
 EGL .F         5144.0000:   Ground level
 EDF .F            0.0000:   Drilling floor
 TD  .F         3054.0000:   Total depth
 DATE.        07-AUG-1988:   Date logged
 CLNT.            A2DTECH:   Client Code
 SL  . 1650' FSL & 990' FEL:   Surface Location
 PD  .                 GL:   Permanent Datum
 DD  .F              3054:   Depth driller
 DL  .F              3052:   Depth logger
 BLI .F              3060:   Bottom log interval
 CS1 .IN            8.625:   Casing size
 CBD1.      8.625" @ 210':   Casing driller 1
 CBL1.F               225:   Casing logger 1
 BS1 .IN            7.875:   Bit size
 DFT .            KCL MUD:   Type fluid in hole
 DFD .                9.2:   Density
 DFV .                 37:   Viscosity
 DFPH.                 10:   pH
 DFL .                  8:   Fluid loss
 MSS .           FLOWLINE:   Source of sample
 RMS .OHMM            .29:   Rm
 MST .F                75:   Rm Meas. temp.
 RMF .OHMM            .27:   Rmf
 MFST.F                75:   Rmf Meas. temp.
 RMC .OHMM            .32:   Rmc
 MCST.F                75:   Rmc Meas. temp.
 MFSS.               MEAS:   Source Rmf.
 RMB .OHMM            .19:   Rm. at BHT
 BHT .F               112:   BHT.
 TCS .HRS               5:   Time Circ. stopped
 MRT .F               112:   Maximum recorded temp.
 LUN .               9685:   Logging unit number
 LUL .             CASPER:   Logging unit location
 ENGI.      JOUNER & DOAK:   Recorded By
 WITN.      B. HARRINGTON:   Witnessed by
 ORIG.           5" PRINT:   Origin of data
 UWI .     49025104070000:   Unique Well ID
 DICO. A2D TECHNOLOGIES, INC.:   Digitizing Company
 DAPD.                 10:   Feet Above Permanent Datum
 BSD1.               3054:   Depth drilled with bit1
 MCSS.               MEAS:   Source Rmc.
 EPD .               5144:   Elevation Permanent Datum
 LMF .                 KB:   Log Measured From
 DMF .                 KB:   Drilling Measured From
 TLI .                225:   Top log interval
~OTHER INFORMATION
~A   DEPT     NPHI        SPR       SGRD        ILD        ILM       CALD         GRD       CORR        RHOB 
# ...
 1163.0000     0.2760   -52.1610    10.2310     8.0740     8.3150    10.0040    80.7170     0.0500     2.5350
 1163.5000     0.2770   -52.2150    10.1770     8.1000     8.3350     9.9980    80.1260     0.0560     2.5380
 1164.0000     0.2810   -52.2900    10.1370     8.1320     8.3590     9.9910    78.2660     0.0550     2.5350
 1164.5000     0.2770   -52.3670    10.3090     8.1090     8.3340     9.9840    76.5910     0.0550     2.5360
 1165.0000     0.2730   -52.4440    10.4200     8.0800     8.3020     9.9920    77.5900     0.0560     2.5370
 1165.5000     0.2700   -52.5220    10.2560     8.0520     8.2720    10.0020    79.3930     0.0550     2.5340
 1166.0000     0.2710   -52.5490    10.1210     8.0230     8.2470    10.0120    79.8710     0.0520     2.5270
 1166.5000     0.2750   -52.5500    10.0080     7.9950     8.2220    10.0210    79.4260     0.0480     2.5170
 1167.0000     0.2730   -52.5500     9.9220     7.9840     8.1970    10.0310    79.2270     0.0450     2.5130
 1167.5000     0.2710   -52.5500     9.8360     7.9840     8.1710    10.0410    80.2820     0.0400     2.5090
 1168.0000     0.2700   -52.5500     9.7720     7.9840     8.1320    10.0510    81.2210     0.0350     2.5060
 1168.5000     0.2710   -52.5500     9.9310     7.9840     8.2240    10.0610    82.1800     0.0290     2.5020
 1169.0000     0.2710   -52.5500    10.0590     7.9840     8.4310    10.0600    83.1330     0.0290     2.5050
 1169.5000     0.2670   -52.5500    10.1870     7.9840     8.6380    10.0560    84.0150     0.0280     2.5080
 1170.0000     0.2660   -52.5500    10.2570     7.9840     8.8440    10.0530    84.7300     0.0230     2.5110
 1170.5000     0.2640   -52.5500    10.2960     7.9760     8.9140    10.0490    85.5360     0.0190     2.5140
 1171.0000     0.2630   -52.5500    10.3250     7.9600     8.8670    10.0460    86.3470     0.0250     2.5170
 1171.5000     0.2630   -52.5500    10.2260     7.9430     8.8330    10.0410    87.1560     0.0320     2.5200
 1172.0000     0.2590   -52.5500    10.1480     7.9260     8.5270    10.0320    87.9620     0.0400     2.5260
 1172.5000     0.2590   -52.5500    10.0690     7.9110     8.2410    10.0240    88.3250     0.0520     2.5340
 1173.0000     0.2590   -52.5500    10.0440     7.9260     8.1090    10.0160    88.0710     0.0580     2.5380
 1173.5000     0.2600   -52.5500    10.0440     7.9440     7.9970    10.0080    87.8220     0.0570     2.5410
 1174.0000     0.2640   -52.5500    10.0440     7.9610     7.8650     9.9990    87.6070     0.0570     2.5440
 1174.5000     0.2680   -52.5480    10.0440     7.9790     7.7310     9.9910    88.2600     0.0560     2.5470
 1175.0000     0.2720   -52.5100    10.0690     7.9840     7.5960     9.9840    89.0120     0.0550     2.5430
 1175.5000     0.2730   -52.4720    10.0910     7.9840     7.4610     9.9830    89.8160     0.0550     2.5400
 1176.0000     0.2740   -52.4350    10.1120     7.9840     7.3250     9.9830    89.0930     0.0560     2.5420
 1176.5000     0.2770   -52.3980    10.1360     7.9840     7.1900     9.9830    88.1690     0.0560     2.5440
 1177.0000     0.2760   -52.3580    10.0580     7.9840     7.0930     9.9850    87.2220     0.0540     2.5440
 1177.5000     0.2770   -52.4510     9.9720     7.9840     7.0320     9.9960    86.2530     0.0520     2.5420
 1178.0000     0.2790   -52.5870     9.8850     7.9910     7.1450    10.0080    86.2430     0.0490     2.5400
 1178.5000     0.2760   -52.7250     9.8620     8.0030     7.2560    10.0190    86.6620     0.0500     2.5420
 1179.0000     0.2730   -52.8620     9.9650     8.0150     7.3670    10.0310    87.1180     0.0490     2.5430
 1179.5000     0.2700   -53.0010    10.0440     8.0280     7.5040    10.0420    86.4070     0.0490     2.5410
 1180.0000     0.2700   -53.1400    10.0440     8.0400     7.6630    10.0430    85.3490     0.0490     2.5390
 1180.5000     0.2730   -53.1160    10.0440     8.0570     7.7670    10.0430    84.4720     0.0500     2.5370
 1181.0000     0.2720   -53.0810     9.9370     8.0030     7.6380    10.0430    84.7730     0.0510     2.5400
 1181.5000     0.2730   -53.0480     9.7720     7.9030     7.8200    10.0430    85.0810     0.0530     2.5450
 1182.0000     0.2730   -53.0150     9.7870     7.8280     7.9900    10.0400    85.0230     0.0530     2.5430
 1182.5000     0.2800   -52.9810     9.8150     7.7560     8.1320    10.0370    84.4490     0.0530     2.5450
 1183.0000     0.2820   -52.9490     9.8440     7.6850     8.1320    10.0340    83.8810     0.0580     2.5460
 1183.5000     0.2860   -53.0000     9.8830     7.6260     8.1670    10.0310    83.3120     0.0560     2.5420
 1184.0000     0.2890   -53.0560     9.9530     7.6640     8.2610    10.0290    82.7450     0.0520     2.5370
 1184.5000     0.2870   -53.1110     9.8780     7.6960     8.3500    10.0260    82.1750     0.0480     2.5310
 1185.0000     0.2910   -53.1670     9.7810     7.7280     8.4360    10.0230    82.7020     0.0440     2.5260
 1185.5000     0.2930   -53.2220     9.6820     7.7610     8.5220    10.0190    84.4900     0.0410     2.5230
 1186.0000     0.2940   -53.2780     9.9530     7.7930     8.5930    10.0110    84.9170     0.0420     2.5280
 1186.5000     0.2930   -53.3370     9.8700     7.8390     8.5930    10.0040    84.6530     0.0460     2.5340
 1187.0000     0.2950   -53.2360     9.8950     7.8220     8.5930     9.9970    85.9480     0.0500     2.5410
 1187.5000     0.2960   -53.1010     9.9780     7.7940     8.5930     9.9890    87.2100     0.0540     2.5470
 1188.0000     0.2970   -52.9650    10.0440     7.7660     8.4690     9.9830    87.7720     0.0570     2.5530
 1188.5000     0.2940   -52.8310     9.8440     7.7380     8.3150     9.9830    86.6190     0.0610     2.5600
 1189.0000     0.2900   -52.8300     9.6440     7.7100     8.1610     9.9830    86.9510     0.0610     2.5600
 1189.5000     0.2920   -53.0310     9.4440     7.6810     8.0420     9.9830    88.2840     0.0580     2.5560
 1190.0000     0.2930   -53.2290     9.2480     7.6530     7.9310     9.9830    89.6060     0.0520     2.5500
 1190.5000     0.2900   -53.4260     9.2160     7.6260     7.8590     9.9830    90.9000     0.0460     2.5430
 1191.0000     0.2880   -53.5670     9.1850     7.5020     7.7960     9.9830    91.5070     0.0440     2.5370
 1191.5000     0.2840   -53.6260     9.1530     7.3820     7.6960     9.9820    91.2730     0.0460     2.5330
 1192.0000     0.2870   -53.6860     9.1220     7.2610     7.7060     9.9800    89.5990     0.0490     2.5320
 1192.5000     0.2790   -53.7390     9.0910     7.2170     7.7300     9.9780    87.1430     0.0470     2.5310
 1193.0000     0.2820   -53.6910     9.0790     7.2170     7.7540     9.9760    85.3120     0.0450     2.5300
 1193.5000     0.2850   -53.6400     9.0790     7.2150     7.7670     9.9740    86.8690     0.0420     2.5270
 1194.0000     0.2900   -53.5900     9.1040     7.2080     7.7670     9.9720    88.9650     0.0380     2.5170
 1194.5000     0.2900   -53.5400     9.1630     7.2000     7.7670     9.9700    89.3840     0.0290     2.5070
 1195.0000     0.2890   -53.4900     9.0810     7.1930     7.7760     9.9680    89.0050     0.0260     2.5000
 1195.5000     0.2920   -53.4400     8.9140     7.1850     7.7890     9.9670    88.7920     0.0280     2.5000
 1196.0000     0.2890   -53.3900     8.9540     7.1780     7.8030     9.9650    89.6870     0.0300     2.5060
 1196.5000     0.2920   -53.3450     9.0000     7.1700     7.8160     9.9650    89.9060     0.0330     2.5120
 1197.0000     0.2940   -53.3840     9.0460     7.1620     7.8290     9.9690    89.6330     0.0320     2.5180
 1197.5000     0.2890   -53.4290     9.0790     7.1550     7.8390     9.9730    90.4350     0.0300     2.5200
 1198.0000     0.2860   -53.4740     8.7520     7.1420     7.8390     9.9760    90.1210     0.0260     2.5170
 1198.5000     0.2900   -53.5190     8.8080     7.1220     7.8390     9.9800    88.7650     0.0230     2.5100
 1199.0000     0.2860   -53.4920     8.9220     7.1020     7.8390     9.9840    88.9790     0.0260     2.5050
