~VERSION INFORMATION
 VERS.                2.0:   CWLS LOG ASCII STANDARD - VERSION 2.0
 WRAP.                 NO:   ONE LINE PER DEPTH STEP
~WELL INFORMATION
#MNEM.UNIT      DATA TYPE    INFORMATION
#----------   ------------   ------------------------------
 STRT.F          214.0000:   START DEPTH
 STOP.F         3064.0000:   STOP DEPTH
 STEP.F            0.5000:   STEP LENGTH
 NULL.          -999.2500:   NO VALUE
 COMP.    FENIX & SCISSON:   COMPANY
 WELL.    FENIX "A" #76-3:   WELL
 FLD .                NPR:   FIELD
 LOC .       S3 T38N R78W:   LOCATION
 CNTY.            NATRONA:   COUNTY
 STAT.            WYOMING:   STATE
 CTRY. UNITED STATES OF AMERICA:   COUNTRY
 SRVC.              WELEX:   SERVICE COMPANY
 DATE.        07-AUG-1988:   LOGDATE
 API .     49025104070000:   API NUMBER
~CURVE INFORMATION
#MNEM.UNIT       API CODE    CURVE DESCRIPTION
#----------   ------------   ------------------------------
 DEPT.F                  :   
 NPHI.DEC    42 890 00 00:   NEUTRON POROSITY
 SPR .MV     07 010 01 00:   SPONTANEOUS POTENTIAL
 SGRD.OHMM   07 220 05 00:   SHALLOW GUARD LOG RESISTIVITY
 ILD .OHMM   07 120 46 00:   DEEP INDUCTION RESISTIVITY
 ILM .OHMM   07 120 44 00:   INDUCTION LOG MEDIUM RESISTIVITY
 CALD.IN     45 280 60 00:   CALIPER FROM DENSITY LOG
 GRD .GAPI   45 310 01 00:   GAMMA RAY FROM DENSITY LOG
 CORR.G/C3   45 356 01 00:   DENSITY CORRECTION
 RHOB.G/C3   45 350 01 00:   BULK DENSITY
~PARAMETER INFORMATION
#MNEM.UNIT          VALUE    DESCRIPTION
#----------   ------------   ------------------------------
 EKB .F         5154.0000:   Kelly bushing
 EGL .F         5144.0000:   Ground level
 EDF .F            0.0000:   Drilling floor
 TD  .F         3054.0000:   Total depth
 DATE.        07-AUG-1988:   Date logged
 CLNT.            A2DTECH:   Client Code
 SL  . 1650' FSL & 990' FEL:   Surface Location
 PD  .                 GL:   Permanent Datum
 DD  .F              3054:   Depth driller
 DL  .F              3052:   Depth logger
 BLI .F              3060:   Bottom log interval
 CS1 .IN            8.625:   Casing size
 CBD1.      8.625" @ 210':   Casing driller 1
 CBL1.F               225:   Casing logger 1
 BS1 .IN            7.875:   Bit size
 DFT .            KCL MUD:   Type fluid in hole
 DFD .                9.2:   Density
 DFV .                 37:   Viscosity
 DFPH.                 10:   pH
 DFL .                  8:   Fluid loss
 MSS .           FLOWLINE:   Source of sample
 RMS .OHMM            .29:   Rm
 MST .F                75:   Rm Meas. temp.
 RMF .OHMM            .27:   Rmf
 MFST.F                75:   Rmf Meas. temp.
 RMC .OHMM            .32:   Rmc
 MCST.F                75:   Rmc Meas. temp.
 MFSS.               MEAS:   Source Rmf.
 RMB .OHMM            .19:   Rm. at BHT
 BHT .F               112:   BHT.
 TCS .HRS               5:   Time Circ. stopped
 MRT .F               112:   Maximum recorded temp.
 LUN .               9685:   Logging unit number
 LUL .             CASPER:   Logging unit location
 ENGI.      JOUNER & DOAK:   Recorded By
 WITN.      B. HARRINGTON:   Witnessed by
 ORIG.           5" PRINT:   Origin of data
 UWI .     49025104070000:   Unique Well ID
 DICO. A2D TECHNOLOGIES, INC.:   Digitizing Company
 DAPD.                 10:   Feet Above Permanent Datum
 BSD1.               3054:   Depth drilled with bit1
 MCSS.               MEAS:   Source Rmc.
 EPD .               5144:   Elevation Permanent Datum
 LMF .                 KB:   Log Measured From
 DMF .                 KB:   Drilling Measured From
 TLI .                225:   Top log interval
~OTHER INFORMATION
~A   DEPT     NPHI        SPR       SGRD        ILD        ILM       CALD         GRD       CORR        RHOB 
# ...
 1345.5000     0.2930   -53.7790     9.9210     7.7690     8.3590     9.8780    95.0620     0.0200     2.5520
 1346.0000     0.2960   -53.7580     9.8620     7.7770     8.3920     9.8800    93.9260     0.0110     2.5360
 1346.5000     0.2940   -53.7590     9.8620     7.7880     8.4360     9.8830    94.9520     0.0000     2.5240
 1347.0000     0.2890   -53.8320     9.8620     7.7990     8.4200     9.8840    93.1000    -0.0120     2.5120
 1347.5000     0.2870   -53.9040     9.8620     7.8090     8.3960     9.8720    92.6050    -0.0250     2.5020
 1348.0000     0.2880   -53.9750     9.8770     7.8200     8.3710     9.8600    94.4590    -0.0380     2.4910
 1348.5000     0.2920   -54.0460     9.8980     7.8310     8.3470     9.8480    95.8760    -0.0340     2.4840
 1349.0000     0.2890   -54.1200     9.9200     7.8420     8.3240     9.8520    97.2740    -0.0230     2.4820
 1349.5000     0.2910   -54.1050     9.9530     7.8520     8.3000     9.8610    97.8440     0.0020     2.5000
 1350.0000     0.2920   -54.0590     9.9150     7.8620     8.2760     9.8710    95.9270     0.0420     2.5360
 1350.5000     0.2900   -54.0110     9.8390     7.8720     8.2520     9.8820    94.0610     0.0620     2.5700
 1351.0000     0.2880   -53.9640     9.7760     7.8820     8.2280     9.8810    93.6810     0.0610     2.5770
 1351.5000     0.2840   -53.9550     9.8220     7.8920     8.2070     9.8760    96.4320     0.0620     2.5840
 1352.0000     0.2870   -53.9840     9.8670     7.9020     8.2070     9.8710    98.6730     0.0640     2.5890
 1352.5000     0.2900   -54.0120     9.9130     7.9100     8.2070     9.8660   100.1630     0.0640     2.5850
 1353.0000     0.2920   -54.0400     9.9530     7.8730     8.2070     9.8610    98.9920     0.0620     2.5800
 1353.5000     0.2930   -54.0690     9.7640     7.8380     8.2010     9.8560    99.9930     0.0610     2.5750
 1354.0000     0.2950   -54.0970     9.4190     7.8040     8.1790     9.8510   100.9970     0.0640     2.5760
 1354.5000     0.2970   -54.1260     9.5290     7.7700     8.1570     9.8460   102.0010     0.0660     2.5740
 1355.0000     0.2980   -54.1100     9.7350     7.7360     8.1360     9.8470   103.0100     0.0640     2.5700
 1355.5000     0.3000   -54.0580     9.9530     7.7010     8.1140     9.8510   102.4010     0.0600     2.5670
 1356.0000     0.2910   -54.0060     9.8470     7.6670     8.0930     9.8540   101.6660     0.0570     2.5640
 1356.5000     0.2930   -53.9530     9.7350     7.6330     8.0720     9.8580   100.9350     0.0560     2.5660
 1357.0000     0.3000   -53.9010     9.6230     7.5990     8.0530     9.8610   100.2060     0.0570     2.5680
 1357.5000     0.3010   -53.8480     9.5060     7.5640     8.0390     9.8650    99.4690     0.0560     2.5660
 1358.0000     0.2970   -53.7950     9.3000     7.5500     8.0260     9.8650    98.7390     0.0530     2.5620
 1358.5000     0.2970   -53.7460     9.0790     7.5110     8.0120     9.8650    99.3090     0.0530     2.5580
 1359.0000     0.2950   -53.8480     9.1700     7.4720     7.9980     9.8640    99.9820     0.0530     2.5580
 1359.5000     0.2920   -53.9600     9.2630     7.4340     7.9840     9.8600   100.2680     0.0460     2.5550
 1360.0000     0.2940   -54.0700     9.3560     7.3950     7.9840     9.8510    99.2200     0.0380     2.5410
 1360.5000     0.2920   -54.1490     9.4490     7.3560     7.9840     9.8430    98.7250     0.0300     2.5290
 1361.0000     0.2920   -54.1740     9.5000     7.3180     7.9840     9.8340    99.6480     0.0220     2.5250
 1361.5000     0.2960   -54.2000     9.4430     7.2790     7.9840     9.8260    99.6250     0.0170     2.5290
 1362.0000     0.2950   -54.2260     9.3970     7.2400     7.9840     9.8170    98.7120     0.0180     2.5320
 1362.5000     0.2870   -54.2510     9.3510     7.2150     7.9840     9.8090    97.9370     0.0200     2.5350
 1363.0000     0.2910   -54.2770     9.3330     7.2090     7.9840     9.8050    99.8210     0.0210     2.5350
 1363.5000     0.2940   -54.3020     9.3330     7.2030     7.9840     9.8050    98.6300     0.0230     2.5320
 1364.0000     0.2970   -54.3280     9.3330     7.1980     7.9580     9.8050    98.9440     0.0270     2.5330
 1364.5000     0.3000   -54.3210     9.3330     7.1920     7.9240     9.8050   100.7440     0.0310     2.5340
 1365.0000     0.3030   -54.2940     9.3110     7.1860     7.8910     9.8050   102.3100     0.0350     2.5360
 1365.5000     0.3060   -54.2670     9.2840     7.1800     7.8580     9.8050   101.6380     0.0390     2.5460
 1366.0000     0.3100   -54.2400     9.2580     7.1750     7.8100     9.8050   100.9690     0.0490     2.5560
 1366.5000     0.3100   -54.2130     9.2480     7.1690     7.7430     9.8050   100.3090     0.0620     2.5650
 1367.0000     0.3110   -54.1860     9.2480     7.1630     7.6770     9.8050    99.6430     0.0650     2.5740
 1367.5000     0.3100   -54.1600     9.2480     7.1580     7.6260     9.8050    98.9720     0.0670     2.5790
 1368.0000     0.3090   -54.1380     9.2480     7.1510     7.6260     9.8050    98.4040     0.0630     2.5720
 1368.5000     0.3080   -54.1390     9.2480     7.1780     7.6260     9.8050    98.8340     0.0570     2.5640
 1369.0000     0.3090   -54.1390     9.2480     7.2110     7.6260     9.8050    99.1170     0.0570     2.5610
 1369.5000     0.3040   -54.1380     9.2480     7.2440     7.7030     9.8060    99.3790     0.0580     2.5580
 1370.0000     0.3000   -54.0920     9.2480     7.2770     7.7940     9.8130    99.1470     0.0580     2.5600
 1370.5000     0.2970   -53.8880     9.2200     7.3100     7.8850     9.8190    98.2130     0.0540     2.5650
 1371.0000     0.2970   -53.6900     9.1630     7.3430     7.9760     9.8220    97.2870     0.0490     2.5620
 1371.5000     0.2910   -53.5570     9.3110     7.3750     8.0660     9.8060    96.3600     0.0450     2.5560
 1372.0000     0.2920   -53.6340     9.5310     7.4080     8.1320     9.7900    95.4350     0.0410     2.5500
 1372.5000     0.2980   -53.7050     9.7510     7.4760     8.1710     9.7740    94.5150     0.0460     2.5540
 1373.0000     0.2950   -53.7760     9.9530     7.5600     8.2070     9.7580    94.1770     0.0510     2.5590
 1373.5000     0.2930   -53.8470    10.1070     7.6450     8.2430     9.7440    94.8130     0.0560     2.5640
 1374.0000     0.2900   -53.9190    10.2310     7.7290     8.2790     9.7400    95.4200     0.0520     2.5640
 1374.5000     0.2840   -53.9900    10.0060     7.8390     8.2830     9.7360    95.6650     0.0460     2.5540
 1375.0000     0.2860   -54.0620     9.8620     7.8320     8.2830     9.7310    94.1380     0.0400     2.5450
 1375.5000     0.2880   -54.1350     9.8620     7.8220     8.2780     9.7270    92.6810     0.0370     2.5390
 1376.0000     0.2890   -54.0610     9.8620     7.8130     8.2600     9.7260    93.8520     0.0380     2.5440
 1376.5000     0.2920   -53.9740     9.8620     7.8030     8.2430     9.7260    95.1070     0.0400     2.5480
 1377.0000     0.2950   -53.8870     9.9380     7.7930     8.2260     9.7260    95.0920     0.0420     2.5520
 1377.5000     0.2910   -53.8010    10.0440     7.7830     8.2070     9.7260    96.2600     0.0430     2.5570
 1378.0000     0.2880   -53.7410    10.1370     7.7740     8.2070     9.7260    97.7250     0.0450     2.5610
 1378.5000     0.2910   -53.7420     9.9410     7.7680     8.2070     9.7260    99.2310     0.0450     2.5640
 1379.0000     0.2870   -53.7420     9.7290     7.8040     8.2070     9.7260    99.1820     0.0460     2.5670
 1379.5000     0.2900   -53.7560     9.4190     7.8320     8.2070     9.7260    98.6940     0.0470     2.5690
 1380.0000     0.2840   -53.7820     9.6180     7.8600     8.2070     9.7260    98.1960     0.0490     2.5740
 1380.5000     0.2880   -53.8080     9.9890     7.8870     8.2070     9.7260    97.6900     0.0550     2.5800
 1381.0000     0.2860   -53.8340    10.2390     7.9110     8.2070     9.7260    97.5400     0.0620     2.5850
 1381.5000     0.2910   -53.8610    10.2640     7.9110     8.2040     9.7260    98.3220     0.0680     2.5910
