~VERSION INFORMATION
 VERS.                2.0:   CWLS LOG ASCII STANDARD - VERSION 2.0
 WRAP.                 NO:   ONE LINE PER DEPTH STEP
~WELL INFORMATION
#MNEM.UNIT      DATA TYPE    INFORMATION
#----------   ------------   ------------------------------
 STRT.F          216.0000:   START DEPTH
 STOP.F         3350.0000:   STOP DEPTH
 STEP.F            0.5000:   STEP LENGTH
 NULL.          -999.2500:   NO VALUE
 COMP.    FENIX & SCISSON:   COMPANY
 WELL. FENIX 52 "AX" #3-15:   WELL
 FLD .              N P R:   FIELD
 LOC .      S15 T38N R78W:   LOCATION
 CNTY.            NATRONA:   COUNTY
 STAT.            WYOMING:   STATE
 CTRY. UNITED STATES OF AMERICA:   COUNTRY
 SRVC.              WELEX:   SERVICE COMPANY
 DATE.        13-AUG-1977:   LOGDATE
 API .     49025104110000:   API NUMBER
~CURVE INFORMATION
#MNEM.UNIT       API CODE    CURVE DESCRIPTION
#----------   ------------   ------------------------------
 DEPT.F                  :   
 CORR.G/C3   45 356 01 00:   DENSITY CORRECTION
 CALD.IN     45 280 60 00:   CALIPER FROM DENSITY LOG
 GRD .GAPI   45 310 01 00:   GAMMA RAY FROM DENSITY LOG
 RHOB.G/C3   45 350 01 00:   BULK DENSITY
 NPHI.DEC    42 890 03 00:   NEUTRON POROSITY SANDSTONE
 SPR .MV     07 010 01 00:   SPONTANEOUS POTENTIAL
 SGRD.OHMM   07 220 05 00:   SHALLOW SHORT GUARD RESISTIVITY
 ILD .OHMM   07 120 46 00:   DEEP INDUCTION RESISTIVITY
 ILM .OHMM   07 120 44 00:   INDUCTION LOG MEDIUM RESISTIVITY
~PARAMETER INFORMATION
#MNEM.UNIT          VALUE    DESCRIPTION
#----------   ------------   ------------------------------
 EKB .F         5241.0000:   Kelly bushing
 EGL .F         5231.0000:   Ground level
 TD  .F         3352.0000:   Total depth
 DATE.        13-AUG-1977:   Date logged
 CLNT.            A2DTECH:   Client Code
 SL  . 940' FNL & 2310' FEL:   Surface Location
 PD  .                 GL:   Permanent Datum
 DD  .F              3350:   Depth driller
 DL  .F              3352:   Depth logger
 BLI .F              3350:   Bottom log interval
 CS1 .IN            8.625:   Casing size
 CBD1.      8.625" @ 227':   Casing driller 1
 CBL1.F               228:   Casing logger 1
 BS1 .IN            7.875:   Bit size
 DFT .          KCL WATER:   Type fluid in hole
 DFD .                8.9:   Density
 DFV .                 41:   Viscosity
 DFPH.                 11:   pH
 DFL .               17.2:   Fluid loss
 MSS .            MUD PIT:   Source of sample
 RMS .OHMM           .172:   Rm
 MST .F                74:   Rm Meas. temp.
 RMF .OHMM           .203:   Rmf
 MFST.F                74:   Rmf Meas. temp.
 RMC .OHMM           .220:   Rmc
 MCST.F                74:   Rmc Meas. temp.
 MFSS.               MEAS:   Source Rmf.
 RMB .OHMM           .105:   Rm. at BHT
 BHT .F               121:   BHT.
 TCS .HRS               4:   Time Circ. stopped
 MRT .F               121:   Maximum recorded temp.
 LUN .               9685:   Logging unit number
 LUL .             CASPER:   Logging unit location
 ENGI.             JOYNER:   Recorded By
 WITN.         PETTINGILL:   Witnessed by
 ORIG.           5" PRINT:   Origin of data
 UWI .     49025104110000:   Unique Well ID
 DICO. A2D TECHNOLOGIES, INC.:   Digitizing Company
 DAPD.F                10:   Feet Above Permanent Datum
 BSD1.F              3350:   Depth drilled with bit1
 EPD .F              5231:   Elevation Permanent Datum
 LMF .                 KB:   Log Measured From
 DMF .                 KB:   Drilling Measured From
 TLI .F               228:   Top log interval
~OTHER INFORMATION
~A   DEPT       CORR       CALD      GRD         RHOB       NPHI      SPR       SGRD        ILD        ILM   
# ...
 1055.5000     0.0310     9.9290   109.1060     2.5220     0.2690   -59.5860     7.6090     5.0300     6.1550
 1056.0000     0.0280     9.9230   109.6760     2.5140     0.2670   -59.6380     7.6090     5.0090     6.1700
 1056.5000     0.0260     9.9170   110.2460     2.5130     0.2650   -59.6910     7.6090     4.9870     6.1840
 1057.0000     0.0260     9.9110   110.8150     2.5190     0.2650   -59.7420     7.6090     4.9660     6.1990
 1057.5000     0.0250     9.9040   111.3850     2.5240     0.2680   -59.7920     7.6090     4.9440     6.2130
 1058.0000     0.0180     9.9050   111.9540     2.5220     0.2720   -59.8490     7.6160     4.9270     6.2280
 1058.5000     0.0110     9.9090   112.5250     2.5080     0.2770   -59.5630     7.6230     4.9270     6.2420
 1059.0000     0.0040     9.9130   113.0940     2.5040     0.2760   -59.2050     7.6300     5.0190     6.2570
 1059.5000     0.0020     9.9180   113.6530     2.5030     0.2770   -58.8760     7.6380     5.0660     6.2720
 1060.0000     0.0030     9.9220   113.7530     2.5010     0.2780   -59.1350     7.6450     5.0660     6.2860
 1060.5000     0.0030     9.9260   112.8040     2.5000     0.2800   -59.2640     7.6530     5.0490     6.3010
 1061.0000     0.0030     9.9310   111.8280     2.5010     0.2810   -59.3820     7.6600     5.0280     6.3150
 1061.5000     0.0040     9.9350   112.2990     2.4970     0.2800   -59.4580     7.6680     5.0070     6.3250
 1062.0000     0.0040     9.9390   113.3300     2.4930     0.2790   -59.5070     7.6750     4.9870     6.3250
 1062.5000     0.0040     9.9410   114.3760     2.4880     0.2760   -59.5950     7.6830     4.9730     6.3250
 1063.0000     0.0050     9.9380   115.4250     2.4880     0.2720   -59.6830     7.6900     5.0730     6.3090
 1063.5000     0.0050     9.9350   116.5000     2.4910     0.2700   -59.7710     7.6980     5.1600     6.2640
 1064.0000     0.0050     9.9320   116.7600     2.4950     0.2680   -59.8580     7.7050     5.1420     6.2180
 1064.5000     0.0060     9.9280   116.6280     2.5000     0.2660   -59.9470     7.7130     5.1080     6.1730
 1065.0000     0.0060     9.9250   116.3710     2.5040     0.2650   -60.0400     7.7200     5.0740     6.1520
 1065.5000     0.0060     9.9220   115.5460     2.5080     0.2670   -60.0740     7.7280     5.0400     6.1520
 1066.0000     0.0070     9.9190   114.0750     2.5100     0.2640   -59.6700     7.7350     5.0060     6.1520
 1066.5000     0.0070     9.9160   112.5950     2.5080     0.2640   -59.6570     7.7430     4.9720     6.1520
 1067.0000     0.0070     9.9120   111.0900     2.5060     0.2650   -59.6650     7.7500     4.9380     6.1520
 1067.5000     0.0080     9.9090   110.7930     2.5070     0.2670   -59.8220     7.7580     4.9270     6.1520
 1068.0000     0.0090     9.9060   111.5400     2.5130     0.2680   -59.9830     7.7650     4.9730     6.1520
 1068.5000     0.0160     9.9030   113.5730     2.5200     0.2660   -59.8410     7.7730     5.0190     6.1520
 1069.0000     0.0230     9.9020   115.4820     2.5280     0.2640   -59.8560     7.7800     5.0190     6.1520
 1069.5000     0.0300     9.9060   115.4530     2.5350     0.2660   -59.8170     7.7880     5.0190     6.1520
 1070.0000     0.0300     9.9290   114.5740     2.5370     0.2650   -59.6680     7.7950     5.0280     6.1520
 1070.5000     0.0280     9.9430   113.7060     2.5290     0.2630   -59.6590     7.8030     5.0660     6.1520
 1071.0000     0.0280     9.9560   113.5780     2.5200     0.2630   -59.6640     7.8100     5.0240     6.1520
 1071.5000     0.0280     9.9690   113.3360     2.5190     0.2610   -59.6770     7.8180     4.9740     6.1520
 1072.0000     0.0290     9.9850   114.3100     2.5190     0.2590   -59.6890     7.8250     4.9250     6.1520
 1072.5000     0.0300    10.0210   115.1590     2.5180     0.2570   -59.7020     7.9170     4.8750     6.1520
 1073.0000     0.0200    10.0210   114.5720     2.5120     0.2560   -59.7150     7.9700     4.8260     6.1520
 1073.5000     0.0110    10.0030   113.8680     2.5060     0.2570   -59.7280     7.9620     4.7770     6.1520
 1074.0000     0.0060     9.9840   113.1650     2.5010     0.2560   -59.7410     7.9510     4.7270     6.1520
 1074.5000     0.0120     9.9660   112.4750     2.5140     0.2540   -59.7530     7.9390     4.6780     6.1520
 1075.0000     0.0180     9.9480   112.1530     2.5170     0.2530   -59.7660     7.9280     4.6180     6.1520
 1075.5000     0.0170     9.9210   112.8910     2.5140     0.2520   -59.7790     7.9160     4.7050     6.1520
 1076.0000     0.0150     9.9280   113.5970     2.5030     0.2550   -59.7920     7.9050     4.8140     6.1520
 1076.5000     0.0130     9.9400   114.2910     2.4930     0.2570   -59.8050     7.8930     4.9220     6.1520
 1077.0000     0.0110     9.9510   114.7740     2.4820     0.2570   -59.8180     7.8820     5.0310     6.1520
 1077.5000     0.0090     9.9630   114.0400     2.4720     0.2570   -59.8300     7.8700     5.1390     6.1520
 1078.0000     0.0080     9.9740   112.6840     2.4620     0.2590   -59.8410     7.8590     5.2040     6.1520
 1078.5000     0.0070     9.9860   112.6970     2.4510     0.2610   -59.8480     7.8470     5.1600     6.1520
 1079.0000     0.0130     9.9970   113.5950     2.4440     0.2620   -59.7030     7.8360     5.1240     6.1520
 1079.5000     0.0190    10.0090   114.4680     2.4350     0.2640   -59.2760     7.8240     5.0890     6.1520
 1080.0000     0.0260    10.0200   114.2320     2.4260     0.2650   -58.7160     7.8120     5.0540     6.1520
 1080.5000     0.0320    10.0320   113.2260     2.4100     0.2640   -58.7140     7.8010     5.0180     6.1520
 1081.0000     0.0380    10.0430   113.3500     2.3950     0.2650   -58.8500     7.7890     4.9830     6.1520
 1081.5000     0.0440    10.0550   114.3720     2.3590     0.2650   -58.9830     7.7780     4.9000     6.1520
 1082.0000     0.0500    10.0780   115.3830     2.3200     0.2660   -59.1120     7.7660     4.7920     6.1520
 1082.5000     0.0570    10.1170   116.3890     2.2800     0.2650   -59.2390     7.7540     4.8120     6.1520
 1083.0000     0.0620    10.1570   117.3890     2.2410     0.2640   -59.0920     7.7490     4.8320     6.1520
 1083.5000     0.0700    10.1960   118.3910     2.2010     0.2630   -58.7510     7.7460     4.8530     6.2340
 1084.0000     0.0520    10.2350   116.9360     2.1710     0.2610   -58.4170     7.8280     4.8740     6.5080
 1084.5000     0.0340    10.2750   115.6430     2.1840     0.2590   -58.0870     7.8960     4.8950     6.7810
 1085.0000     0.0200    10.3140   117.3680     2.2150     0.2570   -57.9910     7.8960     4.9270     7.0550
 1085.5000     0.0010    10.3540   119.1010     2.3720     0.2550   -57.7530     7.8960     4.8700     7.1990
 1086.0000     0.0150    10.3920   120.8280     2.5040     0.2580   -57.5130     7.8960     4.7500     7.1990
 1086.5000     0.0270    10.4220   122.6250     2.5070     0.2610   -57.4480     7.4690     4.5580     7.0070
 1087.0000     0.0140    10.4340   123.1390     2.5060     0.2640   -57.5320     7.0690     4.1670     6.8100
 1087.5000     0.0170    10.3790   123.1600     2.5170     0.2640   -57.6310     6.6680     3.8740     6.3010
 1088.0000     0.0260    10.3240   123.1510     2.5240     0.2630   -57.7300     6.2680     3.3210     5.8180
 1088.5000     0.0270    10.3090   123.1460     2.5220     0.2640   -57.8300     5.8680     2.6630     5.3360
 1089.0000     0.0260    10.3040   122.2070     2.5140     0.2610   -57.9340     5.4680     3.2530     5.1130
 1089.5000     0.0310    10.3150   120.4170     2.5070     0.2630   -58.0540     4.8370     4.8580     5.6160
 1090.0000     0.0380    10.3250   118.6250     2.5040     0.2650   -57.8610     4.8670    12.3080     6.0240
 1090.5000     0.0450    10.3350   116.8260     2.4960     0.2630   -57.5640     4.9380    29.9870     6.4330
 1091.0000     0.0520    10.3460   115.0270     2.4890     0.2650   -57.3700     5.0090    43.6910     6.8410
 1091.5000     0.0530    10.3560   113.2290     2.4810     0.2650   -57.1700     5.0800    38.5270     7.0560
