~VERSION INFORMATION
 VERS.                2.0:   CWLS LOG ASCII STANDARD - VERSION 2.0
 WRAP.                 NO:   ONE LINE PER DEPTH STEP
~WELL INFORMATION
#MNEM.UNIT      DATA TYPE    INFORMATION
#----------   ------------   ------------------------------
 STRT.F          214.0000:   START DEPTH
 STOP.F         3064.0000:   STOP DEPTH
 STEP.F            0.5000:   STEP LENGTH
 NULL.          -999.2500:   NO VALUE
 COMP.    FENIX & SCISSON:   COMPANY
 WELL.    FENIX "A" #76-3:   WELL
 FLD .                NPR:   FIELD
 LOC .       S3 T38N R78W:   LOCATION
 CNTY.            NATRONA:   COUNTY
 STAT.            WYOMING:   STATE
 CTRY. UNITED STATES OF AMERICA:   COUNTRY
 SRVC.              WELEX:   SERVICE COMPANY
 DATE.        07-AUG-1988:   LOGDATE
 API .     49025104070000:   API NUMBER
~CURVE INFORMATION
#MNEM.UNIT       API CODE    CURVE DESCRIPTION
#----------   ------------   ------------------------------
 DEPT.F                  :   
 NPHI.DEC    42 890 00 00:   NEUTRON POROSITY
 SPR .MV     07 010 01 00:   SPONTANEOUS POTENTIAL
 SGRD.OHMM   07 220 05 00:   SHALLOW GUARD LOG RESISTIVITY
 ILD .OHMM   07 120 46 00:   DEEP INDUCTION RESISTIVITY
 ILM .OHMM   07 120 44 00:   INDUCTION LOG MEDIUM RESISTIVITY
 CALD.IN     45 280 60 00:   CALIPER FROM DENSITY LOG
 GRD .GAPI   45 310 01 00:   GAMMA RAY FROM DENSITY LOG
 CORR.G/C3   45 356 01 00:   DENSITY CORRECTION
 RHOB.G/C3   45 350 01 00:   BULK DENSITY
~PARAMETER INFORMATION
#MNEM.UNIT          VALUE    DESCRIPTION
#----------   ------------   ------------------------------
 EKB .F         5154.0000:   Kelly bushing
 EGL .F         5144.0000:   Ground level
 EDF .F            0.0000:   Drilling floor
 TD  .F         3054.0000:   Total depth
 DATE.        07-AUG-1988:   Date logged
 CLNT.            A2DTECH:   Client Code
 SL  . 1650' FSL & 990' FEL:   Surface Location
 PD  .                 GL:   Permanent Datum
 DD  .F              3054:   Depth driller
 DL  .F              3052:   Depth logger
 BLI .F              3060:   Bottom log interval
 CS1 .IN            8.625:   Casing size
 CBD1.      8.625" @ 210':   Casing driller 1
 CBL1.F               225:   Casing logger 1
 BS1 .IN            7.875:   Bit size
 DFT .            KCL MUD:   Type fluid in hole
 DFD .                9.2:   Density
 DFV .                 37:   Viscosity
 DFPH.                 10:   pH
 DFL .                  8:   Fluid loss
 MSS .           FLOWLINE:   Source of sample
 RMS .OHMM            .29:   Rm
 MST .F                75:   Rm Meas. temp.
 RMF .OHMM            .27:   Rmf
 MFST.F                75:   Rmf Meas. temp.
 RMC .OHMM            .32:   Rmc
 MCST.F                75:   Rmc Meas. temp.
 MFSS.               MEAS:   Source Rmf.
 RMB .OHMM            .19:   Rm. at BHT
 BHT .F               112:   BHT.
 TCS .HRS               5:   Time Circ. stopped
 MRT .F               112:   Maximum recorded temp.
 LUN .               9685:   Logging unit number
 LUL .             CASPER:   Logging unit location
 ENGI.      JOUNER & DOAK:   Recorded By
 WITN.      B. HARRINGTON:   Witnessed by
 ORIG.           5" PRINT:   Origin of data
 UWI .     49025104070000:   Unique Well ID
 DICO. A2D TECHNOLOGIES, INC.:   Digitizing Company
 DAPD.                 10:   Feet Above Permanent Datum
 BSD1.               3054:   Depth drilled with bit1
 MCSS.               MEAS:   Source Rmc.
 EPD .               5144:   Elevation Permanent Datum
 LMF .                 KB:   Log Measured From
 DMF .                 KB:   Drilling Measured From
 TLI .                225:   Top log interval
~OTHER INFORMATION
~A   DEPT     NPHI        SPR       SGRD        ILD        ILM       CALD         GRD       CORR        RHOB 
# ...
 2075.5000     0.3110   -48.5420    11.4330     7.8310    10.0050     8.5150   120.9500     0.0990     2.2680
 2076.0000     0.3090   -48.4880    11.7810     7.8690     9.9740     8.4270   120.0930     0.0870     2.3470
 2076.5000     0.3130   -48.4330    12.0330     7.9070     9.9030     8.3250   120.1190     0.0830     2.4680
 2077.0000     0.3150   -48.3810    12.1840     8.0210     9.7320     8.2970   120.0660     0.0840     2.4960
 2077.5000     0.3190   -48.4540    12.4320     8.1440     9.5060     8.2920   118.3360     0.0860     2.5040
 2078.0000     0.3200   -48.5330    12.9260     8.2670     9.5810     8.2890   116.3380     0.0840     2.5060
 2078.5000     0.3140   -48.6130    13.4200     8.4080     9.6920     8.2860   114.3000     0.0800     2.5040
 2079.0000     0.3040   -48.6920    13.9650     8.5510     9.8030     8.2820   113.3570     0.0760     2.5020
 2079.5000     0.2960   -48.7720    13.8700     8.6940     9.8620     8.2790   113.6070     0.0720     2.5010
 2080.0000     0.2810   -48.8000    13.7390     8.8370     9.7020     8.2820   113.7320     0.0680     2.4990
 2080.5000     0.2840   -48.8250    13.8340     8.9250     9.5750     8.2850   112.8450     0.0650     2.4980
 2081.0000     0.2850   -48.8510    13.9800     8.9660     9.5060     8.2890   111.9690     0.0610     2.4970
 2081.5000     0.2860   -48.8770    13.6880     8.9960     9.5880     8.2920   110.6590     0.0660     2.4990
 2082.0000     0.2900   -48.9030    13.2400     8.7080     9.4520     8.2960   107.9170     0.0700     2.5000
 2082.5000     0.2890   -48.9290    12.8710     8.4760     9.2340     8.2970   105.1760     0.0740     2.5020
 2083.0000     0.2920   -48.9550    12.4210     8.2450     9.0150     8.2930   106.1110     0.0780     2.5030
 2083.5000     0.2880   -48.9640    11.9880     8.0180     8.6720     8.2880   107.3450     0.0890     2.5040
 2084.0000     0.2870   -48.9260    11.4790     7.8390     8.7990     8.2830   105.6510     0.1020     2.5010
 2084.5000     0.2910   -48.8890    10.8690     7.6600     9.0960     8.2790   103.6390     0.1140     2.4920
 2085.0000     0.2900   -48.8530    10.5160     7.4870     9.3920     8.3270   101.5390     0.1270     2.4830
 2085.5000     0.2880   -48.8160    11.0570     7.4190     9.6880     8.3830   102.4660     0.1400     2.4750
 2086.0000     0.2870   -48.7800    11.5000     7.4300     9.8620     8.3890   104.5880     0.1520     2.4660
 2086.5000     0.2920   -48.8540    11.8500     7.4570     9.6230     8.3790   107.6410     0.1600     2.4580
 2087.0000     0.2960   -48.9460    11.9410     7.4850     9.2600     8.3680   110.6900     0.1510     2.4530
 2087.5000     0.2970   -49.0380    12.0150     7.5120     8.8980     8.3580   113.7430     0.1280     2.4490
 2088.0000     0.2990   -49.1300    12.0840     7.5390     8.6350     8.3460   116.7390     0.1060     2.4830
 2088.5000     0.3010   -49.2220    12.1810     7.5560     8.4410     8.3350   118.7310     0.0970     2.5170
 2089.0000     0.3020   -49.3140    12.1090     7.5560     8.2830     8.3240   115.8070     0.0910     2.5190
 2089.5000     0.3040   -49.4060    11.7380     7.5560     8.4320     8.3130   117.8080     0.0760     2.5080
 2090.0000     0.3060   -49.4970    10.3250     7.5560     8.6860     8.3020   116.9610     0.0650     2.5080
 2090.5000     0.2990   -49.5640    11.1480     7.5720     8.9390     8.2910   115.2800     0.0720     2.5150
 2091.0000     0.2980   -49.5230    12.2050     7.6650     9.2710     8.2790   113.7630     0.0730     2.5130
 2091.5000     0.2970   -49.4850    13.1090     7.7580     9.6260     8.2820   114.5420     0.0710     2.5070
 2092.0000     0.2950   -49.4470    13.1090     7.8500     9.9800     8.2900   115.6480     0.0740     2.5070
 2092.5000     0.2950   -49.4090    12.0690     7.9430    10.3350     8.3020   116.7570     0.0800     2.5080
 2093.0000     0.2930   -49.3740    12.4310     8.0080    10.6200     8.3320   117.8650     0.0830     2.5040
 2093.5000     0.2910   -49.4630    13.1300     8.0520    10.8830     8.3550   118.9740     0.0740     2.5000
 2094.0000     0.2930   -49.5570    13.7250     8.0950    11.1460     8.3770   120.0920     0.0780     2.4970
 2094.5000     0.2890   -49.6510    13.8520     8.1340    11.3330     8.3730   121.2460     0.0860     2.5010
 2095.0000     0.2910   -49.7460    13.2150     8.1450    11.4390     8.3670   121.1660     0.0930     2.5050
 2095.5000     0.2940   -49.8400    12.7420     8.1570    11.5440     8.3610   120.8760     0.1010     2.5090
 2096.0000     0.2960   -49.9340    12.5210     8.1690    11.6500     8.3550   120.5910     0.1050     2.5090
 2096.5000     0.2980   -50.0280    12.9920     8.1800    11.7530     8.3490   120.3100     0.1080     2.5080
 2097.0000     0.3000   -50.1220    13.2300     8.1920    11.8430     8.3430   120.0990     0.1120     2.5060
 2097.5000     0.3020   -50.1880    12.9890     8.2040    11.9340     8.3370   120.4230     0.1160     2.5040
 2098.0000     0.3000   -50.2310    13.3750     8.2070    11.9590     8.3310   120.8790     0.1110     2.5100
 2098.5000     0.2970   -50.2740    13.9800     8.2070    11.5690     8.3250   120.5180     0.0960     2.5150
 2099.0000     0.2970   -50.3170    13.9800     8.2070    11.2630     8.3190   119.7470     0.0920     2.5260
 2099.5000     0.2970   -50.3600    13.3900     8.2070    10.7640     8.3160   118.9760     0.0910     2.5380
 2100.0000     0.2950   -50.4030    12.7360     8.2070    10.2860     8.3140   118.2160     0.0920     2.5480
 2100.5000     0.2930   -50.4460    12.1510     8.1310     9.9930     8.3120   118.2870     0.0900     2.5460
 2101.0000     0.2940   -50.4890    11.6670     8.0460     9.8890     8.3100   118.6210     0.0880     2.5440
 2101.5000     0.2920   -50.5320    11.1120     7.9840     9.7850     8.3080   118.9590     0.0870     2.5430
 2102.0000     0.2940   -50.5930    11.3790     7.9560     9.7390     8.3050   119.3230     0.0830     2.5410
 2102.5000     0.2890   -50.7100    11.7760     7.9300     9.7020     8.3030   118.4610     0.0790     2.5390
 2103.0000     0.2850   -50.8250    12.1720     7.8700     9.6740     8.3010   117.2700     0.0750     2.5380
 2103.5000     0.2850   -50.9390    12.5690     7.7100     9.6430     8.2990   116.0820     0.0710     2.5380
 2104.0000     0.2860   -51.0540    12.9890     7.5560     9.6120     8.3000   114.8940     0.0660     2.5380
 2104.5000     0.2840   -51.1690    12.7060     7.5410     9.5480     8.3020   114.4540     0.0620     2.5370
 2105.0000     0.2830   -51.2840    12.2580     7.5260     9.3500     8.3050   116.1520     0.0590     2.5320
 2105.5000     0.2800   -51.3980    11.6970     7.5110     9.1520     8.3070   117.4370     0.0680     2.5310
 2106.0000     0.2750   -51.5140    12.1810     7.4960     8.9530     8.3090   118.7390     0.0780     2.5360
 2106.5000     0.2740   -51.6050    11.8950     7.4810     8.5510     8.3120   119.3020     0.0840     2.5340
 2107.0000     0.2770   -51.6830    11.4200     7.4670     7.9110     8.3140   118.7030     0.0810     2.5270
 2107.5000     0.2770   -51.7610    11.3180     7.4530     8.2750     8.3160   118.0420     0.0790     2.5200
 2108.0000     0.2790   -51.8390    12.3290     7.4390     8.9140     8.3180   117.3780     0.0830     2.5190
 2108.5000     0.2760   -51.9170    12.8710     7.4250     8.8450     8.3200   116.7120     0.0880     2.5260
 2109.0000     0.2720   -51.9950    12.4870     7.4060     8.7520     8.3230   116.0740     0.0930     2.5290
 2109.5000     0.2710   -52.0740    11.9310     7.3850     8.7520     8.3250   115.4380     0.0960     2.5300
 2110.0000     0.2710   -52.1490    11.5880     7.3630     8.7520     8.3270   114.8200     0.0920     2.5240
 2110.5000     0.2730   -52.1020    11.1120     7.3420     8.6990     8.3290   113.0390     0.0880     2.5180
 2111.0000     0.2730   -52.0490    11.1570     7.3200     8.5930     8.3310   111.3860     0.0840     2.5120
 2111.5000     0.2650   -51.9980    11.2420     7.2980     8.6110     8.3330   110.1540     0.0800     2.5070
