~VERSION INFORMATION
 VERS.                2.0:   CWLS LOG ASCII STANDARD - VERSION 2.0
 WRAP.                 NO:   ONE LINE PER DEPTH STEP
~WELL INFORMATION
#MNEM.UNIT      DATA TYPE    INFORMATION
#----------   ------------   ------------------------------
 STRT.F          214.0000:   START DEPTH
 STOP.F         3064.0000:   STOP DEPTH
 STEP.F            0.5000:   STEP LENGTH
 NULL.          -999.2500:   NO VALUE
 COMP.    FENIX & SCISSON:   COMPANY
 WELL.    FENIX "A" #76-3:   WELL
 FLD .                NPR:   FIELD
 LOC .       S3 T38N R78W:   LOCATION
 CNTY.            NATRONA:   COUNTY
 STAT.            WYOMING:   STATE
 CTRY. UNITED STATES OF AMERICA:   COUNTRY
 SRVC.              WELEX:   SERVICE COMPANY
 DATE.        07-AUG-1988:   LOGDATE
 API .     49025104070000:   API NUMBER
~CURVE INFORMATION
#MNEM.UNIT       API CODE    CURVE DESCRIPTION
#----------   ------------   ------------------------------
 DEPT.F                  :   
 NPHI.DEC    42 890 00 00:   NEUTRON POROSITY
 SPR .MV     07 010 01 00:   SPONTANEOUS POTENTIAL
 SGRD.OHMM   07 220 05 00:   SHALLOW GUARD LOG RESISTIVITY
 ILD .OHMM   07 120 46 00:   DEEP INDUCTION RESISTIVITY
 ILM .OHMM   07 120 44 00:   INDUCTION LOG MEDIUM RESISTIVITY
 CALD.IN     45 280 60 00:   CALIPER FROM DENSITY LOG
 GRD .GAPI   45 310 01 00:   GAMMA RAY FROM DENSITY LOG
 CORR.G/C3   45 356 01 00:   DENSITY CORRECTION
 RHOB.G/C3   45 350 01 00:   BULK DENSITY
~PARAMETER INFORMATION
#MNEM.UNIT          VALUE    DESCRIPTION
#----------   ------------   ------------------------------
 EKB .F         5154.0000:   Kelly bushing
 EGL .F         5144.0000:   Ground level
 EDF .F            0.0000:   Drilling floor
 TD  .F         3054.0000:   Total depth
 DATE.        07-AUG-1988:   Date logged
 CLNT.            A2DTECH:   Client Code
 SL  . 1650' FSL & 990' FEL:   Surface Location
 PD  .                 GL:   Permanent Datum
 DD  .F              3054:   Depth driller
 DL  .F              3052:   Depth logger
 BLI .F              3060:   Bottom log interval
 CS1 .IN            8.625:   Casing size
 CBD1.      8.625" @ 210':   Casing driller 1
 CBL1.F               225:   Casing logger 1
 BS1 .IN            7.875:   Bit size
 DFT .            KCL MUD:   Type fluid in hole
 DFD .                9.2:   Density
 DFV .                 37:   Viscosity
 DFPH.                 10:   pH
 DFL .                  8:   Fluid loss
 MSS .           FLOWLINE:   Source of sample
 RMS .OHMM            .29:   Rm
 MST .F                75:   Rm Meas. temp.
 RMF .OHMM            .27:   Rmf
 MFST.F                75:   Rmf Meas. temp.
 RMC .OHMM            .32:   Rmc
 MCST.F                75:   Rmc Meas. temp.
 MFSS.               MEAS:   Source Rmf.
 RMB .OHMM            .19:   Rm. at BHT
 BHT .F               112:   BHT.
 TCS .HRS               5:   Time Circ. stopped
 MRT .F               112:   Maximum recorded temp.
 LUN .               9685:   Logging unit number
 LUL .             CASPER:   Logging unit location
 ENGI.      JOUNER & DOAK:   Recorded By
 WITN.      B. HARRINGTON:   Witnessed by
 ORIG.           5" PRINT:   Origin of data
 UWI .     49025104070000:   Unique Well ID
 DICO. A2D TECHNOLOGIES, INC.:   Digitizing Company
 DAPD.                 10:   Feet Above Permanent Datum
 BSD1.               3054:   Depth drilled with bit1
 MCSS.               MEAS:   Source Rmc.
 EPD .               5144:   Elevation Permanent Datum
 LMF .                 KB:   Log Measured From
 DMF .                 KB:   Drilling Measured From
 TLI .                225:   Top log interval
~OTHER INFORMATION
~A   DEPT     NPHI        SPR       SGRD        ILD        ILM       CALD         GRD       CORR        RHOB 
# ...
 1710.5000     0.3100   -53.5710     9.1630     6.9300     8.2070     9.3790   132.0000     0.1060     2.5560
 1711.0000     0.3120   -53.6240     9.0750     6.8960     8.2070     9.3780   131.4610     0.1050     2.5540
 1711.5000     0.3100   -53.6780     8.9890     6.8630     8.2070     9.3770   130.4730     0.1100     2.5550
 1712.0000     0.3130   -53.7300     8.9020     6.8300     8.2150     9.3750   130.4690     0.1170     2.5570
 1712.5000     0.3100   -53.7810     8.8330     6.7080     8.2530     9.3740   131.2470     0.1250     2.5590
 1713.0000     0.3080   -53.8290     8.8330     6.5870     8.2910     9.3730   131.3550     0.1290     2.5580
 1713.5000     0.3110   -53.8770     8.8330     6.4640     8.3290     9.3720   130.5490     0.1330     2.5560
 1714.0000     0.3100   -53.9250     8.8330     6.4740     8.3590     9.3700   130.3440     0.1310     2.5550
 1714.5000     0.3100   -53.9740     8.8330     6.4920     8.2590     9.3690   130.9960     0.1170     2.5530
 1715.0000     0.3130   -54.0220     8.8330     6.5090     8.2110     9.3680   131.5860     0.1020     2.5510
 1715.5000     0.3120   -54.0700     8.8330     6.5320     8.2510     9.3660   132.1840     0.0880     2.5450
 1716.0000     0.3200   -54.1180     8.8330     6.5820     8.2820     9.3650   132.8090     0.0740     2.5390
 1716.5000     0.3160   -54.1390     8.8330     6.6320     8.3140     9.3630   131.6560     0.0610     2.5330
 1717.0000     0.3110   -54.1390     8.8790     6.6820     8.3590     9.3620   130.1830     0.0530     2.5310
 1717.5000     0.3130   -54.1390     8.9620     6.7310     8.3120     9.3600   129.3260     0.0470     2.5240
 1718.0000     0.3110   -54.1390     9.0440     6.7810     8.2290     9.3590   129.6270     0.0420     2.5130
 1718.5000     0.3100   -54.1390     9.1630     6.8310     8.1460     9.3570   128.3420     0.0400     2.5020
 1719.0000     0.3120   -54.0800     9.1180     6.8930     8.0580     9.3560   126.1670     0.0370     2.5020
 1719.5000     0.3090   -53.9740     9.0360     6.7900     8.0050     9.3540   123.9770     0.0390     2.5010
 1720.0000     0.3160   -53.8690     8.9530     6.6450     7.9480     9.3530   121.7330     0.0420     2.4960
 1720.5000     0.3140   -53.7630     8.8710     6.5070     7.8370     9.3510   121.5630     0.0460     2.4890
 1721.0000     0.3190   -53.6560     8.8110     6.3600     7.6160     9.3490   120.6360     0.0500     2.4820
 1721.5000     0.3200   -53.5460     8.7710     6.2130     7.2690     9.3480   118.8700     0.0530     2.4750
 1722.0000     0.3150   -53.4540     8.4770     6.0660     6.8770     9.3460   118.6270     0.0570     2.4680
 1722.5000     0.3220   -53.3580     7.9110     5.9190     6.6450     9.3450   118.8690     0.0610     2.4690
 1723.0000     0.3250   -53.2630     6.4540     5.7840     7.0390     9.3430   119.1230     0.0660     2.4730
 1723.5000     0.3260   -53.1670     5.6840     5.7360     7.4690     9.3420   119.2870     0.0600     2.4790
 1724.0000     0.3280   -53.0710     7.0980     5.6840     7.8980     9.3400   117.9270     0.0660     2.5110
 1724.5000     0.3200   -52.9730     8.6720     5.7910     8.2780     9.3390   116.5120     0.0740     2.5280
 1725.0000     0.3150   -52.9480     8.9600     5.9080     8.2310     9.3370   115.1030     0.0750     2.5330
 1725.5000     0.3120   -52.9470     9.2480     6.0260     8.2070     9.3360   113.7010     0.0710     2.5350
 1726.0000     0.3050   -52.9470     9.4440     6.2310     8.4320     9.3340   112.3170     0.0670     2.5310
 1726.5000     0.3050   -52.9470     9.6640     6.4740     8.6050     9.3330   111.1740     0.0640     2.5270
 1727.0000     0.3010   -52.9470     9.8830     6.7180     8.7780     9.3310   110.0010     0.0630     2.5230
 1727.5000     0.2990   -52.9470     9.9900     6.9610     8.8330     9.3300   108.7880     0.0610     2.5190
 1728.0000     0.2970   -52.9630    10.0660     7.2040     8.8330     9.3200   109.8270     0.0620     2.5180
 1728.5000     0.2990   -52.9860    10.1370     7.2840     8.8330     9.3090   110.9920     0.0640     2.5200
 1729.0000     0.2950   -53.0090    10.1730     7.3030     8.8470     9.2980   110.1070     0.0650     2.5180
 1729.5000     0.2930   -53.0320    10.2060     7.3740     8.8690     9.2880   109.6670     0.0660     2.5110
 1730.0000     0.2930   -53.0550    10.2310     7.4450     8.8900     9.2800   110.4070     0.0670     2.5030
 1730.5000     0.2950   -53.0780    10.1470     7.5160     8.9110     9.2720   109.4730     0.0680     2.5040
 1731.0000     0.2980   -53.1010    10.3900     7.5870     8.9680     9.2640   111.6920     0.0690     2.4950
 1731.5000     0.3010   -53.1240    10.6860     7.6520     9.0710     9.2570   114.3890     0.0700     2.4930
 1732.0000     0.3040   -53.1450    11.0110     7.7110     9.0330     9.2490   116.2390     0.0720     2.4970
 1732.5000     0.3070   -53.1460    10.8320     7.7670     8.9600     9.2410   114.5060     0.0770     2.5050
 1733.0000     0.3090   -53.1460    10.5550     7.6130     8.8880     9.2330   115.1860     0.0810     2.5170
 1733.5000     0.3090   -53.1460    10.2780     7.4650     8.8330     9.2280   116.3840     0.0860     2.5290
 1734.0000     0.3060   -53.1460    10.0010     7.3320     8.6480     9.2250   117.2160     0.0900     2.5400
 1734.5000     0.3000   -53.1460     9.6760     7.2510     8.4680     9.2210   116.5160     0.0900     2.5510
 1735.0000     0.3010   -53.1460     9.2930     7.1690     8.3590     9.2180   115.8540     0.0890     2.5480
 1735.5000     0.3030   -53.1380     9.0790     7.0880     8.3910     9.2150   115.5120     0.0850     2.5440
 1736.0000     0.3050   -53.0980     9.2000     7.0070     8.5360     9.2110   115.1450     0.0800     2.5450
 1736.5000     0.3070   -53.0580     9.3980     6.9250     8.6820     9.2080   114.7780     0.0790     2.5510
 1737.0000     0.3090   -53.0180     9.5940     6.8860     8.8270     9.2050   114.4110     0.0800     2.5560
 1737.5000     0.3100   -52.9790     9.6830     6.8740     8.9140     9.2010   114.0430     0.0800     2.5580
 1738.0000     0.3120   -52.9510     9.7720     6.8620     8.7440     9.1980   113.6760     0.0780     2.5560
 1738.5000     0.3150   -52.9780     9.6280     6.8500     8.5740     9.1950   113.3080     0.0770     2.5550
 1739.0000     0.3130   -53.0040     9.4840     6.8380     8.4360     9.1910   112.9410     0.0790     2.5570
 1739.5000     0.3130   -53.0300     9.3390     6.8300     8.2870     9.1880   112.5730     0.0810     2.5590
 1740.0000     0.3110   -53.0560     9.1630     6.8300     8.1320     9.1850   112.2060     0.0820     2.5560
 1740.5000     0.3140   -53.0820     9.1900     6.8300     8.1570     9.1810   111.8380     0.0810     2.5520
 1741.0000     0.3090   -53.1080     9.2600     6.8300     8.1880     9.1780   111.4710     0.0790     2.5470
 1741.5000     0.3040   -53.1340     9.3330     6.8300     8.2190     9.1750   111.1030     0.0770     2.5420
 1742.0000     0.3030   -53.1240     9.4820     6.8300     8.2510     9.1710   110.7360     0.0770     2.5440
 1742.5000     0.3020   -53.0860     9.6370     6.8300     8.2820     9.1680   110.3680     0.0790     2.5470
 1743.0000     0.3020   -53.0480     9.7910     6.8590     8.3140     9.1650   110.0010     0.0800     2.5500
 1743.5000     0.3010   -53.0100     9.9530     6.8890     8.3450     9.1610   109.6330     0.0810     2.5490
 1744.0000     0.3010   -52.9720     9.9190     6.9190     8.3590     9.1580   109.2660     0.0830     2.5460
 1744.5000     0.3050   -52.9470     9.8850     6.9490     8.3590     9.1550   108.8980     0.0800     2.5440
 1745.0000     0.3090   -52.9470     9.8620     6.9690     8.4570     9.1510   108.5310     0.0760     2.5410
 1745.5000     0.3110   -52.9470     9.9290     6.9850     8.7430     9.1480   108.1630     0.0730     2.5370
 1746.0000     0.3070   -52.9470     9.9830     7.0020     9.0290     9.1450   107.7960     0.0700     2.5310
 1746.5000     0.3070   -52.9460    10.0410     7.0180     9.1630     9.1410   107.4280     0.0690     2.5300
