~VERSION INFORMATION
 VERS.                2.0:   CWLS LOG ASCII STANDARD - VERSION 2.0
 WRAP.                 NO:   ONE LINE PER DEPTH STEP
~WELL INFORMATION
#MNEM.UNIT      DATA TYPE    INFORMATION
#----------   ------------   ------------------------------
 STRT.F          216.0000:   START DEPTH
 STOP.F         3350.0000:   STOP DEPTH
 STEP.F            0.5000:   STEP LENGTH
 NULL.          -999.2500:   NO VALUE
 COMP.    FENIX & SCISSON:   COMPANY
 WELL. FENIX 52 "AX" #3-15:   WELL
 FLD .              N P R:   FIELD
 LOC .      S15 T38N R78W:   LOCATION
 CNTY.            NATRONA:   COUNTY
 STAT.            WYOMING:   STATE
 CTRY. UNITED STATES OF AMERICA:   COUNTRY
 SRVC.              WELEX:   SERVICE COMPANY
 DATE.        13-AUG-1977:   LOGDATE
 API .     49025104110000:   API NUMBER
~CURVE INFORMATION
#MNEM.UNIT       API CODE    CURVE DESCRIPTION
#----------   ------------   ------------------------------
 DEPT.F                  :   
 CORR.G/C3   45 356 01 00:   DENSITY CORRECTION
 CALD.IN     45 280 60 00:   CALIPER FROM DENSITY LOG
 GRD .GAPI   45 310 01 00:   GAMMA RAY FROM DENSITY LOG
 RHOB.G/C3   45 350 01 00:   BULK DENSITY
 NPHI.DEC    42 890 03 00:   NEUTRON POROSITY SANDSTONE
 SPR .MV     07 010 01 00:   SPONTANEOUS POTENTIAL
 SGRD.OHMM   07 220 05 00:   SHALLOW SHORT GUARD RESISTIVITY
 ILD .OHMM   07 120 46 00:   DEEP INDUCTION RESISTIVITY
 ILM .OHMM   07 120 44 00:   INDUCTION LOG MEDIUM RESISTIVITY
~PARAMETER INFORMATION
#MNEM.UNIT          VALUE    DESCRIPTION
#----------   ------------   ------------------------------
 EKB .F         5241.0000:   Kelly bushing
 EGL .F         5231.0000:   Ground level
 TD  .F         3352.0000:   Total depth
 DATE.        13-AUG-1977:   Date logged
 CLNT.            A2DTECH:   Client Code
 SL  . 940' FNL & 2310' FEL:   Surface Location
 PD  .                 GL:   Permanent Datum
 DD  .F              3350:   Depth driller
 DL  .F              3352:   Depth logger
 BLI .F              3350:   Bottom log interval
 CS1 .IN            8.625:   Casing size
 CBD1.      8.625" @ 227':   Casing driller 1
 CBL1.F               228:   Casing logger 1
 BS1 .IN            7.875:   Bit size
 DFT .          KCL WATER:   Type fluid in hole
 DFD .                8.9:   Density
 DFV .                 41:   Viscosity
 DFPH.                 11:   pH
 DFL .               17.2:   Fluid loss
 MSS .            MUD PIT:   Source of sample
 RMS .OHMM           .172:   Rm
 MST .F                74:   Rm Meas. temp.
 RMF .OHMM           .203:   Rmf
 MFST.F                74:   Rmf Meas. temp.
 RMC .OHMM           .220:   Rmc
 MCST.F                74:   Rmc Meas. temp.
 MFSS.               MEAS:   Source Rmf.
 RMB .OHMM           .105:   Rm. at BHT
 BHT .F               121:   BHT.
 TCS .HRS               4:   Time Circ. stopped
 MRT .F               121:   Maximum recorded temp.
 LUN .               9685:   Logging unit number
 LUL .             CASPER:   Logging unit location
 ENGI.             JOYNER:   Recorded By
 WITN.         PETTINGILL:   Witnessed by
 ORIG.           5" PRINT:   Origin of data
 UWI .     49025104110000:   Unique Well ID
 DICO. A2D TECHNOLOGIES, INC.:   Digitizing Company
 DAPD.F                10:   Feet Above Permanent Datum
 BSD1.F              3350:   Depth drilled with bit1
 EPD .F              5231:   Elevation Permanent Datum
 LMF .                 KB:   Log Measured From
 DMF .                 KB:   Drilling Measured From
 TLI .F               228:   Top log interval
~OTHER INFORMATION
~A   DEPT       CORR       CALD      GRD         RHOB       NPHI      SPR       SGRD        ILD        ILM   
# ...
 1238.0000     0.0090     9.8890   112.7990     2.4900     0.2560   -59.5750     7.3870     5.0990     6.1350
 1238.5000     0.0140     9.8890   111.6520     2.4950     0.2580   -59.5260     7.4370     5.0990     6.1390
 1239.0000     0.0180     9.8890   110.5260     2.4990     0.2550   -59.4760     7.4870     5.1000     6.1470
 1239.5000     0.0200     9.8900   109.4030     2.5010     0.2520   -59.4260     7.5370     5.0990     6.1550
 1240.0000     0.0180     9.8900   108.2830     2.5000     0.2510   -59.3770     7.5870     5.2550     6.1630
 1240.5000     0.0150     9.8900   107.5760     2.5000     0.2530   -59.3270     7.6650     5.3610     6.1710
 1241.0000     0.0110     9.8910   107.5860     2.4980     0.2540   -59.2770     7.6460     5.4680     6.1790
 1241.5000     0.0080     9.8910   107.5850     2.4930     0.2540   -59.2280     7.6020     5.5740     6.1870
 1242.0000     0.0050     9.8910   107.5850     2.4870     0.2580   -59.1790     7.5920     5.6980     6.1950
 1242.5000     0.0020     9.8910   107.5850     2.4830     0.2580   -59.1350     7.5820     5.6550     6.2030
 1243.0000     0.0000     9.8920   107.5850     2.4830     0.2580   -59.1190     7.5710     5.6030     6.2110
 1243.5000     0.0000     9.8920   107.5850     2.4820     0.2580   -59.0680     7.5610     5.5510     6.2190
 1244.0000     0.0000     9.8920   107.5850     2.4810     0.2570   -59.0170     7.5500     5.4990     6.2270
 1244.5000    -0.0010     9.8930   107.5850     2.4810     0.2520   -58.9670     7.5400     5.4470     6.2350
 1245.0000    -0.0010     9.8930   107.5590     2.4800     0.2490   -58.9160     7.5290     5.3940     6.2430
 1245.5000    -0.0010     9.8930   107.5180     2.4800     0.2460   -58.8650     7.5250     5.3420     6.2510
 1246.0000    -0.0010     9.8940   107.4770     2.4750     0.2410   -58.8150     7.5900     5.2900     6.2600
 1246.5000    -0.0020     9.8940   107.4360     2.4680     0.2390   -58.7640     7.6450     5.2380     6.2680
 1247.0000    -0.0020     9.8940   107.3950     2.4600     0.2380   -58.7130     7.7000     5.1860     6.2760
 1247.5000    -0.0020     9.8950   107.3540     2.4590     0.2390   -58.6630     7.7490     5.1340     6.2840
 1248.0000    -0.0020     9.8950   107.3130     2.4680     0.2400   -58.6120     7.8400     5.0990     6.2910
 1248.5000     0.0010     9.8950   107.2720     2.4700     0.2430   -58.5610     7.9310     5.1640     6.2990
 1249.0000     0.0050     9.8960   107.2300     2.4660     0.2450   -58.5110     8.0290     5.2130     6.3080
 1249.5000     0.0080     9.8960   107.1850     2.4630     0.2470   -58.4600     8.1730     5.2610     6.3660
 1250.0000     0.0110     9.8960   107.2130     2.4620     0.2480   -58.4100     8.3310     5.3100     6.4440
 1250.5000     0.0140     9.8970   107.8380     2.4680     0.2440   -58.3590     8.4890     5.3590     6.5220
 1251.0000     0.0180     9.8970   108.4440     2.4750     0.2410   -58.3470     8.6470     5.4080     6.6000
 1251.5000     0.0150     9.8970   109.0450     2.4810     0.2430   -58.6050     8.8050     5.4570     6.6780
 1252.0000     0.0120     9.8970   109.5550     2.4820     0.2470   -58.8560     8.9630     5.5770     6.7560
 1252.5000     0.0080     9.8980   109.2100     2.4780     0.2460   -59.0990     9.1210     5.8700     6.8340
 1253.0000     0.0050     9.8980   109.4720     2.4740     0.2440   -59.0250     9.2790     6.1370     6.8790
 1253.5000     0.0020     9.8980   110.6040     2.4690     0.2420   -58.5770     9.4860     6.0760     6.9100
 1254.0000    -0.0020     9.8990   111.7720     2.4660     0.2420   -58.1400     9.4770     6.0210     6.9400
 1254.5000    -0.0060     9.8990   111.9670     2.4710     0.2410   -57.7400     9.4630     5.9650     6.9700
 1255.0000    -0.0060     9.8990   111.7580     2.4790     0.2390   -57.7350     9.4490     5.9100     7.0000
 1255.5000    -0.0040     9.9000   111.5500     2.4790     0.2430   -57.8390     9.4360     5.8540     7.0300
 1256.0000     0.0010     9.9000   111.3470     2.4740     0.2440   -58.3030     9.4220     5.7980     7.0520
 1256.5000     0.0060     9.9000   111.1440     2.4770     0.2400   -58.7570     9.4090     5.7430     8.1040
 1257.0000     0.0100     9.9010   110.9410     2.4850     0.2410   -59.2120     9.3980     5.6870     7.7820
 1257.5000     0.0150     9.9010   110.7380     2.4930     0.2430   -59.6650     9.3860     5.6320     7.3050
 1258.0000     0.0200     9.9010   110.5350     2.5010     0.2440   -59.7370     9.3740     5.5760     7.0520
 1258.5000     0.0260     9.9020   110.3320     2.5060     0.2460   -59.7460     9.3630     5.5200     7.3110
 1259.0000     0.0260     9.9020   110.1290     2.5050     0.2470   -59.5150     9.3510     5.4650     7.5150
 1259.5000     0.0260     9.9010   109.9260     2.5020     0.2460   -59.2500     9.3390     5.4090     7.6650
 1260.0000     0.0240     9.8740   109.7240     2.4990     0.2450   -58.9800     9.3230     5.0560     7.0550
 1260.5000     0.0220     9.8480   109.5780     2.4960     0.2430   -59.0370     9.3240     4.4990     6.9810
 1261.0000     0.0200     9.8220   109.5810     2.4930     0.2410   -59.1530     9.1770     4.6440     6.9710
 1261.5000     0.0170     9.7960   109.5780     2.4900     0.2390   -59.2720     9.0710     4.8380     6.9620
 1262.0000     0.0150     9.7830   109.5860     2.4870     0.2390   -59.3900     8.9650     5.0990     6.9530
 1262.5000     0.0130     9.7790   110.1570     2.4870     0.2390   -59.5090     8.8590     5.0520     6.9430
 1263.0000     0.0110     9.7750   110.7990     2.4890     0.2410   -59.6280     8.7530     5.2130     6.9340
 1263.5000     0.0090     9.7710   111.4420     2.4910     0.2440   -59.7470     8.6460     5.3250     6.9240
 1264.0000     0.0080     9.7670   112.0840     2.4930     0.2490   -59.8660     8.5400     5.4360     6.9150
 1264.5000     0.0080     9.7620   112.7230     2.4900     0.2510   -59.9400     8.4340     5.5470     6.9060
 1265.0000     0.0080     9.7580   113.1810     2.4820     0.2500   -59.9390     8.3320     5.6860     6.8960
 1265.5000     0.0060     9.7540   112.7890     2.4740     0.2500   -59.9390     8.3450     5.6180     6.8870
 1266.0000     0.0040     9.7500   112.3590     2.4670     0.2480   -59.9390     8.3750     5.4920     6.8770
 1266.5000     0.0020     9.7460   111.9770     2.4640     0.2450   -59.8570     8.4050     5.3660     6.8680
 1267.0000     0.0010     9.7420   111.9890     2.4660     0.2450   -59.7190     8.4350     5.2410     6.8590
 1267.5000     0.0020     9.7380   112.3060     2.4740     0.2460   -59.5910     8.4650     5.1840     6.8490
 1268.0000     0.0090     9.7340   112.6620     2.4820     0.2440   -59.3370     8.4880     5.1670     6.8400
 1268.5000     0.0090     9.7300   113.7160     2.4900     0.2470   -59.5020     8.3950     5.1500     6.8300
 1269.0000     0.0040     9.7260   114.7410     2.4900     0.2500   -59.7850     8.2480     5.1330     6.8210
 1269.5000    -0.0020     9.7220   115.7680     2.4850     0.2510   -60.0680     8.1040     5.1170     6.8120
 1270.0000    -0.0040     9.7170   116.7970     2.4830     0.2560   -60.3530     8.0970     5.1000     6.8020
 1270.5000    -0.0030     9.7130   117.8360     2.4880     0.2600   -60.6400     8.0860     5.0830     6.7930
 1271.0000    -0.0020     9.7090   118.8730     2.4890     0.2590   -60.9290     8.0760     5.0670     6.7830
 1271.5000    -0.0010     9.7050   119.1340     2.4830     0.2580   -60.9150     8.0650     5.0500     6.7740
 1272.0000     0.0000     9.7010   117.3460     2.4780     0.2570   -60.6990     8.0540     5.0330     6.7650
 1272.5000     0.0020     9.6970   115.6300     2.4810     0.2550   -60.4810     8.0360     5.0160     6.7550
 1273.0000     0.0030     9.6930   114.7750     2.4880     0.2550   -60.2640     8.0300     5.0000     6.7460
 1273.5000     0.0040     9.6890   114.7790     2.4950     0.2580   -60.0470     7.9520     4.9830     6.7360
 1274.0000     0.0030     9.6850   115.4210     2.4970     0.2590   -59.9410     7.9850     4.9660     6.7170
