~VERSION INFORMATION
 VERS.                2.0:   CWLS LOG ASCII STANDARD - VERSION 2.0
 WRAP.                 NO:   ONE LINE PER DEPTH STEP
~WELL INFORMATION
#MNEM.UNIT      DATA TYPE    INFORMATION
#----------   ------------   ------------------------------
 STRT.F          214.0000:   START DEPTH
 STOP.F         3064.0000:   STOP DEPTH
 STEP.F            0.5000:   STEP LENGTH
 NULL.          -999.2500:   NO VALUE
 COMP.    FENIX & SCISSON:   COMPANY
 WELL.    FENIX "A" #76-3:   WELL
 FLD .                NPR:   FIELD
 LOC .       S3 T38N R78W:   LOCATION
 CNTY.            NATRONA:   COUNTY
 STAT.            WYOMING:   STATE
 CTRY. UNITED STATES OF AMERICA:   COUNTRY
 SRVC.              WELEX:   SERVICE COMPANY
 DATE.        07-AUG-1988:   LOGDATE
 API .     49025104070000:   API NUMBER
~CURVE INFORMATION
#MNEM.UNIT       API CODE    CURVE DESCRIPTION
#----------   ------------   ------------------------------
 DEPT.F                  :   
 NPHI.DEC    42 890 00 00:   NEUTRON POROSITY
 SPR .MV     07 010 01 00:   SPONTANEOUS POTENTIAL
 SGRD.OHMM   07 220 05 00:   SHALLOW GUARD LOG RESISTIVITY
 ILD .OHMM   07 120 46 00:   DEEP INDUCTION RESISTIVITY
 ILM .OHMM   07 120 44 00:   INDUCTION LOG MEDIUM RESISTIVITY
 CALD.IN     45 280 60 00:   CALIPER FROM DENSITY LOG
 GRD .GAPI   45 310 01 00:   GAMMA RAY FROM DENSITY LOG
 CORR.G/C3   45 356 01 00:   DENSITY CORRECTION
 RHOB.G/C3   45 350 01 00:   BULK DENSITY
~PARAMETER INFORMATION
#MNEM.UNIT          VALUE    DESCRIPTION
#----------   ------------   ------------------------------
 EKB .F         5154.0000:   Kelly bushing
 EGL .F         5144.0000:   Ground level
 EDF .F            0.0000:   Drilling floor
 TD  .F         3054.0000:   Total depth
 DATE.        07-AUG-1988:   Date logged
 CLNT.            A2DTECH:   Client Code
 SL  . 1650' FSL & 990' FEL:   Surface Location
 PD  .                 GL:   Permanent Datum
 DD  .F              3054:   Depth driller
 DL  .F              3052:   Depth logger
 BLI .F              3060:   Bottom log interval
 CS1 .IN            8.625:   Casing size
 CBD1.      8.625" @ 210':   Casing driller 1
 CBL1.F               225:   Casing logger 1
 BS1 .IN            7.875:   Bit size
 DFT .            KCL MUD:   Type fluid in hole
 DFD .                9.2:   Density
 DFV .                 37:   Viscosity
 DFPH.                 10:   pH
 DFL .                  8:   Fluid loss
 MSS .           FLOWLINE:   Source of sample
 RMS .OHMM            .29:   Rm
 MST .F                75:   Rm Meas. temp.
 RMF .OHMM            .27:   Rmf
 MFST.F                75:   Rmf Meas. temp.
 RMC .OHMM            .32:   Rmc
 MCST.F                75:   Rmc Meas. temp.
 MFSS.               MEAS:   Source Rmf.
 RMB .OHMM            .19:   Rm. at BHT
 BHT .F               112:   BHT.
 TCS .HRS               5:   Time Circ. stopped
 MRT .F               112:   Maximum recorded temp.
 LUN .               9685:   Logging unit number
 LUL .             CASPER:   Logging unit location
 ENGI.      JOUNER & DOAK:   Recorded By
 WITN.      B. HARRINGTON:   Witnessed by
 ORIG.           5" PRINT:   Origin of data
 UWI .     49025104070000:   Unique Well ID
 DICO. A2D TECHNOLOGIES, INC.:   Digitizing Company
 DAPD.                 10:   Feet Above Permanent Datum
 BSD1.               3054:   Depth drilled with bit1
 MCSS.               MEAS:   Source Rmc.
 EPD .               5144:   Elevation Permanent Datum
 LMF .                 KB:   Log Measured From
 DMF .                 KB:   Drilling Measured From
 TLI .                225:   Top log interval
~OTHER INFORMATION
~A   DEPT     NPHI        SPR       SGRD        ILD        ILM       CALD         GRD       CORR        RHOB 
  214.0000  -999.2500  -999.2500  -999.2500  -999.2500  -999.2500  -999.2500    34.1400    -0.5440     1.4660
  214.5000  -999.2500  -999.2500  -999.2500  -999.2500  -999.2500  -999.2500    34.5020    -0.5460     1.4600
  215.0000  -999.2500  -999.2500  -999.2500  -999.2500  -999.2500  -999.2500    34.8790    -0.5500     1.4550
  215.5000  -999.2500  -999.2500  -999.2500  -999.2500  -999.2500  -999.2500    34.1010    -0.5520     1.4500
  216.0000     0.3090  -999.2500  -999.2500  -999.2500  -999.2500  -999.2500    33.4960    -0.5520     1.4470
  216.5000     0.3120  -999.2500  -999.2500  -999.2500  -999.2500  -999.2500    33.1040    -0.5560     1.4420
  217.0000     0.3180  -999.2500  -999.2500  -999.2500  -999.2500  -999.2500    33.0830    -0.5530     1.4360
  217.5000     0.3170  -999.2500  -999.2500  -999.2500  -999.2500  -999.2500    32.0250    -0.5500     1.4300
  218.0000     0.3220  -999.2500  -999.2500  -999.2500  -999.2500  -999.2500    30.8570    -0.5450     1.4280
  218.5000     0.3190  -999.2500  -999.2500  -999.2500  -999.2500  -999.2500    29.6850    -0.5380     1.4430
  219.0000     0.3140  -999.2500  -999.2500  -999.2500  -999.2500  -999.2500    29.1330    -0.5270     1.4780
  219.5000     0.3110  -999.2500  -999.2500  -999.2500  -999.2500  -999.2500    29.1630    -0.4600     1.5250
  220.0000     0.3110    -0.0990     0.2120   104.4420     6.2310  -999.2500    30.4050    -0.3870     1.6090
  220.5000     0.3070    -0.0990     0.2120   104.4420     6.2310  -999.2500    31.9750    -0.3130     1.6980
  221.0000     0.3020    -0.0990     0.2120   104.4420     6.2310  -999.2500    33.8100    -0.2210     1.7910
  221.5000     0.2970    -0.0990     0.2120   105.1140     6.2530  -999.2500    37.5840    -0.0790     1.9190
  222.0000     0.2900    -0.3240     0.2120   104.4420     6.2310  -999.2500    42.0850     0.0590     2.0030
  222.5000     0.2880    -5.9780     0.2310   104.6600     6.2310  -999.2500    46.7640     0.2050     2.0010
  223.0000     0.2850   -11.7280     0.4630   103.3480     6.2320     9.2790    51.4440     0.1710     2.1220
  223.5000     0.2830   -17.1080     0.9410   106.8230     6.2350     9.8630    55.3110     0.1450     2.0900
  224.0000     0.2800   -22.4570     1.7660   104.4420     6.2310    10.4460    57.7910     0.1340     2.1010
  224.5000     0.2820   -28.8920     3.0400     1.7230     6.2310    10.5670    60.1770     0.1220     2.0970
  225.0000     0.2820   -33.5000     3.8450     1.2370     5.0450    10.4810    61.6800     0.1110     2.1030
  225.5000     0.2780   -37.2700     4.4870     0.7820     5.6320    10.3840    63.2570     0.1220     2.1240
  226.0000     0.2820   -41.1090     4.8860     0.5860     5.5600    10.3120    64.9270     0.1400     2.2580
  226.5000     0.2840   -44.9210     5.2850     0.4770     5.3040    10.2630    64.7330     0.1380     2.3320
  227.0000     0.2830   -48.4280     5.6850     0.4230     5.0050    10.2680    63.9070     0.1350     2.3140
  227.5000     0.2800   -50.8470     5.8970     0.5530     4.7050    10.3130    63.0570     0.1330     2.2960
  228.0000     0.2850   -53.2790     5.7220     0.7630     4.4970    10.3580    62.1990     0.1360     2.2710
  228.5000     0.2890   -55.5000     5.3750     0.9750     4.2440    10.4040    62.2910     0.1380     2.2450
  229.0000     0.2860   -56.8800     5.0140     2.0570     3.8650    10.4480    63.0380     0.1400     2.2190
  229.5000     0.2850   -58.2600     4.5910     3.1540     3.4850    10.5200    63.7930     0.1430     2.1930
  230.0000     0.2820   -59.2050     4.1680     3.7260     3.2170    10.5950    64.5600     0.1390     2.1680
  230.5000     0.2830   -60.0310     3.7450     3.5620     2.9810    10.6600    66.1500     0.1350     2.1420
  231.0000     0.2860   -60.8610     3.3220     3.3370     2.8030    10.6770    69.1200     0.1300     2.1220
  231.5000     0.2830   -61.6900     3.1290     3.1430     2.8290    10.6980    72.0700     0.1230     2.1130
  232.0000     0.2810   -62.5190     3.2490     3.0440     3.0530    10.7140    75.0220     0.1150     2.1190
  232.5000     0.2830   -63.3480     3.4160     3.4090     3.2900    10.6180    77.9730     0.1060     2.1380
  233.0000     0.2800   -64.1790     3.9480     3.8650     3.5260    10.5190    80.9240     0.1060     2.2110
  233.5000     0.2840   -65.0010     4.8030     4.3200     3.7630    10.4200    83.9050     0.1100     2.3160
  234.0000     0.2830   -65.6430     5.1380     4.7760     4.1650    10.3570    85.6280     0.1040     2.3830
  234.5000     0.2800   -65.2810     6.3720     5.1740     4.6330    10.3420    86.6610     0.0980     2.3930
  235.0000     0.2800   -64.3470     7.7240     5.4420     5.1000    10.3250    87.3870     0.0920     2.3920
  235.5000     0.2820   -63.4330     8.2070     5.6840     6.1170    10.3100    88.4470     0.0900     2.3880
  236.0000     0.2850   -62.7330     8.0810     5.9370     6.0900    10.3060    90.0000     0.0900     2.3840
  236.5000     0.2770   -63.1670     7.8990     6.1680     6.0350    10.3180    91.5500     0.0950     2.3810
  237.0000     0.2780   -63.5780     7.7670     6.3990     5.9980    10.3310    93.1040     0.1000     2.3780
  237.5000     0.2760   -63.9850     7.6240     6.6300     5.9680    10.3430    93.0300     0.1060     2.3790
  238.0000     0.2740   -64.2330     7.4910     6.8750     5.9260    10.3560    92.6280     0.1090     2.3790
  238.5000     0.2750   -64.4390     7.4190     6.7500     5.8730    10.3680    93.9970     0.1110     2.3740
  239.0000     0.2760   -64.6450     7.4190     6.5830     5.7900    10.3800    95.3080     0.1120     2.3680
  239.5000     0.2780   -64.8500     7.4190     6.3370     5.6590    10.3930    95.5830     0.1180     2.3580
  240.0000     0.2800   -65.0560     7.4190     6.0590     5.5050    10.4050    96.8860     0.1310     2.3390
  240.5000     0.2800   -65.2610     7.4190     5.7940     5.2460    10.4180    98.1110     0.1430     2.3190
  241.0000     0.2820   -65.4670     7.1470     5.5300     4.9650    10.4300    97.5600     0.1550     2.3000
  241.5000     0.2860   -65.6720     6.4370     5.2840     4.6840    10.4480    96.9430     0.1620     2.2810
  242.0000     0.2890   -65.8780     5.1900     5.0480     4.4770    10.4870    95.4150     0.1530     2.2610
  242.5000     0.2850   -66.0830     4.2760     4.8780     4.5940    10.5270    93.6530     0.1330     2.2530
  243.0000     0.2850   -66.2460     4.7550     4.8070     4.7390    10.5210    91.9010     0.1030     2.2840
  243.5000     0.2800   -66.1640     5.2340     4.7480     4.8840    10.4960    90.5200     0.0880     2.3440
  244.0000     0.2860   -66.0810     5.6320     4.6870     5.0300    10.4700    89.8440     0.0740     2.3400
  244.5000     0.2820   -65.9990     5.4790     4.7210     5.2030    10.4440    89.2330     0.0600     2.3380
  245.0000     0.2790   -65.9150     5.7620     4.7640     5.3970    10.4200    89.7710     0.0550     2.3470
  245.5000     0.2810   -65.7970     6.5280     4.9620     5.5920    10.4140    90.0200     0.0600     2.3640
  246.0000     0.2790   -65.5780     7.0860     5.2160     5.7860    10.4090    89.2820     0.0660     2.3810
  246.5000     0.2810   -65.3650     6.9800     5.4710     5.9680    10.4040    88.4440     0.0670     2.3930
  247.0000     0.2850   -65.1520     6.8930     5.7250     6.0780    10.3990    87.5870     0.0680     2.4010
  247.5000     0.2890   -64.9400     7.3060     5.9950     6.2110    10.3940    86.8720     0.0680     2.4030
  248.0000     0.2880   -64.7270     7.6680     6.2780     6.4860    10.3890    87.8840     0.0720     2.4050
  248.5000     0.2870   -64.5140     7.8490     6.5840     6.7600    10.3840    89.1560     0.0770     2.4070
  249.0000     0.2810   -64.3020     7.8680     6.6840     6.9340    10.3790    90.6600     0.0820     2.4090
  249.5000     0.2870   -64.0890     7.8870     6.7930     7.0140    10.3740    92.6920     0.0870     2.4110
  250.0000     0.2830   -63.8760     7.9110     6.9020     7.0860    10.3690    94.6460     0.0920     2.4130
