~VERSION INFORMATION
 VERS.                2.0:   CWLS LOG ASCII STANDARD - VERSION 2.0
 WRAP.                 NO:   ONE LINE PER DEPTH STEP
~WELL INFORMATION
#MNEM.UNIT      DATA TYPE    INFORMATION
#----------   ------------   ------------------------------
 STRT.F          216.0000:   START DEPTH
 STOP.F         3350.0000:   STOP DEPTH
 STEP.F            0.5000:   STEP LENGTH
 NULL.          -999.2500:   NO VALUE
 COMP.    FENIX & SCISSON:   COMPANY
 WELL. FENIX 52 "AX" #3-15:   WELL
 FLD .              N P R:   FIELD
 LOC .      S15 T38N R78W:   LOCATION
 CNTY.            NATRONA:   COUNTY
 STAT.            WYOMING:   STATE
 CTRY. UNITED STATES OF AMERICA:   COUNTRY
 SRVC.              WELEX:   SERVICE COMPANY
 DATE.        13-AUG-1977:   LOGDATE
 API .     49025104110000:   API NUMBER
~CURVE INFORMATION
#MNEM.UNIT       API CODE    CURVE DESCRIPTION
#----------   ------------   ------------------------------
 DEPT.F                  :   
 CORR.G/C3   45 356 01 00:   DENSITY CORRECTION
 CALD.IN     45 280 60 00:   CALIPER FROM DENSITY LOG
 GRD .GAPI   45 310 01 00:   GAMMA RAY FROM DENSITY LOG
 RHOB.G/C3   45 350 01 00:   BULK DENSITY
 NPHI.DEC    42 890 03 00:   NEUTRON POROSITY SANDSTONE
 SPR .MV     07 010 01 00:   SPONTANEOUS POTENTIAL
 SGRD.OHMM   07 220 05 00:   SHALLOW SHORT GUARD RESISTIVITY
 ILD .OHMM   07 120 46 00:   DEEP INDUCTION RESISTIVITY
 ILM .OHMM   07 120 44 00:   INDUCTION LOG MEDIUM RESISTIVITY
~PARAMETER INFORMATION
#MNEM.UNIT          VALUE    DESCRIPTION
#----------   ------------   ------------------------------
 EKB .F         5241.0000:   Kelly bushing
 EGL .F         5231.0000:   Ground level
 TD  .F         3352.0000:   Total depth
 DATE.        13-AUG-1977:   Date logged
 CLNT.            A2DTECH:   Client Code
 SL  . 940' FNL & 2310' FEL:   Surface Location
 PD  .                 GL:   Permanent Datum
 DD  .F              3350:   Depth driller
 DL  .F              3352:   Depth logger
 BLI .F              3350:   Bottom log interval
 CS1 .IN            8.625:   Casing size
 CBD1.      8.625" @ 227':   Casing driller 1
 CBL1.F               228:   Casing logger 1
 BS1 .IN            7.875:   Bit size
 DFT .          KCL WATER:   Type fluid in hole
 DFD .                8.9:   Density
 DFV .                 41:   Viscosity
 DFPH.                 11:   pH
 DFL .               17.2:   Fluid loss
 MSS .            MUD PIT:   Source of sample
 RMS .OHMM           .172:   Rm
 MST .F                74:   Rm Meas. temp.
 RMF .OHMM           .203:   Rmf
 MFST.F                74:   Rmf Meas. temp.
 RMC .OHMM           .220:   Rmc
 MCST.F                74:   Rmc Meas. temp.
 MFSS.               MEAS:   Source Rmf.
 RMB .OHMM           .105:   Rm. at BHT
 BHT .F               121:   BHT.
 TCS .HRS               4:   Time Circ. stopped
 MRT .F               121:   Maximum recorded temp.
 LUN .               9685:   Logging unit number
 LUL .             CASPER:   Logging unit location
 ENGI.             JOYNER:   Recorded By
 WITN.         PETTINGILL:   Witnessed by
 ORIG.           5" PRINT:   Origin of data
 UWI .     49025104110000:   Unique Well ID
 DICO. A2D TECHNOLOGIES, INC.:   Digitizing Company
 DAPD.F                10:   Feet Above Permanent Datum
 BSD1.F              3350:   Depth drilled with bit1
 EPD .F              5231:   Elevation Permanent Datum
 LMF .                 KB:   Log Measured From
 DMF .                 KB:   Drilling Measured From
 TLI .F               228:   Top log interval
~OTHER INFORMATION
~A   DEPT       CORR       CALD      GRD         RHOB       NPHI      SPR       SGRD        ILD        ILM   
# ...
 2698.0000     0.0250     9.1900   102.1310     2.4040     0.1350   -20.4560    16.0510     8.3320    10.0280
 2698.5000     0.0210     9.2260   102.0060     2.4060     0.1350   -21.4210    13.9990     8.3320    10.0280
 2699.0000     0.0180     9.2630   101.8820     2.4090     0.1380   -22.3870    14.1290     8.3320    10.0280
 2699.5000     0.0210     9.3000   101.7580     2.4110     0.1400   -23.3530    14.2610     8.3320    10.0280
 2700.0000     0.0260     9.3370   101.6330     2.4140     0.1420   -24.3170    13.9990     8.3320    10.0280
 2700.5000     0.0310     9.3740   101.5080     2.4170     0.1440   -25.1330    13.2390     8.3320    10.0280
 2701.0000     0.0350     9.4110   101.3850     2.4190     0.1420   -25.6620    12.2960     8.3320    10.0280
 2701.5000     0.0340     9.4470   101.2610     2.4180     0.1390   -26.3230    12.9950     8.3330    10.0280
 2702.0000     0.0320     9.4840   101.1750     2.4160     0.1390   -26.9870    14.2140     8.2850    10.0280
 2702.5000     0.0340     9.5210   102.2020     2.4140     0.1380   -27.6510    15.3580     8.2410    10.0280
 2703.0000     0.0370     9.5580   103.6190     2.4190     0.1380   -28.3150    14.7040     8.1980    10.0280
 2703.5000     0.0400     9.5950   105.0470     2.4290     0.1380   -28.9790    14.1290     8.1540    10.0280
 2704.0000     0.0420     9.6320   106.4720     2.4400     0.1380   -29.6430    13.8700     8.1040    10.0280
 2704.5000     0.0390     9.6590   107.8890     2.4420     0.1380   -30.3070    13.5380     8.1300    10.0280
 2705.0000     0.0370     9.6830   109.2400     2.4300     0.1380   -30.9710    13.1990     8.1610    10.0280
 2705.5000     0.0330     9.7070   110.7240     2.4210     0.1380   -31.6340    12.8610     8.1920    10.0280
 2706.0000     0.0290     9.7310   111.8990     2.4130     0.1400   -32.2930    12.5220     8.2240    10.0280
 2706.5000     0.0260     9.7540   110.4560     2.4130     0.1420   -32.8930    12.1830     8.2550    10.0280
 2707.0000     0.0280     9.7780   109.1980     2.4130     0.1440   -33.1230    12.9470     8.2110    10.0280
 2707.5000     0.0320     9.8020   109.1830     2.4240     0.1460   -33.3650    13.4770     8.1670    10.0290
 2708.0000     0.0370     9.8260   110.0660     2.4380     0.1470   -33.6090    14.1290     8.1040    10.0280
 2708.5000     0.0400     9.8490   111.8170     2.4470     0.1480   -33.8530    13.8180     8.1250    10.0280
 2709.0000     0.0350     9.8730   113.5660     2.4460     0.1490   -34.0970    13.4140     8.1620    10.1220
 2709.5000     0.0310     9.8970   115.3190     2.4460     0.1500   -34.3400    13.0100     8.2550    10.2160
 2710.0000     0.0270     9.9210   117.0770     2.4460     0.1500   -34.5830    12.6060     8.3920    10.2190
 2710.5000     0.0260     9.9420   118.8550     2.4470     0.1490   -34.8260    12.2020     8.5750    10.2160
 2711.0000     0.0270     9.9520   120.6820     2.4500     0.1500   -35.0400    11.8170     8.8080    10.2240
 2711.5000     0.0300     9.9620   121.2080     2.4520     0.1520   -35.0500    11.5630     8.6980    10.2330
 2712.0000     0.0320     9.9620   120.3860     2.4550     0.1570   -35.1960    11.3080     8.5460    10.2410
 2712.5000     0.0340     9.9620   119.5070     2.4570     0.1650   -35.2190    11.0540     8.3930    10.2500
 2713.0000     0.0370     9.9620   118.6390     2.4600     0.1760   -35.1980    10.8000     8.2410    10.2580
 2713.5000     0.0390     9.9620   117.7790     2.4640     0.1740   -35.1750    10.5460     8.0880    10.2670
 2714.0000     0.0420     9.9620   117.1560     2.4700     0.1720   -35.1540    10.3110     7.9360    10.2750
 2714.5000     0.0440     9.9620   117.6170     2.4760     0.1720   -35.1330    10.3990     7.7830    10.2840
 2715.0000     0.0470     9.9620   118.5100     2.4800     0.1750   -35.1110    10.4800     7.6310    10.2920
 2715.5000     0.0480     9.9620   119.4020     2.4780     0.1730   -35.0900    10.5610     7.4790    10.3010
 2716.0000     0.0460     9.9620   120.2950     2.4710     0.1750   -35.0680    10.6420     7.3260    10.3100
 2716.5000     0.0430     9.9570   121.1900     2.4630     0.1750   -35.0500    10.7230     7.1210    10.2810
 2717.0000     0.0370     9.9390   122.1400     2.4550     0.1760   -34.8720    10.8050     7.1320    10.2450
 2717.5000     0.0300     9.9220   121.1160     2.4560     0.1790   -34.6100    10.8860     7.1530    10.2090
 2718.0000     0.0240     9.9050   119.5580     2.4530     0.1820   -34.3470    11.2540     7.1820    10.1740
 2718.5000     0.0180     9.8870   120.4600     2.4380     0.1840   -34.0840    11.6860     7.1730    10.1380
 2719.0000     0.0120     9.8700   121.7530     2.4290     0.1880   -33.8210    12.1180     7.1550    10.1020
 2719.5000     0.0130     9.8520   123.1360     2.4300     0.1920   -33.5580    12.6430     7.1360    10.0660
 2720.0000     0.0160     9.8350   121.2890     2.4330     0.1960   -33.2950    12.2790     7.1180    10.0300
 2720.5000     0.0200     9.8170   118.6430     2.4410     0.2000   -33.0320    11.8170     7.1130     9.9950
 2721.0000     0.0230     9.8000   116.3930     2.4480     0.1990   -32.7700    11.3550     7.0870     9.9590
 2721.5000     0.0270     9.7820   115.0320     2.4550     0.1990   -32.5050    10.8930     7.0610     9.8680
 2722.0000     0.0300     9.7650   111.6570     2.4500     0.1960   -32.1910    10.4070     7.0350     9.6770
 2722.5000     0.0310     9.7480   108.4110     2.4440     0.1930   -31.8510    10.0140     7.0090     9.4870
 2723.0000     0.0300     9.7300   105.1900     2.4380     0.1900   -30.6420     9.5990     6.9870     9.2340
 2723.5000     0.0280     9.7130   101.9680     2.4320     0.1870   -29.3830     9.1840     6.9350     8.9270
 2724.0000     0.0280     9.6950    98.7200     2.4250     0.1840   -28.1250     8.7690     6.8360     8.6200
 2724.5000     0.0290     9.6780    95.3500     2.4190     0.1820   -26.8670     8.4260     6.7380     8.3130
 2725.0000     0.0310     9.6600    94.3550     2.4190     0.1810   -25.6080     8.1790     6.6390     8.0060
 2725.5000     0.0340     9.6430    93.4520     2.4190     0.1800   -24.3490     8.7610     6.4280     7.6990
 2726.0000     0.0360     9.6260    92.5570     2.4220     0.1800   -23.0900     9.2900     6.3100     7.8810
 2726.5000     0.0380     9.6080    91.6400     2.4250     0.1790   -21.8310     9.8190     6.4280     8.8860
 2727.0000     0.0410     9.5910    90.7370     2.4280     0.1760   -20.5730    10.7000     6.6660     9.9060
 2727.5000     0.0430     9.5730    89.8350     2.4320     0.1740   -19.3200    10.5070     6.8870     9.7140
 2728.0000     0.0450     9.5560    88.9320     2.4530     0.1710   -18.2240    10.2150     7.1080     9.4580
 2728.5000     0.0460     9.5380    88.0290     2.4360     0.1700   -17.6940     9.9240     7.3290     9.2030
 2729.0000     0.0470     9.5210    87.1260     2.4160     0.1710   -17.1650     9.6330     7.5500     8.9470
 2729.5000     0.0470     9.5040    86.2130     2.4080     0.1720   -16.6840     9.3420     7.7710     8.6910
 2730.0000     0.0480     9.4860    85.2580     2.4050     0.1710   -16.2150     9.0570     7.9920     8.5900
 2730.5000     0.0490     9.4690    85.8570     2.4040     0.1700   -15.7460     9.9310     8.2550     8.5210
 2731.0000     0.0510     9.4510    86.7650     2.4040     0.1710   -15.2770    10.9980     8.1150     8.4530
 2731.5000     0.0520     9.4340    87.5360     2.4050     0.1710   -14.8080    12.0700     7.8860     8.3840
 2732.0000     0.0540     9.4160    88.5660     2.4070     0.1710   -14.3390    11.5150     7.6560     8.3150
 2732.5000     0.0560     9.3990    88.3110     2.4080     0.1700   -13.8710    10.7660     7.4270     8.2470
 2733.0000     0.0580     9.3820    87.6040     2.4090     0.1720   -13.4020    10.0160     7.1970     8.1780
 2733.5000     0.0540     9.3420    86.8680     2.4070     0.1740   -12.9330     9.6130     7.0530     8.1090
 2734.0000     0.0510     9.3050    87.1530     2.4040     0.1760   -12.4650     9.3120     7.0680     8.0410
