~VERSION INFORMATION
 VERS.                2.0:   CWLS LOG ASCII STANDARD - VERSION 2.0
 WRAP.                 NO:   ONE LINE PER DEPTH STEP
~WELL INFORMATION
#MNEM.UNIT      DATA TYPE    INFORMATION
#----------   ------------   ------------------------------
 STRT.F          214.0000:   START DEPTH
 STOP.F         3064.0000:   STOP DEPTH
 STEP.F            0.5000:   STEP LENGTH
 NULL.          -999.2500:   NO VALUE
 COMP.    FENIX & SCISSON:   COMPANY
 WELL.    FENIX "A" #76-3:   WELL
 FLD .                NPR:   FIELD
 LOC .       S3 T38N R78W:   LOCATION
 CNTY.            NATRONA:   COUNTY
 STAT.            WYOMING:   STATE
 CTRY. UNITED STATES OF AMERICA:   COUNTRY
 SRVC.              WELEX:   SERVICE COMPANY
 DATE.        07-AUG-1988:   LOGDATE
 API .     49025104070000:   API NUMBER
~CURVE INFORMATION
#MNEM.UNIT       API CODE    CURVE DESCRIPTION
#----------   ------------   ------------------------------
 DEPT.F                  :   
 NPHI.DEC    42 890 00 00:   NEUTRON POROSITY
 SPR .MV     07 010 01 00:   SPONTANEOUS POTENTIAL
 SGRD.OHMM   07 220 05 00:   SHALLOW GUARD LOG RESISTIVITY
 ILD .OHMM   07 120 46 00:   DEEP INDUCTION RESISTIVITY
 ILM .OHMM   07 120 44 00:   INDUCTION LOG MEDIUM RESISTIVITY
 CALD.IN     45 280 60 00:   CALIPER FROM DENSITY LOG
 GRD .GAPI   45 310 01 00:   GAMMA RAY FROM DENSITY LOG
 CORR.G/C3   45 356 01 00:   DENSITY CORRECTION
 RHOB.G/C3   45 350 01 00:   BULK DENSITY
~PARAMETER INFORMATION
#MNEM.UNIT          VALUE    DESCRIPTION
#----------   ------------   ------------------------------
 EKB .F         5154.0000:   Kelly bushing
 EGL .F         5144.0000:   Ground level
 EDF .F            0.0000:   Drilling floor
 TD  .F         3054.0000:   Total depth
 DATE.        07-AUG-1988:   Date logged
 CLNT.            A2DTECH:   Client Code
 SL  . 1650' FSL & 990' FEL:   Surface Location
 PD  .                 GL:   Permanent Datum
 DD  .F              3054:   Depth driller
 DL  .F              3052:   Depth logger
 BLI .F              3060:   Bottom log interval
 CS1 .IN            8.625:   Casing size
 CBD1.      8.625" @ 210':   Casing driller 1
 CBL1.F               225:   Casing logger 1
 BS1 .IN            7.875:   Bit size
 DFT .            KCL MUD:   Type fluid in hole
 DFD .                9.2:   Density
 DFV .                 37:   Viscosity
 DFPH.                 10:   pH
 DFL .                  8:   Fluid loss
 MSS .           FLOWLINE:   Source of sample
 RMS .OHMM            .29:   Rm
 MST .F                75:   Rm Meas. temp.
 RMF .OHMM            .27:   Rmf
 MFST.F                75:   Rmf Meas. temp.
 RMC .OHMM            .32:   Rmc
 MCST.F                75:   Rmc Meas. temp.
 MFSS.               MEAS:   Source Rmf.
 RMB .OHMM            .19:   Rm. at BHT
 BHT .F               112:   BHT.
 TCS .HRS               5:   Time Circ. stopped
 MRT .F               112:   Maximum recorded temp.
 LUN .               9685:   Logging unit number
 LUL .             CASPER:   Logging unit location
 ENGI.      JOUNER & DOAK:   Recorded By
 WITN.      B. HARRINGTON:   Witnessed by
 ORIG.           5" PRINT:   Origin of data
 UWI .     49025104070000:   Unique Well ID
 DICO. A2D TECHNOLOGIES, INC.:   Digitizing Company
 DAPD.                 10:   Feet Above Permanent Datum
 BSD1.               3054:   Depth drilled with bit1
 MCSS.               MEAS:   Source Rmc.
 EPD .               5144:   Elevation Permanent Datum
 LMF .                 KB:   Log Measured From
 DMF .                 KB:   Drilling Measured From
 TLI .                225:   Top log interval
~OTHER INFORMATION
~A   DEPT     NPHI        SPR       SGRD        ILD        ILM       CALD         GRD       CORR        RHOB 
# ...
 3024.5000     0.2630   -55.1320     6.5610     4.5600     5.7140     7.8920   145.3010     0.0730     2.5340
 3025.0000     0.2580   -55.1320     7.1510     4.5720     5.7370     7.8890   143.9520     0.0780     2.5430
 3025.5000     0.2580   -55.1320     6.8930     4.5840     5.7640     7.8860   142.6050     0.0830     2.5510
 3026.0000     0.2540   -55.1320     7.0170     4.5960     5.8020     7.8830   141.4490     0.0880     2.5560
 3026.5000     0.2520   -55.1320     7.2170     4.6070     5.8430     7.8830   142.7300     0.0910     2.5570
 3027.0000     0.2530   -55.1330     7.2020     4.6160     5.7530     7.8850   144.1760     0.0910     2.5550
 3027.5000     0.2510   -55.1330     7.1750     4.6250     5.6560     7.8860   145.0790     0.0910     2.5530
 3028.0000     0.2530   -55.1290     7.1100     4.6350     5.5580     7.8880   142.2670     0.0910     2.5520
 3028.5000     0.2590   -55.0300     6.8290     4.6440     5.4610     7.8900   143.4720     0.0920     2.5530
 3029.0000     0.2680   -54.9290     6.6200     4.6440     5.3790     7.8910   145.0680     0.0930     2.5540
 3029.5000     0.2840   -54.8290     6.1420     4.6440     5.4100     7.8930   142.5980     0.0940     2.5550
 3030.0000     0.2980   -54.7290     5.8970     4.6440     5.4410     7.8950   140.4640     0.0920     2.5500
 3030.5000     0.2730   -54.6290     6.3110     4.6470     5.4790     7.8960   139.5110     0.0900     2.5440
 3031.0000     0.2810   -54.5390     7.1020     4.6590     5.4490     7.8980   138.4570     0.0870     2.5380
 3031.5000     0.2960   -54.5680     7.4870     4.6720     5.4100     7.8990   140.1480     0.0840     2.5350
 3032.0000     0.2580   -54.5990     6.6450     4.6840     5.3790     7.9010   142.2920     0.0810     2.5300
 3032.5000     0.2560   -54.6290     7.4870     4.6960     5.3620     7.9010   144.5040     0.0780     2.5240
 3033.0000     0.2580   -54.6600     7.2940     4.7090     5.3440     7.9000   146.7330     0.0770     2.5190
 3033.5000     0.2550   -54.6900     6.5840     4.7210     5.3300     7.8990   148.9600     0.0790     2.5180
 3034.0000     0.2530   -54.7210     6.7980     4.7310     5.3600     7.8980   151.1870     0.0810     2.5230
 3034.5000     0.2590   -54.8000     6.3460     4.7060     5.3830     7.8960   153.4150     0.0830     2.5200
 3035.0000     0.2680   -54.9240     6.4480     4.6860     5.4070     7.8950   155.6520     0.0920     2.5180
 3035.5000     0.2830   -55.0480     6.6690     4.6670     5.4290     7.8940   157.3670     0.1020     2.5260
 3036.0000     0.2460   -55.1740     6.8300     4.6470     5.4750     7.8920   156.6560     0.1090     2.5340
 3036.5000     0.2410   -55.3030     6.5840     4.6260     5.5170     7.8910   155.3470     0.1120     2.5390
 3037.0000     0.2430   -55.2730     6.7540     4.6060     5.5600     7.8900   154.1710     0.1150     2.5400
 3037.5000     0.2450   -55.1980     6.9570     4.5850     5.6030     7.8890   148.0820     0.1150     2.5370
 3038.0000     0.2450   -55.1210     6.5840     4.5650     5.6370     7.8870   139.7250     0.1160     2.5360
 3038.5000     0.2590   -55.0440     7.0880     4.5440     5.6520     7.8860   131.0600     0.1170     2.5350
 3039.0000     0.2820   -54.9670     7.3510     4.5240     5.6680     7.8850   124.4480     0.1140     2.5350
 3039.5000     0.2980   -54.8900     6.6620     4.5180     5.6840     7.8840   122.2010     0.1110     2.5320
 3040.0000  -999.2500   -54.8130     5.9510     4.5180     5.5460     7.8820   122.4800     0.1070     2.5300
 3040.5000  -999.2500   -54.7370     6.0490     4.5180     5.3970     7.8810   122.7340     0.1040     2.5300
 3041.0000  -999.2500   -54.7050     6.2300     4.4770     5.2820     7.8800   122.3950     0.1000     2.5300
 3041.5000  -999.2500   -54.6750     6.5000     4.4030     5.2820     7.8780   122.1010     0.0970     2.5300
 3042.0000  -999.2500   -54.6450     6.4260     4.3290     5.2820     7.8770   123.8040     0.0980     2.5350
 3042.5000  -999.2500   -54.6140     6.1620     4.2550     5.2820     7.8760   125.8270     0.1000     2.5410
 3043.0000  -999.2500   -54.5840     5.8430     4.1810     5.2820     7.8750   126.8370     0.1000     2.5410
 3043.5000  -999.2500   -54.5540     5.8910     4.1220     5.2820     7.8730   126.8550     0.0970     2.5400
 3044.0000  -999.2500   -54.5500     6.0060     4.1570     5.2810     7.8720   127.5790     0.0950     2.5390
 3044.5000  -999.2500   -54.5830     5.9380     4.2020     5.3090     7.8710   129.1110     0.0920     2.5340
 3045.0000  -999.2500   -54.6160     5.8530     4.2460     5.3740     7.8690   130.7650     0.0900     2.5270
 3045.5000  -999.2500   -54.6490     5.7370     4.2880     5.4400     7.8680   128.6200     0.0840     2.5200
 3046.0000  -999.2500   -54.6810     5.7890     4.3300     5.5060     7.8670   125.4360     0.0720     2.5130
 3046.5000  -999.2500   -54.7140     5.9090     4.3710     5.6320     7.8660   122.2320     0.0670     2.5070
 3047.0000  -999.2500   -54.7470     6.3070     4.4130     5.7920     7.8640   119.3510     0.0710     2.5160
 3047.5000  -999.2500   -54.7800     7.1510     4.4760     5.9520     7.8630  -999.2500     0.0760     2.5300
 3048.0000  -999.2500   -54.8120     7.0860     4.5640     6.0620     7.8620  -999.2500     0.0820     2.5480
 3048.5000  -999.2500   -54.8460     7.1170     4.6510     6.0620     7.8610  -999.2500     0.0880     2.5520
 3049.0000  -999.2500   -54.8790     7.2170     4.7390     6.0620     7.8590  -999.2500     0.0930     2.5560
 3049.5000  -999.2500   -54.9090     7.0810     4.8600     6.0620     7.8580  -999.2500     0.0990     2.5590
 3050.0000  -999.2500   -54.8580     6.8300     4.8450     6.0620     7.8570  -999.2500     0.1000     2.5610
 3050.5000  -999.2500   -54.5650     6.8930     4.8250     5.8530     7.8550  -999.2500     0.1020     2.5560
 3051.0000  -999.2500   -54.2780     6.7620     4.8060     5.6630     7.8540  -999.2500     0.1000     2.5520
 3051.5000  -999.2500   -53.9910     6.5650     4.7860     5.4650     7.8530  -999.2500     0.0950     2.5480
 3052.0000  -999.2500   -53.7900     6.3530     4.7740     5.2820     7.8520  -999.2500     0.0910     2.5390
 3052.5000  -999.2500   -54.6890     6.0810     4.9520     5.3730     7.8500  -999.2500     0.0870     2.5310
 3053.0000  -999.2500   -54.9440     5.7900     5.1320     5.4910     7.8490  -999.2500     0.0830     2.5290
 3053.5000  -999.2500   -55.1660     5.8370     5.3120     5.6080     7.8480  -999.2500     0.0860     2.5280
 3054.0000  -999.2500   -55.3880     5.9020     5.4140     5.7260     7.8460  -999.2500     0.0900     2.5330
 3054.5000  -999.2500   -55.6130     5.9560     5.5070     5.9740     7.8450  -999.2500     0.0950     2.5370
 3055.0000  -999.2500   -55.5820     5.9770     5.6000     6.3790     7.8440  -999.2500     0.0960     2.5380
 3055.5000  -999.2500   -55.2940     5.9970     5.6930     6.9570     7.8430  -999.2500     0.0970     2.5380
 3056.0000  -999.2500   -55.0080     6.1480     5.7900     6.8870     7.8430  -999.2500     0.0980     2.5400
 3056.5000  -999.2500   -54.7180     6.3940     5.7540     6.6970     7.8430  -999.2500     0.0990     2.5380
 3057.0000  -999.2500   -54.4290     6.6410     5.6880     6.5070     7.8430  -999.2500     0.0990     2.5350
 3057.5000  -999.2500   -54.1490     6.7680     5.6220     6.3170     7.8430  -999.2500     0.0970     2.5300
 3058.0000  -999.2500   -54.1210     6.7380     5.5560     6.1740     7.8430  -999.2500     0.0910     2.5240
 3058.5000  -999.2500   -54.8350     6.6170     5.4900     6.1450     7.8430  -999.2500     0.0850     2.5170
 3059.0000  -999.2500   -55.5370     6.4970     5.4240     6.0620     7.8430  -999.2500     0.0790     2.5140
 3059.5000  -999.2500   -56.0400     6.3760     5.3580     5.9780     7.8430  -999.2500     0.0780     2.5140
 3060.0000  -999.2500   -56.4950     6.2780     5.2920     5.8700     7.8430  -999.2500     0.0770     2.5160
 3060.5000  -999.2500   -56.6960     6.1860     5.2090     5.7620  -999.2500  -999.2500     0.0760     2.5180
