~VERSION INFORMATION
 VERS.                2.0:   CWLS LOG ASCII STANDARD - VERSION 2.0
 WRAP.                 NO:   ONE LINE PER DEPTH STEP
~WELL INFORMATION
#MNEM.UNIT      DATA TYPE    INFORMATION
#----------   ------------   ------------------------------
 STRT.F          214.0000:   START DEPTH
 STOP.F         3064.0000:   STOP DEPTH
 STEP.F            0.5000:   STEP LENGTH
 NULL.          -999.2500:   NO VALUE
 COMP.    FENIX & SCISSON:   COMPANY
 WELL.    FENIX "A" #76-3:   WELL
 FLD .                NPR:   FIELD
 LOC .       S3 T38N R78W:   LOCATION
 CNTY.            NATRONA:   COUNTY
 STAT.            WYOMING:   STATE
 CTRY. UNITED STATES OF AMERICA:   COUNTRY
 SRVC.              WELEX:   SERVICE COMPANY
 DATE.        07-AUG-1988:   LOGDATE
 API .     49025104070000:   API NUMBER
~CURVE INFORMATION
#MNEM.UNIT       API CODE    CURVE DESCRIPTION
#----------   ------------   ------------------------------
 DEPT.F                  :   
 NPHI.DEC    42 890 00 00:   NEUTRON POROSITY
 SPR .MV     07 010 01 00:   SPONTANEOUS POTENTIAL
 SGRD.OHMM   07 220 05 00:   SHALLOW GUARD LOG RESISTIVITY
 ILD .OHMM   07 120 46 00:   DEEP INDUCTION RESISTIVITY
 ILM .OHMM   07 120 44 00:   INDUCTION LOG MEDIUM RESISTIVITY
 CALD.IN     45 280 60 00:   CALIPER FROM DENSITY LOG
 GRD .GAPI   45 310 01 00:   GAMMA RAY FROM DENSITY LOG
 CORR.G/C3   45 356 01 00:   DENSITY CORRECTION
 RHOB.G/C3   45 350 01 00:   BULK DENSITY
~PARAMETER INFORMATION
#MNEM.UNIT          VALUE    DESCRIPTION
#----------   ------------   ------------------------------
 EKB .F         5154.0000:   Kelly bushing
 EGL .F         5144.0000:   Ground level
 EDF .F            0.0000:   Drilling floor
 TD  .F         3054.0000:   Total depth
 DATE.        07-AUG-1988:   Date logged
 CLNT.            A2DTECH:   Client Code
 SL  . 1650' FSL & 990' FEL:   Surface Location
 PD  .                 GL:   Permanent Datum
 DD  .F              3054:   Depth driller
 DL  .F              3052:   Depth logger
 BLI .F              3060:   Bottom log interval
 CS1 .IN            8.625:   Casing size
 CBD1.      8.625" @ 210':   Casing driller 1
 CBL1.F               225:   Casing logger 1
 BS1 .IN            7.875:   Bit size
 DFT .            KCL MUD:   Type fluid in hole
 DFD .                9.2:   Density
 DFV .                 37:   Viscosity
 DFPH.                 10:   pH
 DFL .                  8:   Fluid loss
 MSS .           FLOWLINE:   Source of sample
 RMS .OHMM            .29:   Rm
 MST .F                75:   Rm Meas. temp.
 RMF .OHMM            .27:   Rmf
 MFST.F                75:   Rmf Meas. temp.
 RMC .OHMM            .32:   Rmc
 MCST.F                75:   Rmc Meas. temp.
 MFSS.               MEAS:   Source Rmf.
 RMB .OHMM            .19:   Rm. at BHT
 BHT .F               112:   BHT.
 TCS .HRS               5:   Time Circ. stopped
 MRT .F               112:   Maximum recorded temp.
 LUN .               9685:   Logging unit number
 LUL .             CASPER:   Logging unit location
 ENGI.      JOUNER & DOAK:   Recorded By
 WITN.      B. HARRINGTON:   Witnessed by
 ORIG.           5" PRINT:   Origin of data
 UWI .     49025104070000:   Unique Well ID
 DICO. A2D TECHNOLOGIES, INC.:   Digitizing Company
 DAPD.                 10:   Feet Above Permanent Datum
 BSD1.               3054:   Depth drilled with bit1
 MCSS.               MEAS:   Source Rmc.
 EPD .               5144:   Elevation Permanent Datum
 LMF .                 KB:   Log Measured From
 DMF .                 KB:   Drilling Measured From
 TLI .                225:   Top log interval
~OTHER INFORMATION
~A   DEPT     NPHI        SPR       SGRD        ILD        ILM       CALD         GRD       CORR        RHOB 
# ...
 2659.5000     0.2490   -46.9530     3.3070     3.0440     4.2370     8.4040   134.1090     0.0750     2.4820
 2660.0000     0.2380   -45.7810     4.9760     3.2310     5.2880     8.3960   125.0780     0.0760     2.5030
 2660.5000     0.2210   -44.6080    12.1240     3.6730     6.3150     8.3880   116.8920     0.0780     2.5270
 2661.0000     0.2060   -43.4310    20.8530     4.1150     7.3410     8.3800   113.3810     0.0760     2.5300
 2661.5000     0.2000   -42.2440    24.2540     4.7250     8.3590     8.3720   113.0010     0.0740     2.5260
 2662.0000     0.1980   -41.4700    22.2970     5.3740     9.3440     8.3640   113.7440     0.0720     2.5180
 2662.5000     0.2000   -40.7000    21.4590     6.6480    10.3210     8.3590   114.4820     0.0690     2.5100
 2663.0000     0.2000   -39.9270    21.3500     8.3350    11.0120     8.3640   115.2380     0.0670     2.5030
 2663.5000     0.2020   -39.1530    21.0410    10.0220    11.2680     8.3680   114.2060     0.0650     2.4950
 2664.0000     0.2020   -38.3790    20.6330    11.7090    11.5280     8.3730   113.1290     0.0710     2.4930
 2664.5000     0.2030   -37.6040    20.0230    12.8070    11.6040     8.3780   112.2320     0.0760     2.4990
 2665.0000     0.2050   -36.8290    19.2790    13.3520    11.7010     8.3820   113.1250     0.0820     2.5040
 2665.5000     0.2070   -35.9870    19.6770    13.2500    11.7420     8.3870   113.5120     0.0880     2.5090
 2666.0000     0.2110   -35.0830    20.3670    13.1060    11.7420     8.3910   112.4670     0.0930     2.5130
 2666.5000     0.2200   -34.1800    21.1330    12.9450    11.6770     8.3960   111.4270     0.0990     2.5170
 2667.0000     0.2150   -33.2740    19.7200    12.7850    11.5040     8.4000   111.5800     0.1030     2.5150
 2667.5000     0.2190   -32.3470    17.8800    12.6240    11.3310     8.4050   111.8680     0.1040     2.5120
 2668.0000     0.2240   -31.7130    17.4710    12.4320    11.1570     8.4100   112.1650     0.0990     2.5060
 2668.5000     0.2240   -31.1580    16.6920    12.1810    11.0110     8.4140   111.9340     0.0930     2.4960
 2669.0000     0.2290   -30.6110    15.9390    11.9310    11.1780     8.4190   111.4350     0.0890     2.4860
 2669.5000     0.2390   -30.1010    15.2700    11.6810    11.3300     8.4230   110.9170     0.0880     2.4800
 2670.0000     0.2360   -29.9360    13.9800    11.4310    11.4840     8.4280   110.3210     0.0870     2.4770
 2670.5000     0.2360   -29.7850    14.4830    11.2100    11.6390     8.4320   111.4410     0.0870     2.4760
 2671.0000     0.2350   -29.6340    16.2700    11.1780    11.7420     8.4370   112.6070     0.0840     2.4780
 2671.5000     0.2360   -29.4820    17.1090    11.1460    11.6820     8.4420   113.7560     0.0810     2.4810
 2672.0000     0.2350   -29.3300    16.7980    11.1120    11.6340     8.4460   114.5500     0.0780     2.4830
 2672.5000     0.2390   -29.1770    17.5870    11.2120    11.8120     8.4510   113.9220     0.0750     2.4770
 2673.0000     0.2380   -29.0270    17.4690    11.3200    12.0060     8.4550   113.3400     0.0730     2.4710
 2673.5000     0.2390   -28.8960    17.1820    11.4280    12.1990     8.4600   112.7750     0.0730     2.4770
 2674.0000     0.2400   -28.8590    16.4280    11.5360    12.4510     8.4650   112.2200     0.0730     2.4730
 2674.5000     0.2360   -28.8200    15.7520    11.6440    12.7610     8.4690   112.2930     0.0730     2.4710
 2675.0000     0.2350   -28.7800    16.1920    11.7520    13.0710     8.4740   112.3570     0.0730     2.4770
 2675.5000     0.2370   -28.7410    18.2890    11.8500    13.3810     8.4770   112.4290     0.0770     2.4830
 2676.0000     0.2380   -28.7150    19.8170    11.9490    13.6000     8.4790   112.5100     0.0810     2.4860
 2676.5000     0.2360   -28.7570    19.9850    12.0590    13.2870     8.4810   112.5520     0.0850     2.4900
 2677.0000     0.2350   -28.7990    20.7480    12.1690    13.0450     8.4830   110.2370     0.0890     2.4930
 2677.5000     0.2360   -28.8400    20.0940    12.2800    12.8540     8.4850   107.3800     0.0890     2.4960
 2678.0000     0.2340   -28.8800    18.7360    12.3040    12.7960     8.4870   109.1030     0.0890     2.4920
 2678.5000     0.2370   -28.8500    17.5730    12.3200    12.7530     8.4890   108.3020     0.0890     2.4840
 2679.0000     0.2410   -28.6820    16.9270    12.3350    12.9430     8.4910   106.7200     0.0890     2.4750
 2679.5000     0.2460   -28.5150    16.2800    12.3510    13.0920     8.4930   105.0830     0.0890     2.4780
 2680.0000     0.2440   -28.4680    16.0440    12.3670    13.2410     8.4950   104.9860     0.0930     2.4850
 2680.5000     0.2450   -28.4260    16.5650    12.3820    13.3520     8.4970   106.8080     0.0970     2.4890
 2681.0000     0.2460   -28.3840    17.0570    12.4060    13.1630     8.4990   107.8040     0.1010     2.4860
 2681.5000     0.2490   -28.3400    17.4260    12.3990    12.9890     8.5010   107.0170     0.1000     2.4820
 2682.0000     0.2480   -28.2830    16.5420    12.3820    13.0230     8.5030   107.0210     0.0990     2.4790
 2682.5000     0.2470   -28.1810    15.4660    12.3650    13.0630     8.5050   108.6240     0.0980     2.4760
 2683.0000     0.2510   -28.0820    15.9990    12.3480    13.1090     8.5070   110.1310     0.0970     2.4730
 2683.5000     0.2530   -27.9830    17.2180    12.3300    13.0000     8.5090   110.0270     0.0980     2.4730
 2684.0000     0.2570   -27.8840    18.0780    12.3130    12.8690     8.5110   109.8210     0.1020     2.4790
 2684.5000     0.2590   -27.7880    18.0780    12.2960    12.7380     8.5130   110.5500     0.1060     2.4850
 2685.0000     0.2530   -27.7660    16.4920    12.2170    12.5860     8.5150   111.3890     0.1010     2.4890
 2685.5000     0.2490   -27.9790    14.2390    12.1250    12.3590     8.5170   112.2310     0.0940     2.4770
 2686.0000     0.2540   -28.1850    14.6180    12.0330    12.1810     8.5190   112.9130     0.0860     2.4650
 2686.5000     0.2500   -28.3900    15.8820    11.9410    12.9600     8.5210   111.7880     0.0800     2.4660
 2687.0000     0.2490   -28.5950    15.7740    11.8500    13.6020     8.5230   111.2360     0.0780     2.4700
 2687.5000     0.2480   -28.8320    16.3340    11.8650    14.2450     8.5250   112.3120     0.0750     2.4740
 2688.0000     0.2490   -29.1070    17.2990    11.8790    14.5030     8.5270   111.7850     0.0640     2.4680
 2688.5000     0.2400   -29.3810    18.2450    11.8940    13.8150     8.5290   111.3060     0.0600     2.4700
 2689.0000     0.2440   -29.6560    18.4140    11.9090    12.9890     8.5310   113.3540     0.0670     2.4780
 2689.5000     0.2430   -29.9300    17.5110    11.9230    13.0840     8.5330   113.1640     0.0740     2.4870
 2690.0000     0.2430   -30.2050    16.3420    11.9380    13.3280     8.5350   111.9990     0.0810     2.4950
 2690.5000     0.2440   -30.4780    17.3230    11.9590    13.5720     8.5360   112.5300     0.0820     2.4960
 2691.0000     0.2430   -30.7360    18.3240    11.9180    13.7030     8.5350   114.7520     0.0800     2.4950
 2691.5000     0.2440   -30.9060    18.9280    11.8450    13.4740     8.5340   117.9850     0.0790     2.4930
 2692.0000     0.2460   -31.0800    18.0840    11.7730    13.2900     8.5330   116.8050     0.0780     2.4910
 2692.5000     0.2410   -31.2540    17.9130    11.7010    13.1070     8.5320   114.8450     0.0760     2.4830
 2693.0000     0.2420   -31.3980    17.8120    11.6290    12.9370     8.5320   113.6310     0.0730     2.4750
 2693.5000     0.2400   -31.5320    17.1690    11.5560    12.7900     8.5310   112.3780     0.0690     2.4660
 2694.0000     0.2370   -31.6670    16.4920    11.4840    12.6630     8.5300   111.5330     0.0670     2.4640
 2694.5000     0.2360   -31.8010    16.6530    11.4170    12.5420     8.5290   112.7200     0.0720     2.4740
 2695.0000     0.2370   -31.9140    16.7980    11.3790    12.4210     8.5280   113.5910     0.0760     2.4830
 2695.5000     0.2400   -31.9830    16.3770    11.3400    12.2930     8.5270   112.7760     0.0810     2.4910
