~VERSION INFORMATION
 VERS.                2.0:   CWLS LOG ASCII STANDARD - VERSION 2.0
 WRAP.                 NO:   ONE LINE PER DEPTH STEP
~WELL INFORMATION
#MNEM.UNIT      DATA TYPE    INFORMATION
#----------   ------------   ------------------------------
 STRT.F          216.0000:   START DEPTH
 STOP.F         3350.0000:   STOP DEPTH
 STEP.F            0.5000:   STEP LENGTH
 NULL.          -999.2500:   NO VALUE
 COMP.    FENIX & SCISSON:   COMPANY
 WELL. FENIX 52 "AX" #3-15:   WELL
 FLD .              N P R:   FIELD
 LOC .      S15 T38N R78W:   LOCATION
 CNTY.            NATRONA:   COUNTY
 STAT.            WYOMING:   STATE
 CTRY. UNITED STATES OF AMERICA:   COUNTRY
 SRVC.              WELEX:   SERVICE COMPANY
 DATE.        13-AUG-1977:   LOGDATE
 API .     49025104110000:   API NUMBER
~CURVE INFORMATION
#MNEM.UNIT       API CODE    CURVE DESCRIPTION
#----------   ------------   ------------------------------
 DEPT.F                  :   
 CORR.G/C3   45 356 01 00:   DENSITY CORRECTION
 CALD.IN     45 280 60 00:   CALIPER FROM DENSITY LOG
 GRD .GAPI   45 310 01 00:   GAMMA RAY FROM DENSITY LOG
 RHOB.G/C3   45 350 01 00:   BULK DENSITY
 NPHI.DEC    42 890 03 00:   NEUTRON POROSITY SANDSTONE
 SPR .MV     07 010 01 00:   SPONTANEOUS POTENTIAL
 SGRD.OHMM   07 220 05 00:   SHALLOW SHORT GUARD RESISTIVITY
 ILD .OHMM   07 120 46 00:   DEEP INDUCTION RESISTIVITY
 ILM .OHMM   07 120 44 00:   INDUCTION LOG MEDIUM RESISTIVITY
~PARAMETER INFORMATION
#MNEM.UNIT          VALUE    DESCRIPTION
#----------   ------------   ------------------------------
 EKB .F         5241.0000:   Kelly bushing
 EGL .F         5231.0000:   Ground level
 TD  .F         3352.0000:   Total depth
 DATE.        13-AUG-1977:   Date logged
 CLNT.            A2DTECH:   Client Code
 SL  . 940' FNL & 2310' FEL:   Surface Location
 PD  .                 GL:   Permanent Datum
 DD  .F              3350:   Depth driller
 DL  .F              3352:   Depth logger
 BLI .F              3350:   Bottom log interval
 CS1 .IN            8.625:   Casing size
 CBD1.      8.625" @ 227':   Casing driller 1
 CBL1.F               228:   Casing logger 1
 BS1 .IN            7.875:   Bit size
 DFT .          KCL WATER:   Type fluid in hole
 DFD .                8.9:   Density
 DFV .                 41:   Viscosity
 DFPH.                 11:   pH
 DFL .               17.2:   Fluid loss
 MSS .            MUD PIT:   Source of sample
 RMS .OHMM           .172:   Rm
 MST .F                74:   Rm Meas. temp.
 RMF .OHMM           .203:   Rmf
 MFST.F                74:   Rmf Meas. temp.
 RMC .OHMM           .220:   Rmc
 MCST.F                74:   Rmc Meas. temp.
 MFSS.               MEAS:   Source Rmf.
 RMB .OHMM           .105:   Rm. at BHT
 BHT .F               121:   BHT.
 TCS .HRS               4:   Time Circ. stopped
 MRT .F               121:   Maximum recorded temp.
 LUN .               9685:   Logging unit number
 LUL .             CASPER:   Logging unit location
 ENGI.             JOYNER:   Recorded By
 WITN.         PETTINGILL:   Witnessed by
 ORIG.           5" PRINT:   Origin of data
 UWI .     49025104110000:   Unique Well ID
 DICO. A2D TECHNOLOGIES, INC.:   Digitizing Company
 DAPD.F                10:   Feet Above Permanent Datum
 BSD1.F              3350:   Depth drilled with bit1
 EPD .F              5231:   Elevation Permanent Datum
 LMF .                 KB:   Log Measured From
 DMF .                 KB:   Drilling Measured From
 TLI .F               228:   Top log interval
~OTHER INFORMATION
~A   DEPT       CORR       CALD      GRD         RHOB       NPHI      SPR       SGRD        ILD        ILM   
# ...
 2917.0000     0.0280     8.7560   148.0280     2.5340     0.3100   -65.7680     8.1500     5.2370     7.1510
 2917.5000     0.0230     8.7510   148.8880     2.5280     0.3190   -65.7630     8.1120     5.2630     7.1670
 2918.0000     0.0180     8.7450   149.7510     2.5220     0.3110   -65.7630     8.0740     5.2890     7.1840
 2918.5000     0.0160     8.7390   150.4250     2.5150     0.3090   -65.7630     8.0370     5.3160     7.1800
 2919.0000     0.0190     8.7340   149.1040     2.5130     0.3090   -65.7630     7.9990     5.3420     7.1740
 2919.5000     0.0210     8.7280   147.8740     2.5170     0.3080   -65.7630     7.9610     5.3690     7.1690
 2920.0000     0.0240     8.7230   148.6400     2.5200     0.3090   -65.7630     7.9230     5.3950     7.1630
 2920.5000     0.0270     8.7170   150.6910     2.5190     0.3070   -65.7630     7.8860     5.4220     7.1580
 2921.0000     0.0290     8.7120   151.1060     2.5190     0.3040   -65.7630     8.0000     5.4480     7.1530
 2921.5000     0.0320     8.7060   150.4480     2.5220     0.3010   -65.7630     8.1340     5.4750     7.1470
 2922.0000     0.0340     8.7000   152.9900     2.5250     0.2990   -65.7630     8.1850     5.5010     7.1420
 2922.5000     0.0310     8.6950   154.7920     2.5280     0.2990   -65.7630     8.1970     5.5280     7.1360
 2923.0000     0.0290     8.6890   153.0930     2.5220     0.2990   -65.7630     8.2090     5.5550     7.1310
 2923.5000     0.0270     8.6840   151.4750     2.5160     0.3050   -65.7630     8.2210     5.5810     7.1250
 2924.0000     0.0250     8.6780   150.0740     2.5100     0.3020   -65.7630     8.2330     5.6080     7.1200
 2924.5000     0.0220     8.6720   149.9130     2.5050     0.3050   -65.7630     8.2450     5.6340     7.1180
 2925.0000     0.0200     8.6670   151.2210     2.5040     0.3090   -65.7630     8.2570     5.6610     7.1180
 2925.5000     0.0180     8.6610   152.7120     2.5030     0.3090   -65.7630     8.2690     5.6870     7.1730
 2926.0000     0.0190     8.6560   154.2010     2.5030     0.3120   -65.7630     8.2810     5.7140     7.2280
 2926.5000     0.0130     8.6500   155.4900     2.5010     0.3100   -65.7630     8.2930     5.7400     7.2830
 2927.0000     0.0120     8.6450   155.4950     2.4970     0.3110   -65.7630     8.3050     5.7670     7.3180
 2927.5000     0.0100     8.6390   155.4420     2.4920     0.3130   -65.7630     8.3170     5.7930     7.2700
 2928.0000     0.0100     8.6330   157.4180     2.4880     0.3130   -65.7630     8.3310     5.8200     7.2190
 2928.5000     0.0100     8.6280   159.5340     2.4830     0.3090   -65.7630     8.2760     5.8590     7.1680
 2929.0000     0.0110     8.6220   158.9620     2.4800     0.3060   -65.7630     8.2000     5.8210     7.1180
 2929.5000     0.0140     8.6170   158.4240     2.4820     0.3080   -65.7630     8.1240     5.7480     7.0670
 2930.0000     0.0170     8.6110   157.8950     2.4850     0.3100   -65.7630     8.0480     5.6760     7.0160
 2930.5000     0.0200     8.6050   157.4640     2.4890     0.3080   -65.7620     7.9720     5.6030     6.9650
 2931.0000     0.0220     8.6000   156.6440     2.4920     0.3110   -65.7620     7.8960     5.5300     6.9140
 2931.5000     0.0210     8.5940   154.7140     2.4930     0.3090   -65.6550     7.8200     5.4580     6.8630
 2932.0000     0.0200     8.5890   152.7920     2.4930     0.3090   -65.4290     7.7440     5.3850     6.8120
 2932.5000     0.0220     8.5830   150.8750     2.4980     0.3110   -65.2040     7.6680     5.3120     6.7610
 2933.0000     0.0250     8.5780   149.3090     2.5030     0.3080   -64.9770     7.5920     5.2400     6.7100
 2933.5000     0.0260     8.5720   148.7120     2.5060     0.3030   -64.7760     7.5160     5.1670     6.6710
 2934.0000     0.0230     8.5660   148.1010     2.5030     0.2990   -65.0230     7.4400     5.0520     6.7640
 2934.5000     0.0200     8.5650   147.4880     2.4990     0.2970   -65.2820     7.3640     5.0650     6.8410
 2935.0000     0.0160     8.5660   146.8760     2.4950     0.2970   -65.5400     7.3180     5.0990     6.9170
 2935.5000     0.0120     8.5810   146.2630     2.4910     0.2970   -65.7960     7.3180     5.1320     6.9930
 2936.0000     0.0100     8.5870   145.6440     2.4870     0.2930   -66.0550     7.5370     5.1650     7.0690
 2936.5000     0.0100     8.6000   145.7280     2.4830     0.2960   -66.1330     7.7580     5.1980     7.1450
 2937.0000     0.0130     8.6120   146.3370     2.4790     0.2940   -66.0840     7.9790     5.2310     7.2210
 2937.5000     0.0190     8.6250   147.0810     2.4830     0.2920   -66.0350     8.2550     5.2640     7.2980
 2938.0000     0.0240     8.6370   146.3440     2.4920     0.2930   -65.9850     8.2440     5.2970     7.3740
 2938.5000     0.0300     8.6500   143.9600     2.5010     0.2940   -65.9340     8.2290     5.3310     7.4550
 2939.0000     0.0350     8.6630   144.0120     2.5110     0.2950   -65.8840     8.2150     5.3640     7.4300
 2939.5000     0.0410     8.6750   144.1560     2.5120     0.2960   -65.8340     8.2000     5.3970     7.4030
 2940.0000     0.0360     8.6880   144.2930     2.5110     0.2970   -65.7830     8.1850     5.4300     7.3760
 2940.5000     0.0270     8.7000   144.4280     2.5040     0.2980   -65.7330     8.1710     5.4630     7.3490
 2941.0000     0.0170     8.7130   144.5630     2.4970     0.2990   -65.6830     8.1560     5.4960     7.3220
 2941.5000     0.0080     8.7260   144.6800     2.4900     0.3030   -65.6320     8.1410     5.5290     7.2950
 2942.0000     0.0090     8.7380   145.3960     2.4830     0.3000   -65.5820     8.1260     5.5620     7.2680
 2942.5000     0.0110     8.7510   146.3630     2.4850     0.3010   -65.5320     8.1040     5.5940     7.2420
 2943.0000     0.0120     8.7640   147.3370     2.4900     0.3030   -65.4820     8.1790     5.5940     7.2150
 2943.5000     0.0140     8.7760   148.3090     2.4940     0.3050   -65.4310     8.2550     5.5940     7.1880
 2944.0000     0.0160     8.7890   149.2730     2.4990     0.3070   -65.3810     8.2550     5.5940     7.1610
 2944.5000     0.0190     8.8010   149.6150     2.5020     0.3060   -65.3620     8.2550     5.5940     7.1340
 2945.0000     0.0180     8.8140   148.7640     2.5030     0.3030   -65.3620     8.2550     5.5940     7.1180
 2945.5000     0.0120     8.8270   147.9420     2.5040     0.3040   -65.3620     8.2550     5.5940     7.1180
 2946.0000     0.0150     8.8390   147.0930     2.5090     0.3060   -65.3610     8.2550     5.5940     7.1580
 2946.5000     0.0200     8.8520   146.3210     2.5170     0.3000   -65.3610     8.1040     5.5940     7.1840
 2947.0000     0.0250     8.8650   146.4440     2.5260     0.2990   -65.3610     8.2550     5.5840     7.1900
 2947.5000     0.0300     8.8770   146.7560     2.5340     0.2960   -65.3610     8.1330     5.5570     7.1960
 2948.0000     0.0330     8.8840   147.0720     2.5390     0.2910   -65.3610     8.0010     5.5310     7.2030
 2948.5000     0.0280     8.8840   147.3890     2.5330     0.2860   -65.3610     7.8700     5.5040     7.2090
 2949.0000     0.0230     8.8840   147.7050     2.5280     0.2840   -65.3610     7.7380     5.4770     7.2160
 2949.5000     0.0180     8.8840   148.0210     2.5220     0.2800   -65.3610     7.5950     5.4500     7.2220
 2950.0000     0.0140     8.8910   148.3370     2.5160     0.2780   -65.3610     7.5950     5.4240     7.2280
 2950.5000     0.0190     8.8990   148.6540     2.5150     0.2770   -65.3610     7.6780     5.3970     7.2350
 2951.0000     0.0230     8.9080   148.9710     2.5140     0.2790   -65.3610     7.7220     5.3700     7.2410
 2951.5000     0.0280     8.9160   149.2770     2.5140     0.2780   -65.3620     7.7650     5.3410     7.2490
 2952.0000     0.0250     8.9240   149.2630     2.5150     0.2810   -65.3620     7.8080     5.3930     7.2790
 2952.5000     0.0250     8.9320   148.3740     2.5180     0.2770   -65.3550     7.8520     5.4520     7.3720
 2953.0000     0.0260     8.9400   147.5140     2.5200     0.2710   -65.3380     7.8950     5.5100     7.4650
