~VERSION INFORMATION
 VERS.                2.0:   CWLS LOG ASCII STANDARD - VERSION 2.0
 WRAP.                 NO:   ONE LINE PER DEPTH STEP
~WELL INFORMATION
#MNEM.UNIT      DATA TYPE    INFORMATION
#----------   ------------   ------------------------------
 STRT.F          216.0000:   START DEPTH
 STOP.F         3350.0000:   STOP DEPTH
 STEP.F            0.5000:   STEP LENGTH
 NULL.          -999.2500:   NO VALUE
 COMP.    FENIX & SCISSON:   COMPANY
 WELL. FENIX 52 "AX" #3-15:   WELL
 FLD .              N P R:   FIELD
 LOC .      S15 T38N R78W:   LOCATION
 CNTY.            NATRONA:   COUNTY
 STAT.            WYOMING:   STATE
 CTRY. UNITED STATES OF AMERICA:   COUNTRY
 SRVC.              WELEX:   SERVICE COMPANY
 DATE.        13-AUG-1977:   LOGDATE
 API .     49025104110000:   API NUMBER
~CURVE INFORMATION
#MNEM.UNIT       API CODE    CURVE DESCRIPTION
#----------   ------------   ------------------------------
 DEPT.F                  :   
 CORR.G/C3   45 356 01 00:   DENSITY CORRECTION
 CALD.IN     45 280 60 00:   CALIPER FROM DENSITY LOG
 GRD .GAPI   45 310 01 00:   GAMMA RAY FROM DENSITY LOG
 RHOB.G/C3   45 350 01 00:   BULK DENSITY
 NPHI.DEC    42 890 03 00:   NEUTRON POROSITY SANDSTONE
 SPR .MV     07 010 01 00:   SPONTANEOUS POTENTIAL
 SGRD.OHMM   07 220 05 00:   SHALLOW SHORT GUARD RESISTIVITY
 ILD .OHMM   07 120 46 00:   DEEP INDUCTION RESISTIVITY
 ILM .OHMM   07 120 44 00:   INDUCTION LOG MEDIUM RESISTIVITY
~PARAMETER INFORMATION
#MNEM.UNIT          VALUE    DESCRIPTION
#----------   ------------   ------------------------------
 EKB .F         5241.0000:   Kelly bushing
 EGL .F         5231.0000:   Ground level
 TD  .F         3352.0000:   Total depth
 DATE.        13-AUG-1977:   Date logged
 CLNT.            A2DTECH:   Client Code
 SL  . 940' FNL & 2310' FEL:   Surface Location
 PD  .                 GL:   Permanent Datum
 DD  .F              3350:   Depth driller
 DL  .F              3352:   Depth logger
 BLI .F              3350:   Bottom log interval
 CS1 .IN            8.625:   Casing size
 CBD1.      8.625" @ 227':   Casing driller 1
 CBL1.F               228:   Casing logger 1
 BS1 .IN            7.875:   Bit size
 DFT .          KCL WATER:   Type fluid in hole
 DFD .                8.9:   Density
 DFV .                 41:   Viscosity
 DFPH.                 11:   pH
 DFL .               17.2:   Fluid loss
 MSS .            MUD PIT:   Source of sample
 RMS .OHMM           .172:   Rm
 MST .F                74:   Rm Meas. temp.
 RMF .OHMM           .203:   Rmf
 MFST.F                74:   Rmf Meas. temp.
 RMC .OHMM           .220:   Rmc
 MCST.F                74:   Rmc Meas. temp.
 MFSS.               MEAS:   Source Rmf.
 RMB .OHMM           .105:   Rm. at BHT
 BHT .F               121:   BHT.
 TCS .HRS               4:   Time Circ. stopped
 MRT .F               121:   Maximum recorded temp.
 LUN .               9685:   Logging unit number
 LUL .             CASPER:   Logging unit location
 ENGI.             JOYNER:   Recorded By
 WITN.         PETTINGILL:   Witnessed by
 ORIG.           5" PRINT:   Origin of data
 UWI .     49025104110000:   Unique Well ID
 DICO. A2D TECHNOLOGIES, INC.:   Digitizing Company
 DAPD.F                10:   Feet Above Permanent Datum
 BSD1.F              3350:   Depth drilled with bit1
 EPD .F              5231:   Elevation Permanent Datum
 LMF .                 KB:   Log Measured From
 DMF .                 KB:   Drilling Measured From
 TLI .F               228:   Top log interval
~OTHER INFORMATION
~A   DEPT       CORR       CALD      GRD         RHOB       NPHI      SPR       SGRD        ILD        ILM   
# ...
 2296.5000    -0.0040     8.9290   143.5340     2.4540     0.3610   -60.6840     7.1840     6.4690     6.8010
 2297.0000    -0.0060     8.9300   142.8310     2.4540     0.3620   -60.8980     7.0170     6.2750     6.6050
 2297.5000    -0.0050     8.9310   142.1020     2.4510     0.3660   -61.1150     6.8410     6.0820     6.4090
 2298.0000    -0.0020     8.9320   141.0870     2.4490     0.3670   -61.3350     6.4880     5.8890     6.2130
 2298.5000     0.0020     8.9340   139.4010     2.4490     0.3650   -61.3420     6.8380     5.6960     6.0800
 2299.0000     0.0050     8.9350   137.7250     2.4500     0.3690   -61.1170     7.1810     5.5020     6.6170
 2299.5000     0.0090     8.9360   135.9900     2.4510     0.3720   -60.9340     7.7230     5.2910     7.0220
 2300.0000     0.0110     8.9370   136.1650     2.4520     0.3730   -60.8800     8.2650     5.1260     7.3860
 2300.5000    -0.0010     8.9390   137.3880     2.4530     0.3670   -60.8220     8.6470     4.9440     7.2030
 2301.0000     0.0000     8.9400   138.6270     2.4540     0.3610   -60.7640     7.8740     4.7790     7.0520
 2301.5000     0.0030     8.9410   139.8630     2.4550     0.3600   -60.7060     7.1680     4.8720     6.5240
 2302.0000     0.0060     8.9420   140.7370     2.4550     0.3560   -60.6480     6.4610     4.9570     6.0390
 2302.5000     0.0090     8.9440   140.7210     2.4530     0.3460   -60.5900     5.8050     5.0430     5.5550
 2303.0000     0.0080     8.9440   140.6060     2.4500     0.3360   -60.5320     6.9030     5.1280     6.4050
 2303.5000     0.0060     8.9400   140.4540     2.4460     0.3280   -60.4740     8.4880     5.2140     8.0290
 2304.0000     0.0030     8.9370   140.2990     2.4420     0.2990   -60.4160     8.3600     5.2990     7.9850
 2304.5000     0.0060     8.9330   140.1450     2.4430     0.2900   -60.3580     8.0790     5.3840     7.8880
 2305.0000     0.0100     8.9300   139.9910     2.4440     0.2710   -60.3000     7.8090     5.4700     7.7370
 2305.5000     0.0150     8.9260   139.8380     2.4460     0.2610   -60.2420     8.1790     5.5550     7.8690
 2306.0000     0.0200     8.9240   139.6800     2.4480     0.2590   -60.1840     8.6200     5.6410     8.1730
 2306.5000     0.0240     8.9240   139.5180     2.4500     0.2590   -60.1260     9.0620     5.7260     8.4100
 2307.0000     0.0290     8.9260   139.2480     2.4520     0.2580   -60.0680     9.1950     5.8120     7.9200
 2307.5000     0.0340     8.9320   138.6310     2.4420     0.2600   -60.0100     9.2600     5.9140     7.5250
 2308.0000     0.0310     8.9380   137.9270     2.4220     0.2640   -59.9520     9.3120     5.7670     8.0370
 2308.5000     0.0270     8.9430   136.7080     2.4030     0.2670   -59.8940     9.3120     5.5850     8.6470
 2309.0000     0.0230     8.9490   135.5220     2.3830     0.2710   -59.8360     9.3120     5.4040     8.0060
 2309.5000     0.0240     8.9550   134.3330     2.3640     0.2720   -59.7780     9.3120     5.2220     6.6710
 2310.0000     0.0250     8.9610   133.1700     2.3440     0.2700   -59.7200     9.3120     5.1460     7.1110
 2310.5000     0.0280     8.9670   133.1260     2.3250     0.2680   -59.6620     9.3120     5.4500     7.8670
 2311.0000     0.0300     8.9720   133.1310     2.3090     0.2670   -59.6040     9.3120     5.7590     8.6470
 2311.5000     0.0240     8.9780   133.1240     2.3110     0.2650   -59.5460     9.2200     6.0800     8.2610
 2312.0000     0.0180     8.9840   133.1370     2.3470     0.2580   -59.4880     8.6580     5.7980     7.8630
 2312.5000     0.0270     8.9900   132.9440     2.3830     0.2540   -59.4300     8.0960     5.5050     7.4640
 2313.0000     0.0350     8.9950   134.3310     2.4190     0.2510   -59.3720     7.7000     5.2110     7.0660
 2313.5000     0.0430     9.0010   135.6740     2.4220     0.2510   -59.3360     7.2360     4.9180     6.6670
 2314.0000     0.0510     9.0070   137.0070     2.4010     0.2520   -59.1780     6.7710     4.6050     6.2690
 2314.5000     0.0600     9.0130   138.3660     2.3830     0.2530   -58.9150     6.3060     4.6660     5.8700
 2315.0000     0.0640     9.0180   138.6070     2.3660     0.2540   -58.6510     5.8410     4.7500     5.4720
 2315.5000     0.0640     9.0240   138.3720     2.3500     0.2530   -58.3870     5.3760     4.8340     5.0740
 2316.0000     0.0640     9.0300   138.5520     2.3520     0.2570   -58.1230     5.1460     4.9180     4.9520
 2316.5000     0.0590     9.0360   139.6450     2.3540     0.2580   -57.8580     6.4970     5.0030     4.9390
 2317.0000     0.0380     9.0420   140.7360     2.3610     0.2600   -57.5890     7.9910     5.0870     4.9250
 2317.5000     0.0240     9.0470   140.9920     2.3820     0.2610   -57.5330     9.0640     5.1460     4.9130
 2318.0000     0.0280     9.0530   140.7200     2.4020     0.2640   -57.5260     9.3990     4.9750     4.6920
 2318.5000     0.0270     9.0590   140.4450     2.4050     0.2680   -57.7390     7.6820     4.3450     4.4890
 2319.0000     0.0280     9.0650   140.1680     2.4180     0.2710   -58.0090     6.3460     3.7210     4.2860
 2319.5000     0.0300     9.0700   139.8900     2.4300     0.2740   -58.2820     5.0110     3.7280     4.0830
 2320.0000     0.0320     9.0760   139.5990     2.4340     0.2710   -58.5540     3.6750     3.7380     3.9340
 2320.5000     0.0310     9.0830   139.5470     2.4410     0.2700   -58.8270     3.3920     3.7480     4.3900
 2321.0000     0.0260     9.0570   140.1560     2.4470     0.2720   -59.0990     4.8140     3.7560     4.7510
 2321.5000     0.0220     9.0160   140.7110     2.4530     0.2760   -59.3730     5.6980     3.6620     5.2030
 2322.0000     0.0170     9.0040   140.7210     2.4590     0.2790   -59.6470     5.3800     3.5870     4.9730
 2322.5000     0.0120     9.0040   140.5250     2.4650     0.2790   -59.9260     4.8830     3.5120     4.5510
 2323.0000     0.0080     9.0040   140.3020     2.4710     0.2780   -59.9400     4.2260     3.4230     3.9930
 2323.5000     0.0080     9.0010   140.0640     2.4770     0.2780   -59.9280     4.3440     3.4610     4.0870
 2324.0000     0.0080     8.9990   139.5960     2.4830     0.2740   -59.8300     4.5800     3.5200     4.2740
 2324.5000     0.0110     8.9970   139.8750     2.4870     0.2720   -59.7320     4.8170     3.5520     4.4610
 2325.0000     0.0140     8.9940   140.6260     2.4880     0.2710   -59.6340     5.0530     3.6190     4.6480
 2325.5000     0.0180     8.9920   141.4420     2.4830     0.2730   -59.5350     5.2890     3.7210     4.8130
 2326.0000     0.0160     8.9900   141.1070     2.4780     0.2720   -59.4370     5.5260     3.8260     4.9780
 2326.5000     0.0120     8.9870   139.5220     2.4720     0.2710   -59.3390     5.7620     3.9340     5.1460
 2327.0000     0.0090     8.9850   137.9900     2.4670     0.2690   -59.2400     5.9980     4.1200     5.3820
 2327.5000     0.0040     8.9820   136.4610     2.4610     0.2680   -59.1420     6.3370     4.3560     5.6230
 2328.0000     0.0060     8.9800   135.1470     2.4610     0.2690   -59.0440     7.1760     4.6810     5.9690
 2328.5000     0.0080     8.9780   136.0730     2.4600     0.2710   -58.9470     7.9010     5.0170     5.8350
 2329.0000     0.0100     8.9750   136.2700     2.4600     0.2700   -58.8490     8.0290     5.1390     5.4910
 2329.5000     0.0120     8.9730   135.9190     2.4620     0.2690   -58.7070     7.6830     5.2530     5.5440
 2330.0000     0.0140     8.9710   135.5520     2.4680     0.2710   -58.5480     7.3190     5.3670     5.6390
 2330.5000     0.0160     8.9680   136.3740     2.4740     0.2730   -58.6240     6.8590     5.4800     5.7340
 2331.0000     0.0180     8.9660   137.8740     2.4790     0.2720   -58.7060     6.9230     5.5940     5.8300
 2331.5000     0.0180     8.9630   138.3780     2.4840     0.2730   -58.7890     7.2570     5.7080     5.9170
 2332.0000     0.0130     8.9610   138.3160     2.4820     0.2750   -58.8710     7.7710     5.8220     5.9450
 2332.5000     0.0080     8.9590   137.6230     2.4740     0.2740   -58.9330     8.2850     5.9350     5.9720
