~VERSION INFORMATION
 VERS.                2.0:   CWLS LOG ASCII STANDARD - VERSION 2.0
 WRAP.                 NO:   ONE LINE PER DEPTH STEP
~WELL INFORMATION
#MNEM.UNIT      DATA TYPE    INFORMATION
#----------   ------------   ------------------------------
 STRT.F          216.0000:   START DEPTH
 STOP.F         3350.0000:   STOP DEPTH
 STEP.F            0.5000:   STEP LENGTH
 NULL.          -999.2500:   NO VALUE
 COMP.    FENIX & SCISSON:   COMPANY
 WELL. FENIX 52 "AX" #3-15:   WELL
 FLD .              N P R:   FIELD
 LOC .      S15 T38N R78W:   LOCATION
 CNTY.            NATRONA:   COUNTY
 STAT.            WYOMING:   STATE
 CTRY. UNITED STATES OF AMERICA:   COUNTRY
 SRVC.              WELEX:   SERVICE COMPANY
 DATE.        13-AUG-1977:   LOGDATE
 API .     49025104110000:   API NUMBER
~CURVE INFORMATION
#MNEM.UNIT       API CODE    CURVE DESCRIPTION
#----------   ------------   ------------------------------
 DEPT.F                  :   
 CORR.G/C3   45 356 01 00:   DENSITY CORRECTION
 CALD.IN     45 280 60 00:   CALIPER FROM DENSITY LOG
 GRD .GAPI   45 310 01 00:   GAMMA RAY FROM DENSITY LOG
 RHOB.G/C3   45 350 01 00:   BULK DENSITY
 NPHI.DEC    42 890 03 00:   NEUTRON POROSITY SANDSTONE
 SPR .MV     07 010 01 00:   SPONTANEOUS POTENTIAL
 SGRD.OHMM   07 220 05 00:   SHALLOW SHORT GUARD RESISTIVITY
 ILD .OHMM   07 120 46 00:   DEEP INDUCTION RESISTIVITY
 ILM .OHMM   07 120 44 00:   INDUCTION LOG MEDIUM RESISTIVITY
~PARAMETER INFORMATION
#MNEM.UNIT          VALUE    DESCRIPTION
#----------   ------------   ------------------------------
 EKB .F         5241.0000:   Kelly bushing
 EGL .F         5231.0000:   Ground level
 TD  .F         3352.0000:   Total depth
 DATE.        13-AUG-1977:   Date logged
 CLNT.            A2DTECH:   Client Code
 SL  . 940' FNL & 2310' FEL:   Surface Location
 PD  .                 GL:   Permanent Datum
 DD  .F              3350:   Depth driller
 DL  .F              3352:   Depth logger
 BLI .F              3350:   Bottom log interval
 CS1 .IN            8.625:   Casing size
 CBD1.      8.625" @ 227':   Casing driller 1
 CBL1.F               228:   Casing logger 1
 BS1 .IN            7.875:   Bit size
 DFT .          KCL WATER:   Type fluid in hole
 DFD .                8.9:   Density
 DFV .                 41:   Viscosity
 DFPH.                 11:   pH
 DFL .               17.2:   Fluid loss
 MSS .            MUD PIT:   Source of sample
 RMS .OHMM           .172:   Rm
 MST .F                74:   Rm Meas. temp.
 RMF .OHMM           .203:   Rmf
 MFST.F                74:   Rmf Meas. temp.
 RMC .OHMM           .220:   Rmc
 MCST.F                74:   Rmc Meas. temp.
 MFSS.               MEAS:   Source Rmf.
 RMB .OHMM           .105:   Rm. at BHT
 BHT .F               121:   BHT.
 TCS .HRS               4:   Time Circ. stopped
 MRT .F               121:   Maximum recorded temp.
 LUN .               9685:   Logging unit number
 LUL .             CASPER:   Logging unit location
 ENGI.             JOYNER:   Recorded By
 WITN.         PETTINGILL:   Witnessed by
 ORIG.           5" PRINT:   Origin of data
 UWI .     49025104110000:   Unique Well ID
 DICO. A2D TECHNOLOGIES, INC.:   Digitizing Company
 DAPD.F                10:   Feet Above Permanent Datum
 BSD1.F              3350:   Depth drilled with bit1
 EPD .F              5231:   Elevation Permanent Datum
 LMF .                 KB:   Log Measured From
 DMF .                 KB:   Drilling Measured From
 TLI .F               228:   Top log interval
~OTHER INFORMATION
~A   DEPT       CORR       CALD      GRD         RHOB       NPHI      SPR       SGRD        ILD        ILM   
# ...
  836.5000     0.0340     9.5630   130.5210     2.5170     0.2740   -60.0620     5.8880     4.5760     5.2080
  837.0000     0.0340     9.5620   130.4580     2.5210     0.2770   -60.0190     5.8740     4.5760     5.2050
  837.5000     0.0320     9.5600   130.3950     2.5190     0.2780   -59.8720     5.9760     4.5760     5.2020
  838.0000     0.0300     9.5570   130.3540     2.5140     0.2810   -59.9210     6.0570     4.7920     5.1990
  838.5000     0.0280     9.5550   129.7630     2.5090     0.2810   -60.1940     6.1380     5.1310     5.1970
  839.0000     0.0260     9.5530   128.9400     2.5030     0.2790   -60.4640     6.2200     5.4550     5.1940
  839.5000     0.0220     9.5510   128.7570     2.4920     0.2780   -60.7350     6.3010     5.5570     5.1910
  840.0000     0.0160     9.5480   129.0750     2.4820     0.2770   -61.0080     6.3830     5.4220     5.1880
  840.5000     0.0090     9.5460   130.2380     2.4690     0.2750   -61.0630     6.3360     5.0720     5.1850
  841.0000     0.0020     9.5440   131.3660     2.4560     0.2770   -60.9450     6.2880     4.7050     5.1820
  841.5000    -0.0020     9.5310   132.4920     2.4430     0.2790   -60.7330     6.2590     4.6250     5.1790
  842.0000    -0.0040     9.5110   133.0820     2.4410     0.2810   -60.5170     6.2450     4.5420     5.1770
  842.5000    -0.0040     9.4900   132.5130     2.4390     0.2830   -60.4660     6.2310     4.4590     5.1740
  843.0000    -0.0050     9.4690   131.9680     2.4350     0.2850   -60.4910     6.2170     4.3760     5.1710
  843.5000    -0.0120     9.4490   131.3800     2.4240     0.2870   -60.5210     6.2040     4.2500     5.1680
  844.0000    -0.0180     9.4280   130.6100     2.4140     0.2860   -60.5520     6.1900     4.3080     5.1650
  844.5000    -0.0170     9.4070   129.8330     2.4110     0.2850   -60.5820     6.1760     4.4320     5.1620
  845.0000    -0.0160     9.3870   129.0560     2.4170     0.2820   -60.6130     6.1620     4.4730     5.1590
  845.5000    -0.0140     9.3710   128.2800     2.4220     0.2770   -60.6430     6.1520     4.5000     5.1570
  846.0000    -0.0130     9.3530   127.5030     2.4280     0.2790   -60.6740     6.1560     4.5270     5.1540
  846.5000    -0.0110     9.3340   126.7270     2.4340     0.2800   -60.7040     6.1590     4.5530     5.1510
  847.0000    -0.0100     9.3230   125.9500     2.4380     0.2800   -60.7350     6.1620     4.5800     5.1480
  847.5000    -0.0080     9.3230   125.1730     2.4370     0.2790   -60.7650     6.1660     4.6060     5.1450
  848.0000    -0.0060     9.3230   124.3970     2.4430     0.2850   -60.7950     6.1690     4.6330     5.1420
  848.5000    -0.0010     9.3310   123.6180     2.4490     0.2850   -60.8290     6.1720     4.6610     5.1390
  849.0000     0.0030     9.3390   122.8290     2.4550     0.2850   -60.8740     6.1760     4.6310     5.1370
  849.5000     0.0080     9.3480   123.6110     2.4600     0.2900   -60.6650     6.1790     4.5990     5.1340
  850.0000     0.0090     9.3560   124.8460     2.4530     0.2950   -60.4310     6.1820     4.5660     5.1310
  850.5000     0.0070     9.3650   126.0850     2.4470     0.2940   -60.1380     6.1860     4.5340     5.1280
  851.0000     0.0050     9.3730   127.3260     2.4410     0.2930   -60.0650     6.1890     4.5020     5.1250
  851.5000     0.0030     9.3820   127.9460     2.4410     0.2930   -60.0590     6.1920     4.4920     5.1220
  852.0000     0.0010     9.3900   127.9250     2.4440     0.2930   -60.1780     6.1960     4.4920     5.1190
  852.5000    -0.0010     9.3990   126.3450     2.4470     0.2930   -60.3440     6.1990     4.5340     5.1160
  853.0000    -0.0030     9.4070   124.5820     2.4500     0.2910   -60.5110     6.2030     4.5340     5.1150
  853.5000    -0.0040     9.4160   122.8170     2.4520     0.2900   -60.6780     6.2070     4.4930     5.1080
  854.0000    -0.0030     9.4240   122.0740     2.4520     0.2800   -60.8440     6.2140     4.4550     5.1720
  854.5000    -0.0030     9.4330   122.9760     2.4520     0.2840   -61.0070     6.1460     4.4510     5.1900
  855.0000    -0.0020     9.4410   123.9080     2.4550     0.2890   -60.8950     6.1530     4.4510     5.2070
  855.5000    -0.0020     9.4500   123.3230     2.4610     0.2890   -60.7050     6.1580     4.4550     5.2240
  856.0000    -0.0010     9.4590   122.7740     2.4680     0.2870   -60.6620     6.1670     4.4730     5.2420
  856.5000    -0.0010     9.4670   123.3570     2.4710     0.2840   -60.6210     6.1770     4.4900     5.2590
  857.0000     0.0000     9.4760   125.4350     2.4590     0.2810   -60.4920     6.1860     4.5080     5.2770
  857.5000    -0.0010     9.4840   127.1810     2.4480     0.2800   -60.5630     6.1950     4.5250     5.2940
  858.0000    -0.0040     9.4930   122.7680     2.4380     0.2780   -60.6380     6.2050     4.5430     5.3110
  858.5000    -0.0080     9.5010   121.4100     2.4380     0.2740   -60.7160     6.2140     4.5600     5.3290
  859.0000    -0.0120     9.5100   121.8020     2.4380     0.2730   -60.7930     6.2240     4.5780     5.3460
  859.5000    -0.0140     9.5180   122.4150     2.4400     0.2730   -60.8700     6.2330     4.5950     5.3640
  860.0000    -0.0160     9.5270   123.0840     2.4400     0.2730   -60.9470     6.2420     4.6120     5.3810
  860.5000    -0.0180     9.5350   123.1860     2.4320     0.2710   -61.0240     6.2520     4.6210     5.3980
  861.0000    -0.0200     9.5440   122.3010     2.4240     0.2690   -61.0660     6.2610     4.6260     5.4160
  861.5000    -0.0230     9.5520   121.1520     2.4160     0.2690   -61.0660     6.2660     4.6310     5.4330
  862.0000    -0.0250     9.5610   120.0100     2.4080     0.2710   -61.0620     6.2600     4.6360     5.4510
  862.5000    -0.0260     9.5480   120.2170     2.4040     0.2730   -60.9770     6.2480     4.6400     5.4680
  863.0000    -0.0220     9.5290   121.1150     2.4030     0.2700   -60.8930     6.2350     4.6450     5.4850
  863.5000    -0.0190     9.5100   121.9720     2.4120     0.2670   -60.4410     6.2220     4.6500     5.5570
  864.0000    -0.0160     9.4910   122.0330     2.4230     0.2690   -60.4630     6.2090     4.6550     5.5430
  864.5000    -0.0130     9.4720   121.1020     2.4340     0.2640   -60.4660     6.1960     4.6640     5.5140
  865.0000    -0.0100     9.4630   120.1700     2.4390     0.2580   -60.5680     6.1830     4.7050     5.4840
  865.5000    -0.0070     9.4630   119.9600     2.4390     0.2600   -60.8040     6.1710     4.6920     5.4550
  866.0000    -0.0040     9.4630   120.4220     2.4430     0.2550   -61.0400     6.1580     4.6730     5.4250
  866.5000    -0.0020     9.4710   121.1910     2.4490     0.2520   -61.2610     6.1450     4.6550     5.3960
  867.0000    -0.0020     9.4800   121.9760     2.4550     0.2540   -61.2680     6.1320     4.6360     5.3660
  867.5000    -0.0020     9.4900   121.3170     2.4610     0.2560   -61.2690     6.1190     4.6170     5.3370
  868.0000    -0.0020     9.5000   120.6430     2.4660     0.2600   -61.2070     6.1060     4.5980     5.3070
  868.5000    -0.0020     9.5100   119.9770     2.4690     0.2590   -61.1360     6.0940     4.5790     5.2780
  869.0000    -0.0020     9.5200   119.3130     2.4680     0.2580   -61.0650     6.0810     4.5600     5.2480
  869.5000    -0.0020     9.5300   118.6440     2.4600     0.2570   -60.9930     6.0680     4.5410     5.2190
  870.0000    -0.0020     9.5400   118.6650     2.4510     0.2540   -60.9210     6.0550     4.5340     5.1890
  870.5000    -0.0020     9.5490   119.1610     2.4520     0.2510   -60.8500     6.0420     4.5760     5.1600
  871.0000     0.0010     9.5590   119.5420     2.4620     0.2490   -60.7780     6.0290     4.6100     5.1130
  871.5000     0.0040     9.5690   118.1580     2.4710     0.2490   -60.7060     6.0160     4.6180     5.1180
  872.0000     0.0070     9.5790   117.6280     2.4800     0.2480   -60.6340     6.0040     4.6180     5.1320
  872.5000     0.0100     9.5890   117.9420     2.4900     0.2470   -60.5630     5.9910     4.6180     5.1460
