~VERSION INFORMATION
 VERS.                2.0:   CWLS LOG ASCII STANDARD - VERSION 2.0
 WRAP.                 NO:   ONE LINE PER DEPTH STEP
~WELL INFORMATION
#MNEM.UNIT      DATA TYPE    INFORMATION
#----------   ------------   ------------------------------
 STRT.F           20.0000:   START DEPTH
 STOP.F         4105.0000:   STOP DEPTH
 STEP.F            0.5000:   STEP LENGTH
 NULL.          -999.2500:   NO VALUE
 COMP. LAWRENCE ALLISON AND ASSOCAITES:   COMPANY
 WELL. LAWRENCE"X" #88-28:   WELL
 FLD .              N P R:   FIELD
 LOC .      S28 T39N R78W:   LOCATION
 CNTY.            NATRONA:   COUNTY
 STAT.            WYOMING:   STATE
 CTRY. UNITED STATES OF AMERICA:   COUNTRY
 SRVC.      DRESSER ATLAS:   SERVICE COMPANY
 DATE.        08-MAR-1984:   LOGDATE
 API .     49025109650000:   API NUMBER
~CURVE INFORMATION
#MNEM.UNIT       API CODE    CURVE DESCRIPTION
#----------   ------------   ------------------------------
 DEPT.F                  :   
 RHOB.G/C3   45 350 01 00:   BULK DENSITY
 CORR.G/C3   45 356 01 00:   DENSITY CORRECTION
 TEND.LBS    45 635 01 00:   TENSION FROM DENSITY LOG
 NPHI.DEC    42 890 03 00:   NEUTRON POROSITY SANDSTONE
 SPR .MV     07 010 01 00:   SPONTANEOUS POTENTIAL
 GRR .GAPI   07 310 01 00:   GAMMA RAY FROM RESISTIVITY
 CALR.IN     07 280 01 00:   CALIPER FROM RESISTIVITY
 RILD.OHMM   07 120 46 00:   DEEP INDUCTION RESISTIVITY
 RILM.OHMM   07 120 44 00:   INDUCTION LOG MEDIUM RESISTIVITY
 RSFL.OHMM   07 220 01 00:   SPHERICALLY FOCUSED RES.
 TENR.LBS    07 635 01 00:   TENSION FROM RESISTIVITY
 DT  .US/F   60 520 00 00:   DELTA TIME
 TENS.LBS    60 635 01 00:   TENSION
~PARAMETER INFORMATION
#MNEM.UNIT          VALUE    DESCRIPTION
#----------   ------------   ------------------------------
 EKB .F         5096.0000:   Kelly bushing
 EGL .F         5085.0000:   Ground level
 TD  .F         4100.0000:   Total depth
 DATE.        08-MAR-1984:   Date logged
 CLNT.            A2DTECH:   Client Code
 SL  .  600' FSL & 80 FEL:   Surface Location
 PD  .                 GL:   Permanent Datum
 EPD .F              5085:   Elevation Permanent Datum
 LMF .                 KB:   Log Measured From
 DMF .                 KB:   Drilling Measured From
 DAPD.F                11:   Feet Above Permanent Datum
 DD  .F              4100:   Depth driller
 DL  .F              4098:   Depth logger
 BLI .F              4096:   Bottom log interval
 TLI .F              2079:   Top log interval
 CS1 .IN            8.625:   Casing size
 CBD1.      8.625' @ 533':   Casing driller 1
 BS1 .IN            7.875:   Bit size
 BSD1.F              4100:   Depth drilled with bit1
 DFT .            GEL KCL:   Type fluid in hole
 DFD .                9.1:   Density
 DFV .                 38:   Viscosity
 DFPH.                8.0:   pH
 DFL .                 14:   Fluid loss
 MSS .           FLOWLINE:   Source of sample
 RMS .OHMM            .58:   Rm
 MST .F                84:   Rm Meas. temp.
 RMF .OHMM            .50:   Rmf
 MFST.F                73:   Rmf Meas. temp.
 RMC .OHMM            .72:   Rmc
 MCST.F                84:   Rmc Meas. temp.
 MFSS.               MEAS:   Source Rmf.
 MCSS.               CALC:   Source Rmc.
 RMB .OHMM            .36:   Rm. at BHT
 BHT .F               134:   BHT.
 TCS .HRS               7:   Time Circ. stopped
 MRT .F               134:   Maximum recorded temp.
 LUN .               6307:   Logging unit number
 LUL .               GLTE:   Logging unit location
 ENGI.            DEYOUNG:   Recorded By
 WITN.             STRONG:   Witnessed by
 ORIG.         2.5" PRINT:   Origin of data
 UWI .     49025109650000:   Unique Well ID
 DICO. A2D TECHNOLOGIES, INC.:   Digitizing Company
~OTHER INFORMATION
~A   DEPT     RHOB       CORR       TEND       NPHI        SPR         GRR      CALR       RILD       RILM       RSFL       TENR         DT       TENS   
# ...
 1008.0000  -999.2500  -999.2500  -999.2500  -999.2500   -41.6470   118.5380     9.3790     9.3560     8.5450     8.3050   -39.7660  -999.2500  -999.2500
 1008.5000  -999.2500  -999.2500  -999.2500  -999.2500   -41.8810   116.5590     9.3790     9.2240     8.4820     8.1990   -40.2060  -999.2500  -999.2500
 1009.0000  -999.2500  -999.2500  -999.2500  -999.2500   -42.1130   111.2590     9.3790     9.0910     8.4200     8.0940   -40.6470  -999.2500  -999.2500
 1009.5000  -999.2500  -999.2500  -999.2500  -999.2500   -42.5150   106.0290     9.3790     8.9580     8.3570     7.9880   -41.0870  -999.2500  -999.2500
 1010.0000  -999.2500  -999.2500  -999.2500  -999.2500   -42.9140   105.3370     9.3790     8.8250     8.2950     7.8830   -41.5270  -999.2500  -999.2500
 1010.5000  -999.2500  -999.2500  -999.2500  -999.2500   -43.3140   108.9730     9.3790     8.6930     8.2320     7.7770   -41.9680  -999.2500  -999.2500
 1011.0000  -999.2500  -999.2500  -999.2500  -999.2500   -43.6930   112.5100     9.3800     8.5600     8.1690     7.6910   -42.4080  -999.2500  -999.2500
 1011.5000  -999.2500  -999.2500  -999.2500  -999.2500   -44.1420   114.1280     9.3870     8.4270     8.1070     7.6910   -42.8480  -999.2500  -999.2500
 1012.0000  -999.2500  -999.2500  -999.2500  -999.2500   -44.4960   113.2040     9.3960     8.2940     8.0440     7.6910   -43.2890  -999.2500  -999.2500
 1012.5000  -999.2500  -999.2500  -999.2500  -999.2500   -44.6530   112.4680     9.4060     8.1250     7.9820     7.6910   -43.7290  -999.2500  -999.2500
 1013.0000  -999.2500  -999.2500  -999.2500  -999.2500   -43.4690   109.1830     9.4150     8.1310     7.9190     7.6910   -44.1690  -999.2500  -999.2500
 1013.5000  -999.2500  -999.2500  -999.2500  -999.2500   -43.2290   106.3050     9.4240     8.1410     7.8560     7.6910   -44.6100  -999.2500  -999.2500
 1014.0000  -999.2500  -999.2500  -999.2500  -999.2500   -42.4140   103.3570     9.4340     8.1510     7.7940     7.6910   -45.0500  -999.2500  -999.2500
 1014.5000  -999.2500  -999.2500  -999.2500  -999.2500   -41.6770   104.7000     9.4430     8.1620     7.7310     7.6910   -45.4900  -999.2500  -999.2500
 1015.0000  -999.2500  -999.2500  -999.2500  -999.2500   -40.9390   106.0670     9.4520     8.1730     7.6690     7.6910   -45.9300  -999.2500  -999.2500
 1015.5000  -999.2500  -999.2500  -999.2500  -999.2500   -40.1980   106.7330     9.4590     8.1830     7.6060     7.6910   -46.3710  -999.2500  -999.2500
 1016.0000  -999.2500  -999.2500  -999.2500  -999.2500   -39.4490   105.6240     9.4510     8.1930     7.5530     7.6910   -46.8110  -999.2500  -999.2500
 1016.5000  -999.2500  -999.2500  -999.2500  -999.2500   -38.7160   107.0570     9.4340     8.2040     7.3650     7.6910   -47.2510  -999.2500  -999.2500
 1017.0000  -999.2500  -999.2500  -999.2500  -999.2500   -38.1590   108.2610     9.4190     8.2140     7.2280     7.6910   -47.6920  -999.2500  -999.2500
 1017.5000  -999.2500  -999.2500  -999.2500  -999.2500   -38.7810   109.4550     9.4030     8.2250     7.1510     7.6910   -48.1320  -999.2500  -999.2500
 1018.0000  -999.2500  -999.2500  -999.2500  -999.2500   -39.5280   110.1050     9.3870     8.2350     7.1510     7.6910   -48.6170  -999.2500  -999.2500
 1018.5000  -999.2500  -999.2500  -999.2500  -999.2500   -40.3090   109.9660     9.3790     8.2450     7.2360     7.6910   -49.6400  -999.2500  -999.2500
 1019.0000  -999.2500  -999.2500  -999.2500  -999.2500   -40.5220   108.8710     9.3790     8.2560     7.4010     7.7090   -50.7770  -999.2500  -999.2500
 1019.5000  -999.2500  -999.2500  -999.2500  -999.2500   -40.5150   109.8170     9.3790     8.2660     7.5660     7.7330   -51.9150  -999.2500  -999.2500
 1020.0000  -999.2500  -999.2500  -999.2500  -999.2500   -40.4940   111.4810     9.3630     8.3140     7.7310     7.7580   -53.0520  -999.2500  -999.2500
 1020.5000  -999.2500  -999.2500  -999.2500  -999.2500   -40.5250   108.0510     9.3420     8.4110     7.8950     7.7830   -54.1900  -999.2500  -999.2500
 1021.0000  -999.2500  -999.2500  -999.2500  -999.2500   -40.5780   102.9390     9.3220     8.5080     8.0600     7.8090   -55.3270  -999.2500  -999.2500
 1021.5000  -999.2500  -999.2500  -999.2500  -999.2500   -41.5980    98.7060     9.3020     8.6050     8.2250     7.8360   -56.5220  -999.2500  -999.2500
 1022.0000  -999.2500  -999.2500  -999.2500  -999.2500   -42.5240   100.7630     9.3010     8.7030     8.3900     7.9680   -54.3610  -999.2500  -999.2500
 1022.5000  -999.2500  -999.2500  -999.2500  -999.2500   -43.5170   103.6990     9.3000     8.8000     8.5790     8.1100   -52.0860  -999.2500  -999.2500
 1023.0000  -999.2500  -999.2500  -999.2500  -999.2500   -44.4360   106.9370     9.3020     8.8970     8.5790     8.2720   -49.8110  -999.2500  -999.2500
 1023.5000  -999.2500  -999.2500  -999.2500  -999.2500   -45.4400   110.1740     9.3070     9.0610     8.5330     8.2070   -48.6170  -999.2500  -999.2500
 1024.0000  -999.2500  -999.2500  -999.2500  -999.2500   -46.5830   110.7530     9.3120     9.0370     8.4810     8.0710   -40.7110  -999.2500  -999.2500
 1024.5000  -999.2500  -999.2500  -999.2500  -999.2500   -47.6740   110.1040     9.3170     8.9640     8.4280     7.9340   -40.7110  -999.2500  -999.2500
 1025.0000  -999.2500  -999.2500  -999.2500  -999.2500   -46.1640   109.9680     9.3220     8.8910     8.3750     7.7970   -40.7110  -999.2500  -999.2500
 1025.5000  -999.2500  -999.2500  -999.2500  -999.2500   -44.8840   106.8720     9.3280     8.8170     8.3220     7.6910   -40.7110  -999.2500  -999.2500
 1026.0000  -999.2500  -999.2500  -999.2500  -999.2500   -43.5760   102.8160     9.3310     8.7440     8.2720     7.8330   -40.7110  -999.2500  -999.2500
 1026.5000  -999.2500  -999.2500  -999.2500  -999.2500   -42.1390   104.8040     9.3390     8.6710     8.2460     7.9770   -40.7110  -999.2500  -999.2500
 1027.0000  -999.2500  -999.2500  -999.2500  -999.2500   -41.1750   109.2450     9.3470     8.5970     8.2070     7.9770   -40.7110  -999.2500  -999.2500
 1027.5000  -999.2500  -999.2500  -999.2500  -999.2500   -40.1300   113.2860     9.3590     8.4240     8.1680     7.9770   -40.7110  -999.2500  -999.2500
 1028.0000  -999.2500  -999.2500  -999.2500  -999.2500   -39.1040   113.3400     9.2660     8.4560     8.1290     7.9770   -42.8250  -999.2500  -999.2500
 1028.5000  -999.2500  -999.2500  -999.2500  -999.2500   -38.0520   113.5020     9.2580     8.5100     8.0910     7.9770   -44.9800  -999.2500  -999.2500
 1029.0000  -999.2500  -999.2500  -999.2500  -999.2500   -37.5730   113.5090     9.2930     8.5640     8.0520     7.9770   -47.1350  -999.2500  -999.2500
 1029.5000  -999.2500  -999.2500  -999.2500  -999.2500   -38.4030   112.6210     9.3000     8.6180     8.0130     7.9770   -49.2910  -999.2500  -999.2500
 1030.0000  -999.2500  -999.2500  -999.2500  -999.2500   -39.2040   110.8000     9.3020     8.6720     7.9740     7.9760   -51.4460  -999.2500  -999.2500
 1030.5000  -999.2500  -999.2500  -999.2500  -999.2500   -40.0730   109.0300     9.3000     8.7370     7.9350     7.9760   -53.6010  -999.2500  -999.2500
 1031.0000  -999.2500  -999.2500  -999.2500  -999.2500   -40.5530   107.2690     9.3000     8.7130     7.8960     7.9760   -55.7560  -999.2500  -999.2500
 1031.5000  -999.2500  -999.2500  -999.2500  -999.2500   -40.5060   105.5450     9.3000     8.6560     7.8580     7.9760   -48.6170  -999.2500  -999.2500
 1032.0000  -999.2500  -999.2500  -999.2500  -999.2500   -40.5030   103.8760     9.3000     8.5980     7.8190     7.9770   -49.0000  -999.2500  -999.2500
 1032.5000  -999.2500  -999.2500  -999.2500  -999.2500   -40.5250   102.8650     9.3000     8.5410     7.7800     7.8860   -49.7870  -999.2500  -999.2500
 1033.0000  -999.2500  -999.2500  -999.2500  -999.2500   -40.5220   105.6320     9.3000     8.4840     7.7410     7.7570   -50.5750  -999.2500  -999.2500
 1033.5000  -999.2500  -999.2500  -999.2500  -999.2500   -40.4550   110.3120     9.3000     8.4260     7.7020     7.6280   -51.3620  -999.2500  -999.2500
