~VERSION INFORMATION
 VERS.                2.0:   CWLS LOG ASCII STANDARD - VERSION 2.0
 WRAP.                 NO:   ONE LINE PER DEPTH STEP
~WELL INFORMATION
#MNEM.UNIT      DATA TYPE    INFORMATION
#----------   ------------   ------------------------------
 STRT.F           20.0000:   START DEPTH
 STOP.F         4105.0000:   STOP DEPTH
 STEP.F            0.5000:   STEP LENGTH
 NULL.          -999.2500:   NO VALUE
 COMP. LAWRENCE ALLISON AND ASSOCAITES:   COMPANY
 WELL. LAWRENCE"X" #88-28:   WELL
 FLD .              N P R:   FIELD
 LOC .      S28 T39N R78W:   LOCATION
 CNTY.            NATRONA:   COUNTY
 STAT.            WYOMING:   STATE
 CTRY. UNITED STATES OF AMERICA:   COUNTRY
 SRVC.      DRESSER ATLAS:   SERVICE COMPANY
 DATE.        08-MAR-1984:   LOGDATE
 API .     49025109650000:   API NUMBER
~CURVE INFORMATION
#MNEM.UNIT       API CODE    CURVE DESCRIPTION
#----------   ------------   ------------------------------
 DEPT.F                  :   
 RHOB.G/C3   45 350 01 00:   BULK DENSITY
 CORR.G/C3   45 356 01 00:   DENSITY CORRECTION
 TEND.LBS    45 635 01 00:   TENSION FROM DENSITY LOG
 NPHI.DEC    42 890 03 00:   NEUTRON POROSITY SANDSTONE
 SPR .MV     07 010 01 00:   SPONTANEOUS POTENTIAL
 GRR .GAPI   07 310 01 00:   GAMMA RAY FROM RESISTIVITY
 CALR.IN     07 280 01 00:   CALIPER FROM RESISTIVITY
 RILD.OHMM   07 120 46 00:   DEEP INDUCTION RESISTIVITY
 RILM.OHMM   07 120 44 00:   INDUCTION LOG MEDIUM RESISTIVITY
 RSFL.OHMM   07 220 01 00:   SPHERICALLY FOCUSED RES.
 TENR.LBS    07 635 01 00:   TENSION FROM RESISTIVITY
 DT  .US/F   60 520 00 00:   DELTA TIME
 TENS.LBS    60 635 01 00:   TENSION
~PARAMETER INFORMATION
#MNEM.UNIT          VALUE    DESCRIPTION
#----------   ------------   ------------------------------
 EKB .F         5096.0000:   Kelly bushing
 EGL .F         5085.0000:   Ground level
 TD  .F         4100.0000:   Total depth
 DATE.        08-MAR-1984:   Date logged
 CLNT.            A2DTECH:   Client Code
 SL  .  600' FSL & 80 FEL:   Surface Location
 PD  .                 GL:   Permanent Datum
 EPD .F              5085:   Elevation Permanent Datum
 LMF .                 KB:   Log Measured From
 DMF .                 KB:   Drilling Measured From
 DAPD.F                11:   Feet Above Permanent Datum
 DD  .F              4100:   Depth driller
 DL  .F              4098:   Depth logger
 BLI .F              4096:   Bottom log interval
 TLI .F              2079:   Top log interval
 CS1 .IN            8.625:   Casing size
 CBD1.      8.625' @ 533':   Casing driller 1
 BS1 .IN            7.875:   Bit size
 BSD1.F              4100:   Depth drilled with bit1
 DFT .            GEL KCL:   Type fluid in hole
 DFD .                9.1:   Density
 DFV .                 38:   Viscosity
 DFPH.                8.0:   pH
 DFL .                 14:   Fluid loss
 MSS .           FLOWLINE:   Source of sample
 RMS .OHMM            .58:   Rm
 MST .F                84:   Rm Meas. temp.
 RMF .OHMM            .50:   Rmf
 MFST.F                73:   Rmf Meas. temp.
 RMC .OHMM            .72:   Rmc
 MCST.F                84:   Rmc Meas. temp.
 MFSS.               MEAS:   Source Rmf.
 MCSS.               CALC:   Source Rmc.
 RMB .OHMM            .36:   Rm. at BHT
 BHT .F               134:   BHT.
 TCS .HRS               7:   Time Circ. stopped
 MRT .F               134:   Maximum recorded temp.
 LUN .               6307:   Logging unit number
 LUL .               GLTE:   Logging unit location
 ENGI.            DEYOUNG:   Recorded By
 WITN.             STRONG:   Witnessed by
 ORIG.         2.5" PRINT:   Origin of data
 UWI .     49025109650000:   Unique Well ID
 DICO. A2D TECHNOLOGIES, INC.:   Digitizing Company
~OTHER INFORMATION
~A   DEPT     RHOB       CORR       TEND       NPHI        SPR         GRR      CALR       RILD       RILM       RSFL       TENR         DT       TENS   
# ...
 3140.0000     2.5000     0.0070   -51.9740     0.1840   -42.9890    80.3720     8.0850     8.9790     7.5300    15.1070   -40.7110    70.4730   -39.5130
 3140.5000     2.5110     0.0050   -52.5030     0.1940   -43.7420    91.3380     8.0860     8.2550     6.1820    12.0640   -40.7110    71.9640   -39.6130
 3141.0000     2.5190    -0.0110   -53.0320     0.2050   -44.5160   103.4150     8.0870     7.5320     5.8670     9.0200   -40.7110    74.0240   -39.7120
 3141.5000     2.5190    -0.0130   -53.5610     0.2140   -44.8820   115.0260     8.0880     6.8090     5.5870     6.5290   -40.7110    77.6530   -39.8110
 3142.0000     2.5170    -0.0020   -54.0900     0.2180   -44.6490   119.9820     8.0890     6.0850     5.3060     6.0710   -40.7110    80.0690   -39.9100
 3142.5000     2.5050     0.0080   -54.6190     0.2210   -44.4710   122.1300     8.0890     5.3620     4.8800     5.8860   -40.7110    81.8640   -40.0090
 3143.0000     2.4940     0.0220   -55.1490     0.2210   -44.2870   124.3050     8.0900     4.7050     4.8870     5.7050   -40.7110    83.6590   -40.1080
 3143.5000     2.4820     0.0430   -55.6780     0.2210   -44.0750   126.6860     8.0910     4.7050     4.9020     5.4430   -40.7110    85.4540   -40.2070
 3144.0000     2.4710     0.0310   -56.2070     0.2170   -43.7250   128.0140     8.0920     4.6780     4.9180     5.5640   -40.7110    87.0410   -40.3060
 3144.5000     2.4650    -0.0170   -55.8930     0.2090   -43.3240   128.3020     8.0930     4.6490     4.9330     5.7850   -40.7110    88.0280   -40.4050
 3145.0000     2.4660    -0.0370   -55.2690     0.2000   -42.9240   128.6860     8.0940     4.6200     4.9490     6.0060   -40.7110    86.4100   -40.5040
 3145.5000     2.4740    -0.0350   -54.6450     0.2070   -42.5270   129.2970     8.0950     4.5910     4.9640     6.2960   -40.7110    84.9740   -40.6040
 3146.0000     2.4850     0.0050   -54.0210     0.2140   -42.1280   127.6180     8.0960     4.5620     4.9690     6.1270   -40.7110    83.9740   -40.7030
 3146.5000     2.4960     0.0460   -53.3970     0.2200   -41.7300   124.6060     8.0970     4.5370     4.9690     5.8800   -40.7110    83.2050   -40.8020
 3147.0000     2.5030     0.0580   -52.7730     0.2200   -41.3310   121.8160     8.0980     4.6700     4.9250     5.6340   -40.7110    82.6430   -40.8280
 3147.5000     2.5080     0.0580   -52.1490     0.2150   -40.9340   118.9630     8.0990     4.7860     4.8800     5.3450   -40.7110    82.5050   -40.8280
 3148.0000     2.5130     0.0420   -51.5250     0.2070   -40.5360   115.8010     8.1000     4.9020     5.0530     5.6210   -40.7110    82.0550   -40.8280
 3148.5000     2.5100     0.0170   -50.9010     0.1990   -40.1330   114.1830     8.1010     5.0180     5.2640     5.9560   -40.7110    81.4560   -40.8280
 3149.0000     2.5060    -0.0050   -50.2770     0.1990   -39.7450   116.6810     8.1010     5.1340     5.4740     6.2910   -40.7110    80.9270   -40.8280
 3149.5000     2.4980    -0.0280   -49.6530     0.1990   -39.3430   119.0520     8.1020     5.2510     5.6840     6.6260   -40.7110    80.1380   -40.8280
 3150.0000     2.4990    -0.0330   -49.0290     0.1970   -39.2550   118.5560     8.1030     5.3670     5.8540     6.8960   -40.7110    80.1380   -40.8280
 3150.5000     2.5000    -0.0090   -48.4050     0.1870   -39.1670   115.9650     8.1040     5.4830     5.9110     6.4550   -40.7110    80.1380   -40.8280
 3151.0000     2.5020     0.0090   -47.7810     0.1810   -39.0890   114.1530     8.1050     5.5990     5.9820     6.2520   -40.7110    80.0490   -40.8280
 3151.5000     2.5030    -0.0070   -47.1570     0.1810   -39.0200   115.0420     8.1060     5.7150     6.0530     6.5160   -40.7110    79.7080   -40.8280
 3152.0000     2.5000    -0.0230   -46.5330     0.1830   -38.9470   116.8700     8.1070     5.8540     6.1240     6.7800   -40.7110    79.3490   -40.8280
 3152.5000     2.4890    -0.0410   -45.9090     0.1850   -39.2730   118.8250     8.1080     5.8540     6.1820     6.8960   -40.7110    79.3490   -40.8280
 3153.0000     2.4790    -0.0520   -45.2850     0.1920   -39.6320   118.8080     8.1090     5.8540     6.1820     6.5920   -40.7110    79.3490   -40.8280
 3153.5000     2.4780    -0.0360   -44.6610     0.1980   -40.0000   115.2200     8.1100     5.8540     6.1820     6.2960   -40.7110    79.8680   -40.8280
 3154.0000     2.4830    -0.0140   -44.0370     0.1990   -40.3650   114.4530     8.1110     5.8880     6.1820     6.4110   -40.7110    80.2130   -40.8280
 3154.5000     2.4890    -0.0090   -43.4130     0.2010   -40.7420   115.9350     8.1120     5.9280     6.1820     6.8960   -40.7110    80.3730   -40.8280
 3155.0000     2.4870    -0.0030   -42.7890     0.2020   -40.9170   117.1790     8.1130     5.9680     6.1830     6.7290   -40.7110    80.5330   -40.8280
 3155.5000     2.4800    -0.0040   -42.1650     0.2020   -40.7710   115.0460     8.1140     6.0090     6.1830     6.4210   -40.7110    80.6920   -40.8280
 3156.0000     2.4720    -0.0070   -41.5410     0.1990   -40.6560   113.1110     8.1140     6.0490     6.1830     6.1820   -40.7110    80.8520   -40.8280
 3156.5000     2.4820    -0.0100   -40.9170     0.1930   -40.5370   111.0030     8.1150     6.0710     6.1820     6.0710   -40.7110    81.0110   -40.8280
 3157.0000     2.4960    -0.0060   -40.4760     0.1870   -40.4130   109.3900     8.1150     6.0330     6.1820     6.4830   -40.7110    80.9740   -40.8280
 3157.5000     2.5020    -0.0030   -40.4760     0.1810   -40.2920   110.5750     8.1150     5.9980     6.1850     6.8710   -40.7110    80.4640   -40.8280
 3158.0000     2.5040    -0.0030   -40.4760     0.1780   -40.1730   113.1680     8.1150     5.9610     6.1890     7.4170   -40.7110    80.0320   -40.8280
 3158.5000     2.5050    -0.0090   -40.4760     0.1810   -40.1130   115.5930     8.1150     5.7140     6.0800     7.2830   -40.7110    79.7400   -40.8280
 3159.0000     2.5060    -0.0160   -40.4760     0.1860   -40.5060   118.0590     8.1150     5.5480     5.9060     7.0780   -40.7110    79.4480   -40.8280
 3159.5000     2.5060     0.0210   -40.4760     0.1970   -41.0410   118.6910     8.1150     5.3810     5.7330     6.8960   -40.7110    79.4840   -40.8280
 3160.0000     2.5040     0.0290   -40.4760     0.2090   -41.5720   118.7280     8.1150     5.2150     5.5600     6.4120   -40.7110    79.6880   -40.8280
 3160.5000     2.4910     0.0410   -40.4760     0.2150   -42.1000   117.8720     8.1150     5.0490     5.3860     5.8670   -40.7110    80.9090   -40.8280
 3161.0000     2.4790    -0.0040   -40.4760     0.2110   -42.6300   117.0300     8.1150     4.8820     5.2130     5.3220   -40.7110    82.5050   -40.8280
 3161.5000     2.4680    -0.0150   -40.4760     0.2060   -43.1600   117.1020     8.1150     4.7160     5.0400     4.7920   -40.7110    84.1010   -40.8280
 3162.0000     2.4720    -0.0170   -40.4760     0.2020   -43.6900   118.9030     8.1150     4.5500     4.8660     4.7920   -40.7110    84.9470   -40.8280
 3162.5000     2.4760    -0.0170   -40.4760     0.2140   -44.2180   120.4000     8.1150     4.3830     4.6930     4.9970   -40.7110    85.3730   -40.8280
 3163.0000     2.4810    -0.0180   -40.4760     0.2180   -44.7490   121.7890     8.1150     4.2170     4.5190     5.2480   -40.7110    85.6940   -40.8280
 3163.5000     2.4770    -0.0180   -40.4760     0.2180   -45.2820   124.8120     8.1150     4.1180     4.3750     5.2480   -40.7110    85.7960   -40.8280
 3164.0000     2.4730    -0.0180   -40.4760     0.2090   -45.7280   122.7370     8.1150     4.0740     4.2180     5.0490   -40.7110    85.7170   -40.8280
 3164.5000     2.4720    -0.0160   -40.4760     0.2030   -45.9830   120.1150     8.1150     4.0300     4.1660     5.0190   -40.7110    85.3600   -40.8280
 3165.0000     2.4690    -0.0130   -40.4760     0.2030   -46.2390   117.3910     8.1150     3.9860     4.1150     4.9900   -40.7110    85.0020   -40.8280
 3165.5000     2.4750    -0.0120   -40.4760     0.2060   -46.4910   116.4110     8.1150     3.9430     4.0630     4.9690   -40.7110    84.6440   -40.8280
