~VERSION INFORMATION
 VERS.                2.0:   CWLS LOG ASCII STANDARD - VERSION 2.0
 WRAP.                 NO:   ONE LINE PER DEPTH STEP
~WELL INFORMATION
#MNEM.UNIT      DATA TYPE    INFORMATION
#----------   ------------   ------------------------------
 STRT.F           20.0000:   START DEPTH
 STOP.F         4105.0000:   STOP DEPTH
 STEP.F            0.5000:   STEP LENGTH
 NULL.          -999.2500:   NO VALUE
 COMP. LAWRENCE ALLISON AND ASSOCAITES:   COMPANY
 WELL. LAWRENCE"X" #88-28:   WELL
 FLD .              N P R:   FIELD
 LOC .      S28 T39N R78W:   LOCATION
 CNTY.            NATRONA:   COUNTY
 STAT.            WYOMING:   STATE
 CTRY. UNITED STATES OF AMERICA:   COUNTRY
 SRVC.      DRESSER ATLAS:   SERVICE COMPANY
 DATE.        08-MAR-1984:   LOGDATE
 API .     49025109650000:   API NUMBER
~CURVE INFORMATION
#MNEM.UNIT       API CODE    CURVE DESCRIPTION
#----------   ------------   ------------------------------
 DEPT.F                  :   
 RHOB.G/C3   45 350 01 00:   BULK DENSITY
 CORR.G/C3   45 356 01 00:   DENSITY CORRECTION
 TEND.LBS    45 635 01 00:   TENSION FROM DENSITY LOG
 NPHI.DEC    42 890 03 00:   NEUTRON POROSITY SANDSTONE
 SPR .MV     07 010 01 00:   SPONTANEOUS POTENTIAL
 GRR .GAPI   07 310 01 00:   GAMMA RAY FROM RESISTIVITY
 CALR.IN     07 280 01 00:   CALIPER FROM RESISTIVITY
 RILD.OHMM   07 120 46 00:   DEEP INDUCTION RESISTIVITY
 RILM.OHMM   07 120 44 00:   INDUCTION LOG MEDIUM RESISTIVITY
 RSFL.OHMM   07 220 01 00:   SPHERICALLY FOCUSED RES.
 TENR.LBS    07 635 01 00:   TENSION FROM RESISTIVITY
 DT  .US/F   60 520 00 00:   DELTA TIME
 TENS.LBS    60 635 01 00:   TENSION
~PARAMETER INFORMATION
#MNEM.UNIT          VALUE    DESCRIPTION
#----------   ------------   ------------------------------
 EKB .F         5096.0000:   Kelly bushing
 EGL .F         5085.0000:   Ground level
 TD  .F         4100.0000:   Total depth
 DATE.        08-MAR-1984:   Date logged
 CLNT.            A2DTECH:   Client Code
 SL  .  600' FSL & 80 FEL:   Surface Location
 PD  .                 GL:   Permanent Datum
 EPD .F              5085:   Elevation Permanent Datum
 LMF .                 KB:   Log Measured From
 DMF .                 KB:   Drilling Measured From
 DAPD.F                11:   Feet Above Permanent Datum
 DD  .F              4100:   Depth driller
 DL  .F              4098:   Depth logger
 BLI .F              4096:   Bottom log interval
 TLI .F              2079:   Top log interval
 CS1 .IN            8.625:   Casing size
 CBD1.      8.625' @ 533':   Casing driller 1
 BS1 .IN            7.875:   Bit size
 BSD1.F              4100:   Depth drilled with bit1
 DFT .            GEL KCL:   Type fluid in hole
 DFD .                9.1:   Density
 DFV .                 38:   Viscosity
 DFPH.                8.0:   pH
 DFL .                 14:   Fluid loss
 MSS .           FLOWLINE:   Source of sample
 RMS .OHMM            .58:   Rm
 MST .F                84:   Rm Meas. temp.
 RMF .OHMM            .50:   Rmf
 MFST.F                73:   Rmf Meas. temp.
 RMC .OHMM            .72:   Rmc
 MCST.F                84:   Rmc Meas. temp.
 MFSS.               MEAS:   Source Rmf.
 MCSS.               CALC:   Source Rmc.
 RMB .OHMM            .36:   Rm. at BHT
 BHT .F               134:   BHT.
 TCS .HRS               7:   Time Circ. stopped
 MRT .F               134:   Maximum recorded temp.
 LUN .               6307:   Logging unit number
 LUL .               GLTE:   Logging unit location
 ENGI.            DEYOUNG:   Recorded By
 WITN.             STRONG:   Witnessed by
 ORIG.         2.5" PRINT:   Origin of data
 UWI .     49025109650000:   Unique Well ID
 DICO. A2D TECHNOLOGIES, INC.:   Digitizing Company
~OTHER INFORMATION
~A   DEPT     RHOB       CORR       TEND       NPHI        SPR         GRR      CALR       RILD       RILM       RSFL       TENR         DT       TENS   
# ...
 1710.0000  -999.2500  -999.2500  -999.2500  -999.2500   -39.9750   116.0000     9.2210     7.9770     8.1740     8.2720   -51.3540  -999.2500  -999.2500
 1710.5000  -999.2500  -999.2500  -999.2500  -999.2500   -40.5560   116.4580     9.2210     8.0630     8.1230     8.2720   -50.9750  -999.2500  -999.2500
 1711.0000  -999.2500  -999.2500  -999.2500  -999.2500   -41.1040   116.4610     9.2210     8.1400     8.2650     8.2720   -50.5960  -999.2500  -999.2500
 1711.5000  -999.2500  -999.2500  -999.2500  -999.2500   -41.6480   116.1390     9.2210     8.2180     8.4120     8.2720   -50.2170  -999.2500  -999.2500
 1712.0000  -999.2500  -999.2500  -999.2500  -999.2500   -42.2370   115.8470     9.2210     8.2950     8.5790     8.3450   -49.8380  -999.2500  -999.2500
 1712.5000  -999.2500  -999.2500  -999.2500  -999.2500   -42.5330   115.5450     9.2210     8.3720     8.7370     8.4590   -49.4580  -999.2500  -999.2500
 1713.0000  -999.2500  -999.2500  -999.2500  -999.2500   -42.6800   115.2600     9.2210     8.4240     8.5790     8.5790   -49.0790  -999.2500  -999.2500
 1713.5000  -999.2500  -999.2500  -999.2500  -999.2500   -42.8580   115.0740     9.2210     8.4240     8.4870     8.4590   -48.7000  -999.2500  -999.2500
 1714.0000  -999.2500  -999.2500  -999.2500  -999.2500   -43.1090   115.7280     9.2210     8.3050     8.3880     8.3320   -48.8070  -999.2500  -999.2500
 1714.5000  -999.2500  -999.2500  -999.2500  -999.2500   -42.9540   116.2360     9.2210     8.1520     8.2900     8.2040   -49.0500  -999.2500  -999.2500
 1715.0000  -999.2500  -999.2500  -999.2500  -999.2500   -41.5830   117.5190     9.2210     7.9980     8.1420     8.0760   -49.2940  -999.2500  -999.2500
 1715.5000  -999.2500  -999.2500  -999.2500  -999.2500   -40.2170   119.6020     9.2210     7.8330     8.1470     7.9480   -49.5380  -999.2500  -999.2500
 1716.0000  -999.2500  -999.2500  -999.2500  -999.2500   -38.8880   121.6310     9.2210     7.8970     8.2240     7.8210   -49.7820  -999.2500  -999.2500
 1716.5000  -999.2500  -999.2500  -999.2500  -999.2500   -37.4160   121.6150     9.2210     8.0180     8.2720     7.6910   -50.0250  -999.2500  -999.2500
 1717.0000  -999.2500  -999.2500  -999.2500  -999.2500   -37.3850   121.0960     9.2210     8.1390     8.2900     7.6910   -50.2690  -999.2500  -999.2500
 1717.5000  -999.2500  -999.2500  -999.2500  -999.2500   -37.3630   118.6750     9.2210     8.2600     8.3690     7.8130   -50.5130  -999.2500  -999.2500
 1718.0000  -999.2500  -999.2500  -999.2500  -999.2500   -38.1390   113.8270     9.2210     8.3800     8.4480     7.9590   -50.7570  -999.2500  -999.2500
 1718.5000  -999.2500  -999.2500  -999.2500  -999.2500   -38.8890   112.0270     9.2210     8.5010     8.5280     8.1050   -51.0000  -999.2500  -999.2500
 1719.0000  -999.2500  -999.2500  -999.2500  -999.2500   -39.3500   113.3260     9.2210     8.5790     8.7370     8.2510   -51.2440  -999.2500  -999.2500
 1719.5000  -999.2500  -999.2500  -999.2500  -999.2500   -39.1000   115.6480     9.2210     8.3880     8.7370     8.4240   -51.4880  -999.2500  -999.2500
 1720.0000  -999.2500  -999.2500  -999.2500  -999.2500   -38.8800   114.8920     9.2210     8.2050     8.7370     8.5790   -51.7320  -999.2500  -999.2500
 1720.5000  -999.2500  -999.2500  -999.2500  -999.2500   -38.6220   113.9950     9.2210     8.0220     8.7370     8.3370   -51.9750  -999.2500  -999.2500
 1721.0000  -999.2500  -999.2500  -999.2500  -999.2500   -38.8060   113.4290     9.2210     7.8390     8.5030     8.0070   -52.2190  -999.2500  -999.2500
 1721.5000  -999.2500  -999.2500  -999.2500  -999.2500   -39.4600   114.6780     9.2210     7.6560     8.2390     7.6770   -52.4630  -999.2500  -999.2500
 1722.0000  -999.2500  -999.2500  -999.2500  -999.2500   -40.0760   118.5140     9.2210     7.4720     7.9740     7.3470   -52.7070  -999.2500  -999.2500
 1722.5000  -999.2500  -999.2500  -999.2500  -999.2500   -40.6820   123.5470     9.2210     7.2890     7.7090     7.1510   -52.9500  -999.2500  -999.2500
 1723.0000  -999.2500  -999.2500  -999.2500  -999.2500   -41.2970   126.7350     9.2210     7.1180     7.4440     7.1510   -53.1940  -999.2500  -999.2500
 1723.5000  -999.2500  -999.2500  -999.2500  -999.2500   -41.9210   124.8100     9.2210     6.9840     7.1790     7.1780   -53.4380  -999.2500  -999.2500
 1724.0000  -999.2500  -999.2500  -999.2500  -999.2500   -42.1050   116.5720     9.2210     6.8500     6.8960     7.2350   -53.6820  -999.2500  -999.2500
 1724.5000  -999.2500  -999.2500  -999.2500  -999.2500   -42.0980   110.4880     9.2210     6.7150     6.6490     7.2830   -53.9250  -999.2500  -999.2500
 1725.0000  -999.2500  -999.2500  -999.2500  -999.2500   -41.7090   109.1300     9.2210     6.5290     6.6490     6.8790   -54.1690  -999.2500  -999.2500
 1725.5000  -999.2500  -999.2500  -999.2500  -999.2500   -41.1880   115.6870     9.2250     6.6380     6.6490     6.0710   -54.4130  -999.2500  -999.2500
 1726.0000  -999.2500  -999.2500  -999.2500  -999.2500   -40.6840   121.8970     9.2280     6.8160     6.6490     6.3070   -54.6570  -999.2500  -999.2500
 1726.5000  -999.2500  -999.2500  -999.2500  -999.2500   -40.1630   121.6100     9.2310     6.9940     6.7710     6.8250   -54.9000  -999.2500  -999.2500
 1727.0000  -999.2500  -999.2500  -999.2500  -999.2500   -39.6040   120.3110     9.2350     7.1710     7.0130     7.3440   -55.1440  -999.2500  -999.2500
 1727.5000  -999.2500  -999.2500  -999.2500  -999.2500   -39.3390   115.5030     9.2380     7.3490     7.2770     7.8620   -55.3880  -999.2500  -999.2500
 1728.0000  -999.2500  -999.2500  -999.2500  -999.2500   -38.9960   111.4160     9.2410     7.5270     7.5420     8.2430   -55.6310  -999.2500  -999.2500
 1728.5000  -999.2500  -999.2500  -999.2500  -999.2500   -38.9480   106.8710     9.2450     7.7040     7.6910     8.1000   -55.8750  -999.2500  -999.2500
 1729.0000  -999.2500  -999.2500  -999.2500  -999.2500   -38.9370   106.0980     9.2480     7.8330     7.6910     7.9580   -56.1190  -999.2500  -999.2500
 1729.5000  -999.2500  -999.2500  -999.2500  -999.2500   -39.6710   107.3740     9.2510     7.8330     7.6500     7.8330   -56.3630  -999.2500  -999.2500
 1730.0000  -999.2500  -999.2500  -999.2500  -999.2500   -40.4810   108.5110     9.2560     7.6910     7.5690     7.9770   -56.5220  -999.2500  -999.2500
 1730.5000  -999.2500  -999.2500  -999.2500  -999.2500   -41.2860   109.6950     9.2570     7.6390     7.4870     7.8510   -55.8540  -999.2500  -999.2500
 1731.0000  -999.2500  -999.2500  -999.2500  -999.2500   -42.0930   109.3510     9.2550     7.5840     7.4060     7.8330   -55.1600  -999.2500  -999.2500
 1731.5000  -999.2500  -999.2500  -999.2500  -999.2500   -41.7610   106.5120     9.2050     7.5290     7.3250     7.6830   -54.4660  -999.2500  -999.2500
 1732.0000  -999.2500  -999.2500  -999.2500  -999.2500   -41.1490   106.5110     9.1890     7.4740     7.2830     7.5530   -53.7720  -999.2500  -999.2500
 1732.5000  -999.2500  -999.2500  -999.2500  -999.2500   -40.5960   109.2200     9.1670     7.4170     7.4090     7.8330   -53.0780  -999.2500  -999.2500
 1733.0000  -999.2500  -999.2500  -999.2500  -999.2500   -40.1940   111.6700     9.1460     7.3090     7.3570     8.0470   -52.3840  -999.2500  -999.2500
 1733.5000  -999.2500  -999.2500  -999.2500  -999.2500   -40.9830   114.2100     9.1270     7.1510     7.3220     8.2720   -51.6900  -999.2500  -999.2500
 1734.0000  -999.2500  -999.2500  -999.2500  -999.2500   -41.7280   117.1010     9.1030     7.2730     7.2830     8.2720   -50.9960  -999.2500  -999.2500
 1734.5000  -999.2500  -999.2500  -999.2500  -999.2500   -42.2120   116.9750     9.0840     7.4670     7.4680     7.9330   -50.3020  -999.2500  -999.2500
 1735.0000  -999.2500  -999.2500  -999.2500  -999.2500   -42.4930   114.0220     9.0600     7.6620     7.6860     7.1510   -49.6080  -999.2500  -999.2500
 1735.5000  -999.2500  -999.2500  -999.2500  -999.2500   -42.7950   108.6290     9.0350     7.8560     7.9040     7.2830   -48.9140  -999.2500  -999.2500
