~VERSION INFORMATION
 VERS.                2.0:   CWLS LOG ASCII STANDARD - VERSION 2.0
 WRAP.                 NO:   ONE LINE PER DEPTH STEP
~WELL INFORMATION
#MNEM.UNIT      DATA TYPE    INFORMATION
#----------   ------------   ------------------------------
 STRT.F           20.0000:   START DEPTH
 STOP.F         4105.0000:   STOP DEPTH
 STEP.F            0.5000:   STEP LENGTH
 NULL.          -999.2500:   NO VALUE
 COMP. LAWRENCE ALLISON AND ASSOCAITES:   COMPANY
 WELL. LAWRENCE"X" #88-28:   WELL
 FLD .              N P R:   FIELD
 LOC .      S28 T39N R78W:   LOCATION
 CNTY.            NATRONA:   COUNTY
 STAT.            WYOMING:   STATE
 CTRY. UNITED STATES OF AMERICA:   COUNTRY
 SRVC.      DRESSER ATLAS:   SERVICE COMPANY
 DATE.        08-MAR-1984:   LOGDATE
 API .     49025109650000:   API NUMBER
~CURVE INFORMATION
#MNEM.UNIT       API CODE    CURVE DESCRIPTION
#----------   ------------   ------------------------------
 DEPT.F                  :   
 RHOB.G/C3   45 350 01 00:   BULK DENSITY
 CORR.G/C3   45 356 01 00:   DENSITY CORRECTION
 TEND.LBS    45 635 01 00:   TENSION FROM DENSITY LOG
 NPHI.DEC    42 890 03 00:   NEUTRON POROSITY SANDSTONE
 SPR .MV     07 010 01 00:   SPONTANEOUS POTENTIAL
 GRR .GAPI   07 310 01 00:   GAMMA RAY FROM RESISTIVITY
 CALR.IN     07 280 01 00:   CALIPER FROM RESISTIVITY
 RILD.OHMM   07 120 46 00:   DEEP INDUCTION RESISTIVITY
 RILM.OHMM   07 120 44 00:   INDUCTION LOG MEDIUM RESISTIVITY
 RSFL.OHMM   07 220 01 00:   SPHERICALLY FOCUSED RES.
 TENR.LBS    07 635 01 00:   TENSION FROM RESISTIVITY
 DT  .US/F   60 520 00 00:   DELTA TIME
 TENS.LBS    60 635 01 00:   TENSION
~PARAMETER INFORMATION
#MNEM.UNIT          VALUE    DESCRIPTION
#----------   ------------   ------------------------------
 EKB .F         5096.0000:   Kelly bushing
 EGL .F         5085.0000:   Ground level
 TD  .F         4100.0000:   Total depth
 DATE.        08-MAR-1984:   Date logged
 CLNT.            A2DTECH:   Client Code
 SL  .  600' FSL & 80 FEL:   Surface Location
 PD  .                 GL:   Permanent Datum
 EPD .F              5085:   Elevation Permanent Datum
 LMF .                 KB:   Log Measured From
 DMF .                 KB:   Drilling Measured From
 DAPD.F                11:   Feet Above Permanent Datum
 DD  .F              4100:   Depth driller
 DL  .F              4098:   Depth logger
 BLI .F              4096:   Bottom log interval
 TLI .F              2079:   Top log interval
 CS1 .IN            8.625:   Casing size
 CBD1.      8.625' @ 533':   Casing driller 1
 BS1 .IN            7.875:   Bit size
 BSD1.F              4100:   Depth drilled with bit1
 DFT .            GEL KCL:   Type fluid in hole
 DFD .                9.1:   Density
 DFV .                 38:   Viscosity
 DFPH.                8.0:   pH
 DFL .                 14:   Fluid loss
 MSS .           FLOWLINE:   Source of sample
 RMS .OHMM            .58:   Rm
 MST .F                84:   Rm Meas. temp.
 RMF .OHMM            .50:   Rmf
 MFST.F                73:   Rmf Meas. temp.
 RMC .OHMM            .72:   Rmc
 MCST.F                84:   Rmc Meas. temp.
 MFSS.               MEAS:   Source Rmf.
 MCSS.               CALC:   Source Rmc.
 RMB .OHMM            .36:   Rm. at BHT
 BHT .F               134:   BHT.
 TCS .HRS               7:   Time Circ. stopped
 MRT .F               134:   Maximum recorded temp.
 LUN .               6307:   Logging unit number
 LUL .               GLTE:   Logging unit location
 ENGI.            DEYOUNG:   Recorded By
 WITN.             STRONG:   Witnessed by
 ORIG.         2.5" PRINT:   Origin of data
 UWI .     49025109650000:   Unique Well ID
 DICO. A2D TECHNOLOGIES, INC.:   Digitizing Company
~OTHER INFORMATION
~A   DEPT     RHOB       CORR       TEND       NPHI        SPR         GRR      CALR       RILD       RILM       RSFL       TENR         DT       TENS   
# ...
 1242.0000  -999.2500  -999.2500  -999.2500  -999.2500   -42.9030    99.7150     9.1940     9.7450     9.5340     9.0950   -51.4380  -999.2500  -999.2500
 1242.5000  -999.2500  -999.2500  -999.2500  -999.2500   -43.5790    98.7950     9.1970     9.7450     9.5950     8.9410   -51.3090  -999.2500  -999.2500
 1243.0000  -999.2500  -999.2500  -999.2500  -999.2500   -44.2720    97.9390     9.1990     9.7450     9.6330     8.7870   -51.1810  -999.2500  -999.2500
 1243.5000  -999.2500  -999.2500  -999.2500  -999.2500   -44.5760    97.1150     9.2020     9.6980     9.6710     8.6330   -51.0530  -999.2500  -999.2500
 1244.0000  -999.2500  -999.2500  -999.2500  -999.2500   -44.6880    96.2430     9.2040     9.5720     9.7090     8.4790   -50.9240  -999.2500  -999.2500
 1244.5000  -999.2500  -999.2500  -999.2500  -999.2500   -44.8170    97.1210     9.2060     9.4460     9.7450     8.2720   -50.7960  -999.2500  -999.2500
 1245.0000  -999.2500  -999.2500  -999.2500  -999.2500   -44.9060    97.3030     9.2090     9.3200     9.6680     8.3710   -50.6680  -999.2500  -999.2500
 1245.5000  -999.2500  -999.2500  -999.2500  -999.2500   -44.4820    96.2010     9.2110     9.1940     9.5940     8.5210   -50.5390  -999.2500  -999.2500
 1246.0000  -999.2500  -999.2500  -999.2500  -999.2500   -43.5380    96.1120     9.2140     9.0610     9.5210     8.7370   -50.4110  -999.2500  -999.2500
 1246.5000  -999.2500  -999.2500  -999.2500  -999.2500   -42.6420    98.7660     9.2160     9.0880     9.4470     8.7040   -50.2830  -999.2500  -999.2500
 1247.0000  -999.2500  -999.2500  -999.2500  -999.2500   -41.7420   101.7020     9.2180     9.1160     9.3740     8.6460   -50.1540  -999.2500  -999.2500
 1247.5000  -999.2500  -999.2500  -999.2500  -999.2500   -40.8130   103.1450     9.2210     9.1450     9.3000     8.5790   -50.0260  -999.2500  -999.2500
 1248.0000  -999.2500  -999.2500  -999.2500  -999.2500   -39.9520   100.3940     9.2190     9.1740     9.2270     8.4240   -49.8980  -999.2500  -999.2500
 1248.5000  -999.2500  -999.2500  -999.2500  -999.2500   -38.9970    97.8920     9.2160     9.2020     9.1530     8.4240   -49.7700  -999.2500  -999.2500
 1249.0000  -999.2500  -999.2500  -999.2500  -999.2500   -39.2030    99.6900     9.2140     9.2270     9.0790     8.4240   -49.6410  -999.2500  -999.2500
 1249.5000  -999.2500  -999.2500  -999.2500  -999.2500   -39.4700   100.2480     9.2110     9.0660     9.0610     8.4480   -49.5130  -999.2500  -999.2500
 1250.0000  -999.2500  -999.2500  -999.2500  -999.2500   -39.7790    98.3720     9.2080     8.8970     9.0300     8.5150   -49.3850  -999.2500  -999.2500
 1250.5000  -999.2500  -999.2500  -999.2500  -999.2500   -40.0700    96.4890     9.2050     9.0610     8.9770     8.5790   -49.2560  -999.2500  -999.2500
 1251.0000  -999.2500  -999.2500  -999.2500  -999.2500   -40.3800    95.8150     9.2030     9.2270     8.9240     8.5170   -49.1280  -999.2500  -999.2500
 1251.5000  -999.2500  -999.2500  -999.2500  -999.2500   -40.4510    98.0680     9.2000     9.2270     8.8970     8.2810   -49.0000  -999.2500  -999.2500
 1252.0000  -999.2500  -999.2500  -999.2500  -999.2500   -40.2990    98.9730     9.1970     9.2270     8.8960     7.9770   -48.8710  -999.2500  -999.2500
 1252.5000  -999.2500  -999.2500  -999.2500  -999.2500   -40.1350    97.5910     9.1940     9.2270     8.8960     7.9770   -48.7430  -999.2500  -999.2500
 1253.0000  -999.2500  -999.2500  -999.2500  -999.2500   -40.5330    95.0720     9.1920     9.2270     8.8960     8.0840   -48.6170  -999.2500  -999.2500
 1253.5000  -999.2500  -999.2500  -999.2500  -999.2500   -41.0420    91.4630     9.1890     9.2270     8.8950     8.1760   -48.4610  -999.2500  -999.2500
 1254.0000  -999.2500  -999.2500  -999.2500  -999.2500   -41.5630    90.4940     9.1860     9.2270     8.9010     8.2680   -48.3090  -999.2500  -999.2500
 1254.5000  -999.2500  -999.2500  -999.2500  -999.2500   -42.0740    89.2880     9.1830     9.2270     8.9060     8.3600   -48.1560  -999.2500  -999.2500
 1255.0000  -999.2500  -999.2500  -999.2500  -999.2500   -42.6010    88.5550     9.1810     9.2270     8.8870     8.4520   -48.0030  -999.2500  -999.2500
 1255.5000  -999.2500  -999.2500  -999.2500  -999.2500   -43.0930    90.8520     9.1780     9.1760     9.0720     8.5790   -47.8500  -999.2500  -999.2500
 1256.0000  -999.2500  -999.2500  -999.2500  -999.2500   -43.6420    97.1640     9.1750     9.1090     9.0510     8.4890   -47.6970  -999.2500  -999.2500
 1256.5000  -999.2500  -999.2500  -999.2500  -999.2500   -43.6870   101.1920     9.1730     9.0420     9.0340     8.3410   -47.5450  -999.2500  -999.2500
 1257.0000  -999.2500  -999.2500  -999.2500  -999.2500   -43.6780   101.1200     9.1700     8.9750     8.9640     8.1940   -47.3920  -999.2500  -999.2500
 1257.5000  -999.2500  -999.2500  -999.2500  -999.2500   -43.6190    97.8750     9.1670     8.9080     8.8940     8.1230   -47.2390  -999.2500  -999.2500
 1258.0000  -999.2500  -999.2500  -999.2500  -999.2500   -42.7890    92.4370     9.1640     8.8400     8.8250     8.1230   -47.0860  -999.2500  -999.2500
 1258.5000  -999.2500  -999.2500  -999.2500  -999.2500   -42.1030    94.1550     9.1620     8.7730     8.7440     8.1230   -46.9340  -999.2500  -999.2500
 1259.0000  -999.2500  -999.2500  -999.2500  -999.2500   -41.3540    95.9780     9.1590     8.7370     8.5720     8.1230   -46.7810  -999.2500  -999.2500
 1259.5000  -999.2500  -999.2500  -999.2500  -999.2500   -40.6290    95.2900     9.1560     8.7370     8.5860     7.8330   -46.6280  -999.2500  -999.2500
 1260.0000  -999.2500  -999.2500  -999.2500  -999.2500   -39.9190    94.6690     9.1530     8.7370     8.5790     7.9400   -46.4750  -999.2500  -999.2500
 1260.5000  -999.2500  -999.2500  -999.2500  -999.2500   -39.1560    94.3110     9.1510     8.7370     8.5790     8.0610   -46.3220  -999.2500  -999.2500
 1261.0000  -999.2500  -999.2500  -999.2500  -999.2500   -38.9220    93.7810     9.1480     9.0610     8.6770     8.1820   -46.1700  -999.2500  -999.2500
 1261.5000  -999.2500  -999.2500  -999.2500  -999.2500   -39.0040    96.2820     9.1450     9.0230     8.7370     8.3020   -46.0170  -999.2500  -999.2500
 1262.0000  -999.2500  -999.2500  -999.2500  -999.2500   -39.8270    99.1300     9.1420     8.9310     8.7370     8.4230   -45.8640  -999.2500  -999.2500
 1262.5000  -999.2500  -999.2500  -999.2500  -999.2500   -40.4060   102.0900     9.1420     8.8400     8.7120     8.5450   -45.7110  -999.2500  -999.2500
 1263.0000  -999.2500  -999.2500  -999.2500  -999.2500   -41.1230   105.1150     9.1420     8.7480     8.6620     8.4650   -45.5580  -999.2500  -999.2500
 1263.5000  -999.2500  -999.2500  -999.2500  -999.2500   -41.0190   106.6740     9.1420     8.6570     8.6110     8.3040   -45.4060  -999.2500  -999.2500
 1264.0000  -999.2500  -999.2500  -999.2500  -999.2500   -40.4290   105.2170     9.1420     8.5650     8.5600     8.1420   -45.2530  -999.2500  -999.2500
 1264.5000  -999.2500  -999.2500  -999.2500  -999.2500   -39.9710    99.9440     9.1420     8.4730     8.5100     7.9810   -45.1000  -999.2500  -999.2500
 1265.0000  -999.2500  -999.2500  -999.2500  -999.2500   -39.3910    95.3400     9.1420     8.4240     8.4590     7.8330   -44.9470  -999.2500  -999.2500
 1265.5000  -999.2500  -999.2500  -999.2500  -999.2500   -40.6950    90.9330     9.1420     8.4240     8.4200     7.9200   -44.7940  -999.2500  -999.2500
 1266.0000  -999.2500  -999.2500  -999.2500  -999.2500   -41.6710    92.7150     9.1420     8.4240     8.4070     8.0020   -44.6420  -999.2500  -999.2500
 1266.5000  -999.2500  -999.2500  -999.2500  -999.2500   -42.2880    97.8970     9.1420     8.4240     8.3940     8.0830   -44.4890  -999.2500  -999.2500
 1267.0000  -999.2500  -999.2500  -999.2500  -999.2500   -42.8640   102.9180     9.1420     8.4240     8.3810     8.1640   -44.3360  -999.2500  -999.2500
 1267.5000  -999.2500  -999.2500  -999.2500  -999.2500   -43.4520   106.7270     9.1420     8.4240     8.3680     8.2720   -44.1830  -999.2500  -999.2500
