~VERSION INFORMATION
 VERS.                2.0:   CWLS LOG ASCII STANDARD - VERSION 2.0
 WRAP.                 NO:   ONE LINE PER DEPTH STEP
~WELL INFORMATION
#MNEM.UNIT      DATA TYPE    INFORMATION
#----------   ------------   ------------------------------
 STRT.F           20.0000:   START DEPTH
 STOP.F         4105.0000:   STOP DEPTH
 STEP.F            0.5000:   STEP LENGTH
 NULL.          -999.2500:   NO VALUE
 COMP. LAWRENCE ALLISON AND ASSOCAITES:   COMPANY
 WELL. LAWRENCE"X" #88-28:   WELL
 FLD .              N P R:   FIELD
 LOC .      S28 T39N R78W:   LOCATION
 CNTY.            NATRONA:   COUNTY
 STAT.            WYOMING:   STATE
 CTRY. UNITED STATES OF AMERICA:   COUNTRY
 SRVC.      DRESSER ATLAS:   SERVICE COMPANY
 DATE.        08-MAR-1984:   LOGDATE
 API .     49025109650000:   API NUMBER
~CURVE INFORMATION
#MNEM.UNIT       API CODE    CURVE DESCRIPTION
#----------   ------------   ------------------------------
 DEPT.F                  :   
 RHOB.G/C3   45 350 01 00:   BULK DENSITY
 CORR.G/C3   45 356 01 00:   DENSITY CORRECTION
 TEND.LBS    45 635 01 00:   TENSION FROM DENSITY LOG
 NPHI.DEC    42 890 03 00:   NEUTRON POROSITY SANDSTONE
 SPR .MV     07 010 01 00:   SPONTANEOUS POTENTIAL
 GRR .GAPI   07 310 01 00:   GAMMA RAY FROM RESISTIVITY
 CALR.IN     07 280 01 00:   CALIPER FROM RESISTIVITY
 RILD.OHMM   07 120 46 00:   DEEP INDUCTION RESISTIVITY
 RILM.OHMM   07 120 44 00:   INDUCTION LOG MEDIUM RESISTIVITY
 RSFL.OHMM   07 220 01 00:   SPHERICALLY FOCUSED RES.
 TENR.LBS    07 635 01 00:   TENSION FROM RESISTIVITY
 DT  .US/F   60 520 00 00:   DELTA TIME
 TENS.LBS    60 635 01 00:   TENSION
~PARAMETER INFORMATION
#MNEM.UNIT          VALUE    DESCRIPTION
#----------   ------------   ------------------------------
 EKB .F         5096.0000:   Kelly bushing
 EGL .F         5085.0000:   Ground level
 TD  .F         4100.0000:   Total depth
 DATE.        08-MAR-1984:   Date logged
 CLNT.            A2DTECH:   Client Code
 SL  .  600' FSL & 80 FEL:   Surface Location
 PD  .                 GL:   Permanent Datum
 EPD .F              5085:   Elevation Permanent Datum
 LMF .                 KB:   Log Measured From
 DMF .                 KB:   Drilling Measured From
 DAPD.F                11:   Feet Above Permanent Datum
 DD  .F              4100:   Depth driller
 DL  .F              4098:   Depth logger
 BLI .F              4096:   Bottom log interval
 TLI .F              2079:   Top log interval
 CS1 .IN            8.625:   Casing size
 CBD1.      8.625' @ 533':   Casing driller 1
 BS1 .IN            7.875:   Bit size
 BSD1.F              4100:   Depth drilled with bit1
 DFT .            GEL KCL:   Type fluid in hole
 DFD .                9.1:   Density
 DFV .                 38:   Viscosity
 DFPH.                8.0:   pH
 DFL .                 14:   Fluid loss
 MSS .           FLOWLINE:   Source of sample
 RMS .OHMM            .58:   Rm
 MST .F                84:   Rm Meas. temp.
 RMF .OHMM            .50:   Rmf
 MFST.F                73:   Rmf Meas. temp.
 RMC .OHMM            .72:   Rmc
 MCST.F                84:   Rmc Meas. temp.
 MFSS.               MEAS:   Source Rmf.
 MCSS.               CALC:   Source Rmc.
 RMB .OHMM            .36:   Rm. at BHT
 BHT .F               134:   BHT.
 TCS .HRS               7:   Time Circ. stopped
 MRT .F               134:   Maximum recorded temp.
 LUN .               6307:   Logging unit number
 LUL .               GLTE:   Logging unit location
 ENGI.            DEYOUNG:   Recorded By
 WITN.             STRONG:   Witnessed by
 ORIG.         2.5" PRINT:   Origin of data
 UWI .     49025109650000:   Unique Well ID
 DICO. A2D TECHNOLOGIES, INC.:   Digitizing Company
~OTHER INFORMATION
~A   DEPT     RHOB       CORR       TEND       NPHI        SPR         GRR      CALR       RILD       RILM       RSFL       TENR         DT       TENS   
# ...
 1944.0000  -999.2500  -999.2500  -999.2500  -999.2500   -40.6940   154.8200     8.5490     7.7630     7.5690     9.0610   -40.5770  -999.2500  -999.2500
 1944.5000  -999.2500  -999.2500  -999.2500  -999.2500   -39.6640   157.9110     8.5490     7.8600     7.6460     9.0610   -40.7110  -999.2500  -999.2500
 1945.0000  -999.2500  -999.2500  -999.2500  -999.2500   -38.6680   160.0510     8.5490     7.9580     7.7240     9.0610   -40.7110  -999.2500  -999.2500
 1945.5000  -999.2500  -999.2500  -999.2500  -999.2500   -37.6280   156.0270     8.5490     8.0560     7.8010     9.0610   -40.7110  -999.2500  -999.2500
 1946.0000  -999.2500  -999.2500  -999.2500  -999.2500   -37.9630   148.5760     8.5490     8.1540     7.8780     9.1530   -40.7110  -999.2500  -999.2500
 1946.5000  -999.2500  -999.2500  -999.2500  -999.2500   -38.9050   141.2040     8.5490     8.2520     7.9560     9.4320   -40.7110  -999.2500  -999.2500
 1947.0000  -999.2500  -999.2500  -999.2500  -999.2500   -39.8300   135.4830     8.5490     8.3490     8.0330     9.7100   -40.7110  -999.2500  -999.2500
 1947.5000  -999.2500  -999.2500  -999.2500  -999.2500   -40.4940   135.0560     8.5490     8.4210     8.1100     9.9240   -40.7110  -999.2500  -999.2500
 1948.0000  -999.2500  -999.2500  -999.2500  -999.2500   -40.5100   135.2980     8.5490     8.4080     8.1880     9.6340   -40.7110  -999.2500  -999.2500
 1948.5000  -999.2500  -999.2500  -999.2500  -999.2500   -40.5350   136.7600     8.5490     8.3950     8.2720     9.3910   -40.7110  -999.2500  -999.2500
 1949.0000  -999.2500  -999.2500  -999.2500  -999.2500   -41.0460   138.0600     8.5490     8.3820     8.2460     9.1480   -40.7110  -999.2500  -999.2500
 1949.5000  -999.2500  -999.2500  -999.2500  -999.2500   -41.6230   139.7260     8.5490     8.3690     8.2160     8.8970   -40.7110  -999.2500  -999.2500
 1950.0000  -999.2500  -999.2500  -999.2500  -999.2500   -42.2120   141.2570     8.5490     8.3560     8.1870     9.3130   -40.7110  -999.2500  -999.2500
 1950.5000  -999.2500  -999.2500  -999.2500  -999.2500   -42.7970   143.1820     8.5490     8.3430     8.1580     9.3970   -40.7110  -999.2500  -999.2500
 1951.0000  -999.2500  -999.2500  -999.2500  -999.2500   -43.3870   140.8970     8.5490     8.3300     8.1280     9.3970   -40.7110  -999.2500  -999.2500
 1951.5000  -999.2500  -999.2500  -999.2500  -999.2500   -43.7040   135.9450     8.5490     8.3170     8.0990     9.3970   -40.7110  -999.2500  -999.2500
 1952.0000  -999.2500  -999.2500  -999.2500  -999.2500   -43.2870   131.1720     8.5490     8.3040     8.0700     9.3970   -40.7110  -999.2500  -999.2500
 1952.5000  -999.2500  -999.2500  -999.2500  -999.2500   -43.2260   129.6700     8.5490     8.2910     8.0400     9.3970   -40.7110  -999.2500  -999.2500
 1953.0000  -999.2500  -999.2500  -999.2500  -999.2500   -42.6730   133.0690     8.5490     8.2780     8.0110     9.3970   -40.7110  -999.2500  -999.2500
 1953.5000  -999.2500  -999.2500  -999.2500  -999.2500   -42.5050   136.3780     8.5490     8.1980     7.9770     9.3970   -40.7110  -999.2500  -999.2500
 1954.0000  -999.2500  -999.2500  -999.2500  -999.2500   -42.2770   134.4000     8.5490     8.0740     7.9170     9.3970   -40.7110  -999.2500  -999.2500
 1954.5000  -999.2500  -999.2500  -999.2500  -999.2500   -41.7850   129.6480     8.5490     7.9500     7.8440     9.6410   -40.7110  -999.2500  -999.2500
 1955.0000  -999.2500  -999.2500  -999.2500  -999.2500   -40.6810   124.9250     8.5490     7.8260     7.7720    10.0070   -40.7110  -999.2500  -999.2500
 1955.5000  -999.2500  -999.2500  -999.2500  -999.2500   -39.5980   120.9200     8.5490     7.7020     7.6940     9.6930   -40.7110  -999.2500  -999.2500
 1956.0000  -999.2500  -999.2500  -999.2500  -999.2500   -38.4810   117.0410     8.5490     7.5790     7.6960     9.2270   -40.7110  -999.2500  -999.2500
 1956.5000  -999.2500  -999.2500  -999.2500  -999.2500   -37.3710   113.0280     8.5490     7.5530     7.6880     8.2260   -40.7110  -999.2500  -999.2500
 1957.0000  -999.2500  -999.2500  -999.2500  -999.2500   -36.7510   110.8610     8.5490     8.0240     7.7000     7.6910   -40.7110  -999.2500  -999.2500
 1957.5000  -999.2500  -999.2500  -999.2500  -999.2500   -37.4910   113.0070     8.5490     8.4880     7.9580     7.6910   -40.7110  -999.2500  -999.2500
 1958.0000  -999.2500  -999.2500  -999.2500  -999.2500   -38.1030   119.5970     8.5490     8.9520     8.5300     8.4240   -40.7110  -999.2500  -999.2500
 1958.5000  -999.2500  -999.2500  -999.2500  -999.2500   -38.6840   125.9430     8.5510     9.4160     9.1020    11.0690   -40.7110  -999.2500  -999.2500
 1959.0000  -999.2500  -999.2500  -999.2500  -999.2500   -39.3000   127.0220     8.5540     9.8810     9.6740    11.2720   -40.7110  -999.2500  -999.2500
 1959.5000  -999.2500  -999.2500  -999.2500  -999.2500   -39.3120   126.2380     8.5570    10.3450    10.2460    11.4480   -40.7110  -999.2500  -999.2500
 1960.0000  -999.2500  -999.2500  -999.2500  -999.2500   -39.3350   125.5980     8.5600    10.8090    10.8180    11.6280   -40.7110  -999.2500  -999.2500
 1960.5000  -999.2500  -999.2500  -999.2500  -999.2500   -39.3300   131.2810     8.5630    11.2730    11.3910    11.6900   -40.7110  -999.2500  -999.2500
 1961.0000  -999.2500  -999.2500  -999.2500  -999.2500   -39.3130   137.3290     8.5660    11.6900    11.9050    11.6900   -40.7110  -999.2500  -999.2500
 1961.5000  -999.2500  -999.2500  -999.2500  -999.2500   -39.3420   144.6570     8.5690    11.6900    11.9050    12.1920   -40.7110  -999.2500  -999.2500
 1962.0000  -999.2500  -999.2500  -999.2500  -999.2500   -39.3800   152.3050     8.5720    11.6900    11.9050    12.5730   -40.7110  -999.2500  -999.2500
 1962.5000  -999.2500  -999.2500  -999.2500  -999.2500   -40.2100   155.9360     8.5750    11.6200    11.7230    12.8040   -40.7110  -999.2500  -999.2500
 1963.0000  -999.2500  -999.2500  -999.2500  -999.2500   -40.9360   153.7180     8.5780    11.5600    11.4800    12.3460   -40.7110  -999.2500  -999.2500
 1963.5000  -999.2500  -999.2500  -999.2500  -999.2500   -41.6470   147.9140     8.5810    11.4800    11.5930    12.0230   -40.7110  -999.2500  -999.2500
 1964.0000  -999.2500  -999.2500  -999.2500  -999.2500   -42.4590   140.8890     8.5840    11.5690    11.8440    11.8000   -40.7110  -999.2500  -999.2500
 1964.5000  -999.2500  -999.2500  -999.2500  -999.2500   -42.5430   133.7640     8.5880    11.8830    12.0960    11.6900   -40.7110  -999.2500  -999.2500
 1965.0000  -999.2500  -999.2500  -999.2500  -999.2500   -42.9510   126.7070     8.5910    12.1970    12.3470    12.2190   -40.7110  -999.2500  -999.2500
 1965.5000  -999.2500  -999.2500  -999.2500  -999.2500   -42.9400   121.6320     8.5940    12.5100    12.5990    12.8040   -40.7110  -999.2500  -999.2500
 1966.0000  -999.2500  -999.2500  -999.2500  -999.2500   -43.3580   118.2620     8.5970    12.8040    12.9760    14.1990   -40.7110  -999.2500  -999.2500
 1966.5000  -999.2500  -999.2500  -999.2500  -999.2500   -42.9270   114.4920     8.6000    12.5160    12.9490    15.0830   -40.6840  -999.2500  -999.2500
 1967.0000  -999.2500  -999.2500  -999.2500  -999.2500   -41.9320   115.4830     8.6030    12.0620    12.5830    14.5440   -40.5750  -999.2500  -999.2500
 1967.5000  -999.2500  -999.2500  -999.2500  -999.2500   -40.8180   120.9300     8.6060    11.6080    12.2170    13.4720   -40.4650  -999.2500  -999.2500
 1968.0000  -999.2500  -999.2500  -999.2500  -999.2500   -39.7020   126.8450     8.6090    11.1540    11.9050    12.4830   -40.3550  -999.2500  -999.2500
 1968.5000  -999.2500  -999.2500  -999.2500  -999.2500   -38.5770   124.8940     8.6120    10.8690    11.6300    11.4800   -40.2450  -999.2500  -999.2500
 1969.0000  -999.2500  -999.2500  -999.2500  -999.2500   -38.0030   117.9520     8.6150    10.8300    11.3910    10.8690   -40.1360  -999.2500  -999.2500
 1969.5000  -999.2500  -999.2500  -999.2500  -999.2500   -37.7680   110.7100     8.6180    10.7630    11.1510    11.1600   -40.0260  -999.2500  -999.2500
