~VERSION INFORMATION
 VERS.                2.0:   CWLS LOG ASCII STANDARD - VERSION 2.0
 WRAP.                 NO:   ONE LINE PER DEPTH STEP
~WELL INFORMATION
#MNEM.UNIT      DATA TYPE    INFORMATION
#----------   ------------   ------------------------------
 STRT.F           20.0000:   START DEPTH
 STOP.F         4105.0000:   STOP DEPTH
 STEP.F            0.5000:   STEP LENGTH
 NULL.          -999.2500:   NO VALUE
 COMP. LAWRENCE ALLISON AND ASSOCAITES:   COMPANY
 WELL. LAWRENCE"X" #88-28:   WELL
 FLD .              N P R:   FIELD
 LOC .      S28 T39N R78W:   LOCATION
 CNTY.            NATRONA:   COUNTY
 STAT.            WYOMING:   STATE
 CTRY. UNITED STATES OF AMERICA:   COUNTRY
 SRVC.      DRESSER ATLAS:   SERVICE COMPANY
 DATE.        08-MAR-1984:   LOGDATE
 API .     49025109650000:   API NUMBER
~CURVE INFORMATION
#MNEM.UNIT       API CODE    CURVE DESCRIPTION
#----------   ------------   ------------------------------
 DEPT.F                  :   
 RHOB.G/C3   45 350 01 00:   BULK DENSITY
 CORR.G/C3   45 356 01 00:   DENSITY CORRECTION
 TEND.LBS    45 635 01 00:   TENSION FROM DENSITY LOG
 NPHI.DEC    42 890 03 00:   NEUTRON POROSITY SANDSTONE
 SPR .MV     07 010 01 00:   SPONTANEOUS POTENTIAL
 GRR .GAPI   07 310 01 00:   GAMMA RAY FROM RESISTIVITY
 CALR.IN     07 280 01 00:   CALIPER FROM RESISTIVITY
 RILD.OHMM   07 120 46 00:   DEEP INDUCTION RESISTIVITY
 RILM.OHMM   07 120 44 00:   INDUCTION LOG MEDIUM RESISTIVITY
 RSFL.OHMM   07 220 01 00:   SPHERICALLY FOCUSED RES.
 TENR.LBS    07 635 01 00:   TENSION FROM RESISTIVITY
 DT  .US/F   60 520 00 00:   DELTA TIME
 TENS.LBS    60 635 01 00:   TENSION
~PARAMETER INFORMATION
#MNEM.UNIT          VALUE    DESCRIPTION
#----------   ------------   ------------------------------
 EKB .F         5096.0000:   Kelly bushing
 EGL .F         5085.0000:   Ground level
 TD  .F         4100.0000:   Total depth
 DATE.        08-MAR-1984:   Date logged
 CLNT.            A2DTECH:   Client Code
 SL  .  600' FSL & 80 FEL:   Surface Location
 PD  .                 GL:   Permanent Datum
 EPD .F              5085:   Elevation Permanent Datum
 LMF .                 KB:   Log Measured From
 DMF .                 KB:   Drilling Measured From
 DAPD.F                11:   Feet Above Permanent Datum
 DD  .F              4100:   Depth driller
 DL  .F              4098:   Depth logger
 BLI .F              4096:   Bottom log interval
 TLI .F              2079:   Top log interval
 CS1 .IN            8.625:   Casing size
 CBD1.      8.625' @ 533':   Casing driller 1
 BS1 .IN            7.875:   Bit size
 BSD1.F              4100:   Depth drilled with bit1
 DFT .            GEL KCL:   Type fluid in hole
 DFD .                9.1:   Density
 DFV .                 38:   Viscosity
 DFPH.                8.0:   pH
 DFL .                 14:   Fluid loss
 MSS .           FLOWLINE:   Source of sample
 RMS .OHMM            .58:   Rm
 MST .F                84:   Rm Meas. temp.
 RMF .OHMM            .50:   Rmf
 MFST.F                73:   Rmf Meas. temp.
 RMC .OHMM            .72:   Rmc
 MCST.F                84:   Rmc Meas. temp.
 MFSS.               MEAS:   Source Rmf.
 MCSS.               CALC:   Source Rmc.
 RMB .OHMM            .36:   Rm. at BHT
 BHT .F               134:   BHT.
 TCS .HRS               7:   Time Circ. stopped
 MRT .F               134:   Maximum recorded temp.
 LUN .               6307:   Logging unit number
 LUL .               GLTE:   Logging unit location
 ENGI.            DEYOUNG:   Recorded By
 WITN.             STRONG:   Witnessed by
 ORIG.         2.5" PRINT:   Origin of data
 UWI .     49025109650000:   Unique Well ID
 DICO. A2D TECHNOLOGIES, INC.:   Digitizing Company
~OTHER INFORMATION
~A   DEPT     RHOB       CORR       TEND       NPHI        SPR         GRR      CALR       RILD       RILM       RSFL       TENR         DT       TENS   
# ...
 2178.0000     2.4490     0.0210   -47.1180     0.2520   -41.4410   110.2180     8.6240     3.1530     3.4430     3.8270   -45.7210    96.8380   -37.8610
 2178.5000     2.4670     0.0070   -47.4730     0.2440   -41.3930   109.4620     8.6230     3.1530     3.5510     3.7140   -45.4480    96.5810   -37.9630
 2179.0000     2.4570     0.0140   -47.8270     0.2480   -40.9580   111.5500     8.6230     3.1530     3.5810     4.1570   -45.1750    95.8600   -38.0640
 2179.5000     2.4350     0.0180   -48.1810     0.2610   -41.1030   116.0300     8.6220     3.2910     3.5810     4.7920   -44.9010    95.1280   -38.1660
 2180.0000     2.4160     0.0310   -48.3070     0.2780   -41.5820   120.0420     8.6220     3.5340     3.5810     4.6720   -44.6280    96.1220   -38.2670
 2180.5000     2.4330    -0.0160   -48.0020     0.2650   -42.0810   123.5590     8.6210     3.7780     3.5810     4.3880   -44.3550    96.9580   -38.3690
 2181.0000     2.4520    -0.0460   -47.6980     0.2460   -42.5570   122.2400     8.6200     4.0210     3.8740     4.1050   -44.0820    97.6920   -38.4700
 2181.5000     2.4740    -0.0390   -47.3930     0.2400   -43.0380   124.2110     8.6200     4.2640     4.2030     3.9220   -43.8090    96.0500   -38.5720
 2182.0000     2.4870    -0.0280   -47.0890     0.2460   -43.5310   126.3280     8.6190     4.5070     4.5330     4.7510   -43.5350    95.3400   -38.6730
 2182.5000     2.4880    -0.0200   -46.7840     0.2500   -43.6880   128.2770     8.6180     4.7500     4.8620     5.9610   -43.2620    95.0320   -38.7740
 2183.0000     2.4900     0.0040   -46.4800     0.2440   -43.6810   128.6630     8.6180     4.9930     5.1530     5.6770   -42.9890    95.0000   -38.8760
 2183.5000     2.4970     0.0260   -46.1750     0.2390   -43.6810   122.6270     8.6170     5.2360     5.3340     5.2480   -42.7160    95.1030   -38.9770
 2184.0000     2.5040     0.0330   -45.8710     0.2450   -43.6760   121.5610     8.6170     5.4790     5.5330     5.3450   -42.4430    94.7380   -39.0790
 2184.5000     2.5110     0.0250   -45.5660     0.2460   -43.6770   119.9120     8.6160     5.7220     5.7310     5.9410   -42.1690    94.2230   -39.1800
 2185.0000     2.5180     0.0150   -45.2620     0.2430   -43.3180   118.1940     8.6150     5.8600     5.9300     6.5420   -41.8960    93.3770   -39.2820
 2185.5000     2.5250     0.0060   -44.9570     0.2390   -42.7780   118.3290     8.6150     5.8730     6.1290     7.1430   -41.6230    92.1410   -39.3830
 2186.0000     2.5260     0.0070   -44.6530     0.2500   -42.2540   118.6880     8.6140     5.8870     6.2960     7.5530   -41.3500    91.7460   -39.4840
 2186.5000     2.5260     0.0080   -44.3480     0.2630   -41.7870   119.1490     8.6130     5.9000     6.2870     7.4170   -41.0760    92.0550   -39.5860
 2187.0000     2.5200     0.0090   -44.0440     0.2770   -41.3800   119.6280     8.6130     5.9130     6.2640     6.9350   -40.8030    92.8810   -39.6870
 2187.5000     2.5050     0.0150   -43.7390     0.2770   -41.2190   120.0240     8.6120     5.9270     6.2410     6.5810   -40.5300    94.0140   -39.7890
 2188.0000     2.4970     0.0360   -43.4340     0.2680   -40.8620   120.4930     8.6120     5.9400     6.2180     6.2260   -40.2570    94.6330   -39.8900
 2188.5000     2.4900     0.0450   -43.1300     0.2560   -40.9990   119.8350     8.6110     5.9530     6.1960     5.9610   -39.9840    95.0450   -39.9920
 2189.0000     2.4850     0.0350   -42.8250     0.2400   -41.3090   118.8730     8.6100     5.9610     6.1820     5.8540   -39.7100    95.7200   -40.0930
 2189.5000     2.4790     0.0040   -42.5210     0.2440   -41.1380   117.9430     8.6100     6.0760     6.2960     5.9610   -39.4370    94.8710   -40.1950
 2190.0000     2.4690    -0.0270   -42.2160     0.2500   -41.0490   114.5280     8.6090     6.5100     6.2960     6.0710   -39.1640    94.0470   -40.2960
 2190.5000     2.4590    -0.0470   -41.9120     0.2560   -40.9450   111.7540     8.6080     6.9440     6.5860     7.0960   -38.8910    93.2240   -40.3970
 2191.0000     2.4520    -0.0510   -41.6070     0.2570   -40.8310   108.6750     8.6080     7.3780     6.9830     7.9770   -38.6170    92.4620   -40.4990
 2191.5000     2.4500    -0.0340   -41.3030     0.2570   -40.7110   109.8200     8.6070     7.8120     7.3800     8.1550   -38.3440    91.9720   -40.6000
 2192.0000     2.4520    -0.0150   -40.9980     0.2580   -40.6320   112.6280     8.6070     8.1230     7.7770     8.3730   -38.0710    91.9720   -40.7020
 2192.5000     2.4550    -0.0130   -40.6940     0.2550   -40.5570   115.3140     8.6060     8.2720     8.1740     8.5920   -37.7980    91.9720   -40.8030
 2193.0000     2.4580    -0.0100   -40.3890     0.2490   -41.3250   117.8910     8.6050     8.4240     8.3740     8.8100   -37.5250    92.0670   -32.9390
 2193.5000     2.4690    -0.0060   -40.0850     0.2430   -42.0910   117.0230     8.6050     8.5790     8.5100     9.0610   -37.2510    92.3240   -32.9390
 2194.0000     2.4790    -0.0030   -39.7800     0.2370   -42.4150   112.1360     8.6040     8.5790     8.6460     9.1010   -36.9780    92.5640   -32.9390
 2194.5000     2.4890    -0.0040   -39.4760     0.2310   -42.0580   107.9030     8.6030     8.5790     8.7820     9.1490   -36.7050    92.0140   -32.9390
 2195.0000     2.4920    -0.0060   -39.1710     0.2350   -41.7550   103.9760     8.6030     8.7370     8.8970     9.1970   -36.4320    91.0850   -32.9390
 2195.5000     2.4960    -0.0090   -38.8670     0.2400   -41.4620   104.8880     8.6020     8.7370     8.8970     9.2270   -36.1580    89.8030   -32.9390
 2196.0000     2.4990    -0.0020   -38.5620     0.2440   -41.1460   108.1510     8.6020     8.8970     8.9090     9.3970   -35.8850    89.5070   -40.8280
 2196.5000     2.5120     0.0270   -38.2570     0.2480   -40.8490   113.1790     8.6010     8.8970     8.9220     9.3970   -35.6120    89.2130   -40.8280
 2197.0000     2.5180     0.0420   -37.9530     0.2500   -40.5230   116.8190     8.6000     8.8900     8.9340     9.3970   -35.3390    89.0470   -40.8280
 2197.5000     2.5080     0.0380   -37.6480     0.2510   -40.2760   117.2290     8.6000     8.8670     8.9460     9.2270   -35.0660    89.1500   -40.8280
 2198.0000     2.5070     0.0390   -37.3440     0.2500   -40.0160   120.5360     8.5990     8.8440     8.9580     8.9770   -34.7920    89.2530   -40.8280
 2198.5000     2.5070     0.0410   -37.0390     0.2460   -39.7510   125.0000     8.5980     8.8210     8.9700     8.7370   -34.5190    89.3560   -40.8280
 2199.0000     2.5070     0.0430   -36.7350     0.2460   -39.4870   125.7460     8.5980     8.7980     8.9820     8.8590   -34.2460    89.6610   -40.8280
 2199.5000     2.5080     0.0450   -36.4300     0.2470   -39.3310   122.2570     8.5970     8.7750     8.9950     9.1460   -33.9730    90.0750   -40.8280
 2200.0000     2.5000     0.0460   -36.1260     0.2480   -39.8980   121.3250     8.5970     8.7520     9.0070     9.4900   -33.7000    90.2940   -40.8280
 2200.5000     2.4860     0.0500   -35.8210     0.2510   -40.4760   120.4010     8.5960     8.7290     9.0190     9.8330   -33.4260    90.5130   -40.8280
 2201.0000     2.4810     0.0360   -35.5170     0.2530   -40.9120   120.5320     8.5950     8.7050     9.0310    10.1770   -33.1530    90.3270   -40.8280
 2201.5000     2.4840     0.0260   -35.2120     0.2580   -40.9240   123.7450     8.5950     8.6820     9.0430    10.4810   -32.8800    90.8360   -40.8280
 2202.0000     2.4860     0.0170   -34.9080     0.2560   -41.2610   121.3710     8.5940     8.6600     9.0590     9.8520   -32.8060    91.2320   -40.8280
 2202.5000     2.4890     0.0110   -34.6030     0.2500   -41.5570   116.6830     8.5930     8.6360     9.0450     9.3970   -32.8060    91.3850   -40.8280
 2203.0000     2.4910     0.0040   -34.2990     0.2480   -41.8700   112.6840     8.5930     8.6120     9.0140     9.2770   -32.8060    91.5370   -40.8280
 2203.5000     2.4880     0.0010   -33.9940     0.2500   -42.1790   109.5580     8.5920     8.5820     8.9820     9.1780   -32.8060    91.6900   -40.8280
