~VERSION INFORMATION
 VERS.                2.0:   CWLS LOG ASCII STANDARD - VERSION 2.0
 WRAP.                 NO:   ONE LINE PER DEPTH STEP
~WELL INFORMATION
#MNEM.UNIT      DATA TYPE    INFORMATION
#----------   ------------   ------------------------------
 STRT.F           20.0000:   START DEPTH
 STOP.F         4105.0000:   STOP DEPTH
 STEP.F            0.5000:   STEP LENGTH
 NULL.          -999.2500:   NO VALUE
 COMP. LAWRENCE ALLISON AND ASSOCAITES:   COMPANY
 WELL. LAWRENCE"X" #88-28:   WELL
 FLD .              N P R:   FIELD
 LOC .      S28 T39N R78W:   LOCATION
 CNTY.            NATRONA:   COUNTY
 STAT.            WYOMING:   STATE
 CTRY. UNITED STATES OF AMERICA:   COUNTRY
 SRVC.      DRESSER ATLAS:   SERVICE COMPANY
 DATE.        08-MAR-1984:   LOGDATE
 API .     49025109650000:   API NUMBER
~CURVE INFORMATION
#MNEM.UNIT       API CODE    CURVE DESCRIPTION
#----------   ------------   ------------------------------
 DEPT.F                  :   
 RHOB.G/C3   45 350 01 00:   BULK DENSITY
 CORR.G/C3   45 356 01 00:   DENSITY CORRECTION
 TEND.LBS    45 635 01 00:   TENSION FROM DENSITY LOG
 NPHI.DEC    42 890 03 00:   NEUTRON POROSITY SANDSTONE
 SPR .MV     07 010 01 00:   SPONTANEOUS POTENTIAL
 GRR .GAPI   07 310 01 00:   GAMMA RAY FROM RESISTIVITY
 CALR.IN     07 280 01 00:   CALIPER FROM RESISTIVITY
 RILD.OHMM   07 120 46 00:   DEEP INDUCTION RESISTIVITY
 RILM.OHMM   07 120 44 00:   INDUCTION LOG MEDIUM RESISTIVITY
 RSFL.OHMM   07 220 01 00:   SPHERICALLY FOCUSED RES.
 TENR.LBS    07 635 01 00:   TENSION FROM RESISTIVITY
 DT  .US/F   60 520 00 00:   DELTA TIME
 TENS.LBS    60 635 01 00:   TENSION
~PARAMETER INFORMATION
#MNEM.UNIT          VALUE    DESCRIPTION
#----------   ------------   ------------------------------
 EKB .F         5096.0000:   Kelly bushing
 EGL .F         5085.0000:   Ground level
 TD  .F         4100.0000:   Total depth
 DATE.        08-MAR-1984:   Date logged
 CLNT.            A2DTECH:   Client Code
 SL  .  600' FSL & 80 FEL:   Surface Location
 PD  .                 GL:   Permanent Datum
 EPD .F              5085:   Elevation Permanent Datum
 LMF .                 KB:   Log Measured From
 DMF .                 KB:   Drilling Measured From
 DAPD.F                11:   Feet Above Permanent Datum
 DD  .F              4100:   Depth driller
 DL  .F              4098:   Depth logger
 BLI .F              4096:   Bottom log interval
 TLI .F              2079:   Top log interval
 CS1 .IN            8.625:   Casing size
 CBD1.      8.625' @ 533':   Casing driller 1
 BS1 .IN            7.875:   Bit size
 BSD1.F              4100:   Depth drilled with bit1
 DFT .            GEL KCL:   Type fluid in hole
 DFD .                9.1:   Density
 DFV .                 38:   Viscosity
 DFPH.                8.0:   pH
 DFL .                 14:   Fluid loss
 MSS .           FLOWLINE:   Source of sample
 RMS .OHMM            .58:   Rm
 MST .F                84:   Rm Meas. temp.
 RMF .OHMM            .50:   Rmf
 MFST.F                73:   Rmf Meas. temp.
 RMC .OHMM            .72:   Rmc
 MCST.F                84:   Rmc Meas. temp.
 MFSS.               MEAS:   Source Rmf.
 MCSS.               CALC:   Source Rmc.
 RMB .OHMM            .36:   Rm. at BHT
 BHT .F               134:   BHT.
 TCS .HRS               7:   Time Circ. stopped
 MRT .F               134:   Maximum recorded temp.
 LUN .               6307:   Logging unit number
 LUL .               GLTE:   Logging unit location
 ENGI.            DEYOUNG:   Recorded By
 WITN.             STRONG:   Witnessed by
 ORIG.         2.5" PRINT:   Origin of data
 UWI .     49025109650000:   Unique Well ID
 DICO. A2D TECHNOLOGIES, INC.:   Digitizing Company
~OTHER INFORMATION
~A   DEPT     RHOB       CORR       TEND       NPHI        SPR         GRR      CALR       RILD       RILM       RSFL       TENR         DT       TENS   
# ...
 2672.0000     2.5410    -0.0010   -49.7620     0.1780   -43.5570   121.6070     8.3640     5.4990     5.5430     5.8540   -33.8300    80.0490   -40.8280
 2672.5000     2.5300     0.0050   -53.1750     0.1830   -41.8410   118.5160     8.3660     5.4230     5.5430     6.5290   -34.9070    79.7440   -40.8280
 2673.0000     2.5240     0.0330   -56.5870     0.1880   -40.9740   120.9380     8.3670     5.3470     5.5430     6.3460   -35.9850    79.9090   -40.8280
 2673.5000     2.5220     0.0460   -60.0000     0.1880   -41.4040   124.4550     8.3690     5.2710     5.6440     6.1820   -37.0630    80.1380   -40.8280
 2674.0000     2.5180     0.0520   -63.4130     0.1790   -41.7390   127.3460     8.3710     5.4980     5.7940     6.4660   -38.1400    80.2760   -40.8280
 2674.5000     2.5180     0.0380   -60.8990     0.1670   -42.0600   123.2540     8.3720     5.8530     6.2650     6.8940   -39.2180    79.7630   -40.8280
 2675.0000     2.5200     0.0210   -56.3490     0.1560   -42.0040   109.4980     8.3740     6.2670     6.7360     7.3450   -40.2950    78.4810   -40.8280
 2675.5000     2.5320     0.0120   -51.7990     0.1470   -41.9310    95.6900     8.3760     6.7750     7.2070     7.7960   -41.3730    76.6350   -40.8280
 2676.0000     2.5420     0.0010   -48.4130     0.1490   -41.8360    92.0120     8.3780     7.2830     7.6780     8.2460   -42.4510    75.4090   -40.8280
 2676.5000     2.5530     0.0070   -48.4130     0.1510   -41.7380    93.2680     8.3790     7.7910     8.1490     8.7370   -43.5280    74.5120   -40.8280
 2677.0000     2.5750     0.0320   -48.4130     0.1550   -41.8430    94.0920     8.3810     8.2990     8.6200     8.8970   -44.6060    73.6140   -40.8280
 2677.5000     2.6200     0.0410   -48.4130     0.1600   -42.2970    88.2670     8.3830     8.4240     8.8270     9.1590   -45.6830    72.2360   -40.8280
 2678.0000     2.6780     0.0380   -48.4130     0.1610   -42.7320    81.9860     8.3850     8.4240     8.9470     9.5690   -46.7610    70.5050   -40.8280
 2678.5000     2.6730     0.0360   -48.4130     0.1590   -43.1790    73.0110     8.3860     8.4240     9.0610    10.1350   -47.8390    68.7750   -40.8280
 2679.0000     2.6160     0.0340   -48.4130     0.1610   -43.6120    78.2010     8.3880     8.4240     9.0610    10.1060   -48.5260    68.0370   -40.8280
 2679.5000     2.5800     0.0310   -48.4130     0.1650   -44.0460    92.3050     8.3900     8.4240     8.9330     9.5060   -48.2010    69.8820   -40.8280
 2680.0000     2.5570     0.0270   -48.4130     0.1690   -44.0630   104.5200     8.3910     8.4240     8.7900     8.2720   -47.8760    72.2650   -40.8280
 2680.5000     2.5640     0.0250   -48.4130     0.1620   -43.7760   102.8660     8.3920     8.4240     8.6480     8.4240   -47.5510    74.7440   -40.8280
 2681.0000     2.5710     0.0240   -48.4130     0.1590   -43.3890   101.5340     8.3930     8.4240     8.5050     8.7130   -47.2260    75.5540   -40.8280
 2681.5000     2.5740     0.0530   -48.4130     0.1620   -43.0080   100.2400     8.3940     8.3400     8.3620     9.0330   -46.9000    75.4800   -40.8280
 2682.0000     2.5690     0.0570   -48.4130     0.1690   -42.6260   103.2230     8.3950     8.0120     8.2190     9.5690   -46.5750    75.4040   -40.8280
 2682.5000     2.5640     0.0630   -48.4130     0.1770   -42.2520   107.7950     8.3960     7.6850     8.0630     9.3410   -46.2500    75.8970   -40.8280
 2683.0000     2.5590     0.0660   -48.4130     0.1840   -41.8730   112.2840     8.3970     7.3580     7.8800     8.6460   -45.9250    77.0410   -40.8280
 2683.5000     2.5540     0.0640   -48.4130     0.1860   -41.4560   116.8700     8.3980     7.0310     7.6970     7.6910   -45.6000    78.5800   -40.8280
 2684.0000     2.5540     0.0620   -48.4130     0.1870   -41.4960   119.1700     8.3990     6.5290     7.4170     7.8260   -45.2750    79.9410   -40.8280
 2684.5000     2.5760     0.0690   -48.4130     0.1870   -41.9920   115.1050     8.4000     6.6730     7.4740     8.0410   -44.9500    79.9410   -40.8280
 2685.0000     2.5970     0.0760   -48.2460     0.1850   -42.4460   109.6280     8.4000     6.9800     7.5970     8.2720   -44.6240    79.3000   -40.8280
 2685.5000     2.6040     0.0810   -48.0410     0.1830   -42.9030   104.3500     8.4010     7.2860     7.7200     8.8920   -44.2990    78.1890   -40.8280
 2686.0000     2.6070     0.0810   -47.8370     0.1800   -43.3560   101.0060     8.4020     7.5930     7.8440     9.5690   -43.9740    77.4600   -40.8280
 2686.5000     2.6060     0.0740   -47.6320     0.1830   -43.8120   101.6030     8.4030     7.8330     7.9670     8.9030   -43.6490    77.7670   -40.8280
 2687.0000     2.6030     0.0670   -47.4270     0.1890   -44.3080   102.4040     8.4040     7.9770     8.0900     8.2720   -43.3240    78.3230   -40.8280
 2687.5000     2.5960     0.0530   -47.2220     0.1870   -44.2410   103.6990     8.4050     8.1330     8.2130     8.2720   -42.9990    79.1520   -40.8280
 2688.0000     2.5890     0.0320   -47.0170     0.1790   -43.7850   101.9430     8.4060     8.1690     8.3090     8.2720   -42.6730    79.2620   -40.8280
 2688.5000     2.5950     0.0190   -46.8130     0.1780   -43.3170   100.1730     8.4070     8.2040     8.3800     8.2720   -42.3480    79.0570   -40.8280
 2689.0000     2.6010     0.0370   -46.6080     0.1800   -43.6550    98.7180     8.4080     8.2400     8.4500     8.5130   -42.0230    78.6130   -40.8280
 2689.5000     2.6030     0.0530   -46.4030     0.1810   -44.0430    99.5640     8.4090     8.2750     8.5210     8.7600   -41.6980    77.9290   -40.8280
 2690.0000     2.6050     0.0750   -46.1980     0.1800   -44.4700   100.8150     8.4100     8.3110     8.5920     9.0070   -41.3730    77.3770   -40.8280
 2690.5000     2.6080     0.0940   -45.9940     0.1790   -44.8800   101.6850     8.4100     8.3460     8.6630     9.2270   -41.0480    77.1930   -40.8280
 2691.0000     2.6050     0.1190   -45.7890     0.1790   -45.2860   102.4540     8.4110     8.3820     8.7370     9.1790   -40.7230    77.0390   -40.8280
 2691.5000     2.6000     0.1280   -45.5840     0.1790   -45.7100   103.1440     8.4120     8.4170     8.7370     9.1140   -40.3970    76.8860   -40.8280
 2692.0000     2.5990     0.1300   -45.3790     0.1780   -46.1150   103.8000     8.4130     8.3120     8.7370     9.0480   -40.0720    76.1930   -40.8280
 2692.5000     2.5920     0.0590   -45.1750     0.1770   -46.4360   101.9740     8.4140     8.1700     8.7370     8.9820   -39.7470    76.2640   -40.8280
 2693.0000     2.5920     0.0310   -44.9700     0.1780   -46.4820   100.1490     8.4150     8.0290     8.5560     8.9160   -39.4220    76.3370   -40.8280
 2693.5000     2.5890     0.0180   -44.7650     0.1800   -46.0460   100.5990     8.4160     7.8880     8.3470     8.6640   -39.0970    76.5630   -40.8280
 2694.0000     2.5800     0.0150   -44.5600     0.1830   -45.3120   101.0940     8.4170     7.7460     8.1370     8.4390   -38.7720    77.2040   -40.8280
 2694.5000     2.5770     0.0290   -44.3560     0.1850   -44.6140   101.6710     8.4180     7.6050     7.9280     8.2130   -38.4460    77.8450   -40.8280
 2695.0000     2.5750     0.0600   -44.1510     0.1820   -43.9480   102.2210     8.4190     7.4630     7.7190     7.9880   -38.1210    78.3630   -40.8280
 2695.5000     2.5760     0.0610   -43.9460     0.1770   -43.2620   102.7870     8.4190     7.3220     7.5100     7.7620   -37.7960    78.7570   -40.8280
 2696.0000     2.5760     0.0520   -43.7410     0.1760   -42.4580   102.8190     8.4200     7.1810     7.2830     7.6910   -37.4710    78.5960   -40.8280
 2696.5000     2.5750     0.0350   -43.5370     0.1780   -42.0850   101.5940     8.4210     7.0390     7.5250     7.8440   -37.1460    77.9980   -40.8280
 2697.0000     2.5710     0.0190   -43.3320     0.1790   -42.5240   100.3780     8.4220     6.8960     7.7900     8.0120   -36.8210    77.3770   -40.8280
 2697.5000     2.5670     0.0140   -43.1270     0.1800   -43.1180    99.0360     8.4230     7.2310     8.0550     8.1790   -36.4960    77.2670   -40.8280
