~VERSION INFORMATION
 VERS.                2.0:   CWLS LOG ASCII STANDARD - VERSION 2.0
 WRAP.                 NO:   ONE LINE PER DEPTH STEP
~WELL INFORMATION
#MNEM.UNIT      DATA TYPE    INFORMATION
#----------   ------------   ------------------------------
 STRT.F           20.0000:   START DEPTH
 STOP.F         4105.0000:   STOP DEPTH
 STEP.F            0.5000:   STEP LENGTH
 NULL.          -999.2500:   NO VALUE
 COMP. LAWRENCE ALLISON AND ASSOCAITES:   COMPANY
 WELL. LAWRENCE"X" #88-28:   WELL
 FLD .              N P R:   FIELD
 LOC .      S28 T39N R78W:   LOCATION
 CNTY.            NATRONA:   COUNTY
 STAT.            WYOMING:   STATE
 CTRY. UNITED STATES OF AMERICA:   COUNTRY
 SRVC.      DRESSER ATLAS:   SERVICE COMPANY
 DATE.        08-MAR-1984:   LOGDATE
 API .     49025109650000:   API NUMBER
~CURVE INFORMATION
#MNEM.UNIT       API CODE    CURVE DESCRIPTION
#----------   ------------   ------------------------------
 DEPT.F                  :   
 RHOB.G/C3   45 350 01 00:   BULK DENSITY
 CORR.G/C3   45 356 01 00:   DENSITY CORRECTION
 TEND.LBS    45 635 01 00:   TENSION FROM DENSITY LOG
 NPHI.DEC    42 890 03 00:   NEUTRON POROSITY SANDSTONE
 SPR .MV     07 010 01 00:   SPONTANEOUS POTENTIAL
 GRR .GAPI   07 310 01 00:   GAMMA RAY FROM RESISTIVITY
 CALR.IN     07 280 01 00:   CALIPER FROM RESISTIVITY
 RILD.OHMM   07 120 46 00:   DEEP INDUCTION RESISTIVITY
 RILM.OHMM   07 120 44 00:   INDUCTION LOG MEDIUM RESISTIVITY
 RSFL.OHMM   07 220 01 00:   SPHERICALLY FOCUSED RES.
 TENR.LBS    07 635 01 00:   TENSION FROM RESISTIVITY
 DT  .US/F   60 520 00 00:   DELTA TIME
 TENS.LBS    60 635 01 00:   TENSION
~PARAMETER INFORMATION
#MNEM.UNIT          VALUE    DESCRIPTION
#----------   ------------   ------------------------------
 EKB .F         5096.0000:   Kelly bushing
 EGL .F         5085.0000:   Ground level
 TD  .F         4100.0000:   Total depth
 DATE.        08-MAR-1984:   Date logged
 CLNT.            A2DTECH:   Client Code
 SL  .  600' FSL & 80 FEL:   Surface Location
 PD  .                 GL:   Permanent Datum
 EPD .F              5085:   Elevation Permanent Datum
 LMF .                 KB:   Log Measured From
 DMF .                 KB:   Drilling Measured From
 DAPD.F                11:   Feet Above Permanent Datum
 DD  .F              4100:   Depth driller
 DL  .F              4098:   Depth logger
 BLI .F              4096:   Bottom log interval
 TLI .F              2079:   Top log interval
 CS1 .IN            8.625:   Casing size
 CBD1.      8.625' @ 533':   Casing driller 1
 BS1 .IN            7.875:   Bit size
 BSD1.F              4100:   Depth drilled with bit1
 DFT .            GEL KCL:   Type fluid in hole
 DFD .                9.1:   Density
 DFV .                 38:   Viscosity
 DFPH.                8.0:   pH
 DFL .                 14:   Fluid loss
 MSS .           FLOWLINE:   Source of sample
 RMS .OHMM            .58:   Rm
 MST .F                84:   Rm Meas. temp.
 RMF .OHMM            .50:   Rmf
 MFST.F                73:   Rmf Meas. temp.
 RMC .OHMM            .72:   Rmc
 MCST.F                84:   Rmc Meas. temp.
 MFSS.               MEAS:   Source Rmf.
 MCSS.               CALC:   Source Rmc.
 RMB .OHMM            .36:   Rm. at BHT
 BHT .F               134:   BHT.
 TCS .HRS               7:   Time Circ. stopped
 MRT .F               134:   Maximum recorded temp.
 LUN .               6307:   Logging unit number
 LUL .               GLTE:   Logging unit location
 ENGI.            DEYOUNG:   Recorded By
 WITN.             STRONG:   Witnessed by
 ORIG.         2.5" PRINT:   Origin of data
 UWI .     49025109650000:   Unique Well ID
 DICO. A2D TECHNOLOGIES, INC.:   Digitizing Company
~OTHER INFORMATION
~A   DEPT     RHOB       CORR       TEND       NPHI        SPR         GRR      CALR       RILD       RILM       RSFL       TENR         DT       TENS   
# ...
 1476.0000  -999.2500  -999.2500  -999.2500  -999.2500   -37.7630    98.8000     9.2090     7.8880     7.5980     7.2490   -47.6400  -999.2500  -999.2500
 1476.5000  -999.2500  -999.2500  -999.2500  -999.2500   -37.3680    98.5430     9.2070     7.8550     7.5260     7.3180   -47.4980  -999.2500  -999.2500
 1477.0000  -999.2500  -999.2500  -999.2500  -999.2500   -38.4840    97.0070     9.2050     7.8330     7.4540     7.3870   -47.3550  -999.2500  -999.2500
 1477.5000  -999.2500  -999.2500  -999.2500  -999.2500   -39.5300    94.7520     9.2040     7.8330     7.3830     7.4560   -47.2120  -999.2500  -999.2500
 1478.0000  -999.2500  -999.2500  -999.2500  -999.2500   -40.2520    94.3060     9.2020     7.7500     7.2830     7.5250   -47.0700  -999.2500  -999.2500
 1478.5000  -999.2500  -999.2500  -999.2500  -999.2500   -40.4830    96.5180     9.2010     7.6430     7.3330     7.5530   -46.9270  -999.2500  -999.2500
 1479.0000  -999.2500  -999.2500  -999.2500  -999.2500   -40.5070    98.3550     9.1990     7.5360     7.4170     7.4980   -46.7840  -999.2500  -999.2500
 1479.5000  -999.2500  -999.2500  -999.2500  -999.2500   -40.5370    98.8570     9.1970     7.4170     7.5000     7.3730   -46.6420  -999.2500  -999.2500
 1480.0000  -999.2500  -999.2500  -999.2500  -999.2500   -40.9370    99.3070     9.1960     7.4170     7.5830     7.2490   -46.4990  -999.2500  -999.2500
 1480.5000  -999.2500  -999.2500  -999.2500  -999.2500   -41.4120   100.7400     9.1940     7.6320     7.6670     7.1250   -46.3570  -999.2500  -999.2500
 1481.0000  -999.2500  -999.2500  -999.2500  -999.2500   -41.8930   102.3310     9.1930     7.7420     7.7500     7.0220   -46.2140  -999.2500  -999.2500
 1481.5000  -999.2500  -999.2500  -999.2500  -999.2500   -42.3710   104.0400     9.1910     7.8510     7.8340     7.4770   -46.0710  -999.2500  -999.2500
 1482.0000  -999.2500  -999.2500  -999.2500  -999.2500   -42.8430    99.8710     9.1890     7.9600     7.9170     7.7240   -45.9290  -999.2500  -999.2500
 1482.5000  -999.2500  -999.2500  -999.2500  -999.2500   -43.2750    94.4990     9.1880     8.0690     8.0000     7.7770   -45.7860  -999.2500  -999.2500
 1483.0000  -999.2500  -999.2500  -999.2500  -999.2500   -43.4280    91.4730     9.1860     8.1780     8.1230     7.8300   -45.6430  -999.2500  -999.2500
 1483.5000  -999.2500  -999.2500  -999.2500  -999.2500   -43.5450    91.4280     9.1850     8.2720     8.1070     7.8820   -45.5010  -999.2500  -999.2500
 1484.0000  -999.2500  -999.2500  -999.2500  -999.2500   -43.6560    92.6830     9.1830     8.2390     8.0750     7.9610   -45.3580  -999.2500  -999.2500
 1484.5000  -999.2500  -999.2500  -999.2500  -999.2500   -43.2540    93.7440     9.1820     8.2090     8.0440     7.9520   -45.2150  -999.2500  -999.2500
 1485.0000  -999.2500  -999.2500  -999.2500  -999.2500   -42.8040    94.2200     9.1820     8.1790     8.0130     7.8320   -45.0730  -999.2500  -999.2500
 1485.5000  -999.2500  -999.2500  -999.2500  -999.2500   -42.4650    95.1820     9.1820     8.1500     7.9820     7.7120   -44.9300  -999.2500  -999.2500
 1486.0000  -999.2500  -999.2500  -999.2500  -999.2500   -41.5940    97.3200     9.1820     8.1230     7.9510     7.5910   -44.7880  -999.2500  -999.2500
 1486.5000  -999.2500  -999.2500  -999.2500  -999.2500   -40.5870    99.7450     9.1820     8.1590     7.9190     7.4170   -44.6450  -999.2500  -999.2500
 1487.0000  -999.2500  -999.2500  -999.2500  -999.2500   -39.5590   102.1150     9.1820     8.1910     7.8880     7.4490   -44.5020  -999.2500  -999.2500
 1487.5000  -999.2500  -999.2500  -999.2500  -999.2500   -38.7710   104.4430     9.1820     8.2230     7.8570     7.5070   -44.3600  -999.2500  -999.2500
 1488.0000  -999.2500  -999.2500  -999.2500  -999.2500   -38.5320   107.3810     9.1820     8.2560     7.8420     7.6120   -44.2170  -999.2500  -999.2500
 1488.5000  -999.2500  -999.2500  -999.2500  -999.2500   -38.5580   110.0220     9.1820     8.2880     7.8810     7.8780   -44.0740  -999.2500  -999.2500
 1489.0000  -999.2500  -999.2500  -999.2500  -999.2500   -39.3820   106.6090     9.1820     8.3210     7.9210     8.2720   -43.9320  -999.2500  -999.2500
 1489.5000  -999.2500  -999.2500  -999.2500  -999.2500   -40.0960   101.1670     9.1820     8.3530     7.9600     8.2240   -43.7890  -999.2500  -999.2500
 1490.0000  -999.2500  -999.2500  -999.2500  -999.2500   -40.5450    98.1450     9.1820     8.3850     7.9990     8.1280   -43.6460  -999.2500  -999.2500
 1490.5000  -999.2500  -999.2500  -999.2500  -999.2500   -40.2470    98.5470     9.1820     8.4180     8.0380     8.0330   -43.5040  -999.2500  -999.2500
 1491.0000  -999.2500  -999.2500  -999.2500  -999.2500   -40.0240    99.6540     9.1820     8.3890     8.0770     7.9000   -43.3610  -999.2500  -999.2500
 1491.5000  -999.2500  -999.2500  -999.2500  -999.2500   -39.7600   101.3920     9.1820     8.3440     8.1220     7.8330   -43.2190  -999.2500  -999.2500
 1492.0000  -999.2500  -999.2500  -999.2500  -999.2500   -40.2910   100.7080     9.1820     8.3000     8.1010     7.8330   -43.0760  -999.2500  -999.2500
 1492.5000  -999.2500  -999.2500  -999.2500  -999.2500   -40.9420    99.6720     9.1820     8.2560     8.0780     7.8330   -42.9330  -999.2500  -999.2500
 1493.0000  -999.2500  -999.2500  -999.2500  -999.2500   -41.6140    99.1230     9.1820     8.2110     8.0540     7.8330   -42.7910  -999.2500  -999.2500
 1493.5000  -999.2500  -999.2500  -999.2500  -999.2500   -42.2730    99.9220     9.1820     8.1670     8.0300     7.7550   -42.6480  -999.2500  -999.2500
 1494.0000  -999.2500  -999.2500  -999.2500  -999.2500   -42.9300   102.1000     9.1820     8.1220     8.0060     7.6880   -42.5050  -999.2500  -999.2500
 1494.5000  -999.2500  -999.2500  -999.2500  -999.2500   -43.5960   104.8320     9.1810     8.0780     7.9810     7.6200   -42.3630  -999.2500  -999.2500
 1495.0000  -999.2500  -999.2500  -999.2500  -999.2500   -44.2340   104.0270     9.1590     8.0330     7.9570     7.5530   -42.2200  -999.2500  -999.2500
 1495.5000  -999.2500  -999.2500  -999.2500  -999.2500   -44.4970    99.6410     9.1370     7.9890     7.9330     7.4850   -42.0770  -999.2500  -999.2500
 1496.0000  -999.2500  -999.2500  -999.2500  -999.2500   -44.4180    96.3670     9.1150     7.8900     7.9100     7.4170   -41.9350  -999.2500  -999.2500
 1496.5000  -999.2500  -999.2500  -999.2500  -999.2500   -44.1740    94.2190     9.0930     7.7690     7.8860     7.3500   -41.7920  -999.2500  -999.2500
 1497.0000  -999.2500  -999.2500  -999.2500  -999.2500   -44.0220    98.8060     9.0720     7.6490     7.8610     7.2830   -41.6500  -999.2500  -999.2500
 1497.5000  -999.2500  -999.2500  -999.2500  -999.2500   -43.0950   101.5220     9.0500     7.5290     7.8310     7.3120   -41.5070  -999.2500  -999.2500
 1498.0000  -999.2500  -999.2500  -999.2500  -999.2500   -42.1680   104.8010     9.0280     7.4170     7.8280     7.3400   -41.3640  -999.2500  -999.2500
 1498.5000  -999.2500  -999.2500  -999.2500  -999.2500   -41.1920   108.2360     9.0060     7.4890     7.8380     7.3690   -41.2220  -999.2500  -999.2500
 1499.0000  -999.2500  -999.2500  -999.2500  -999.2500   -40.2130   108.2690     8.9840     7.5570     7.9740     7.3980   -41.0790  -999.2500  -999.2500
 1499.5000  -999.2500  -999.2500  -999.2500  -999.2500   -39.3200   104.3850     8.9620     7.6250     7.9790     7.4340   -40.9360  -999.2500  -999.2500
 1500.0000  -999.2500  -999.2500  -999.2500  -999.2500   -38.2230   100.8730     8.9450     7.6930     8.1250     7.4830   -40.7940  -999.2500  -999.2500
 1500.5000  -999.2500  -999.2500  -999.2500  -999.2500   -38.7230    98.5730     8.9450     7.7600     8.1250     7.5320   -40.7110  -999.2500  -999.2500
 1501.0000  -999.2500  -999.2500  -999.2500  -999.2500   -39.4180    98.4220     8.9450     7.8280     8.1210     7.5810   -40.7110  -999.2500  -999.2500
 1501.5000  -999.2500  -999.2500  -999.2500  -999.2500   -40.1460    98.4250     8.9450     7.8960     8.1220     7.6310   -40.7110  -999.2500  -999.2500
