~VERSION INFORMATION
 VERS.                2.0:   CWLS LOG ASCII STANDARD - VERSION 2.0
 WRAP.                 NO:   ONE LINE PER DEPTH STEP
~WELL INFORMATION
#MNEM.UNIT      DATA TYPE    INFORMATION
#----------   ------------   ------------------------------
 STRT.F           20.0000:   START DEPTH
 STOP.F         4105.0000:   STOP DEPTH
 STEP.F            0.5000:   STEP LENGTH
 NULL.          -999.2500:   NO VALUE
 COMP. LAWRENCE ALLISON AND ASSOCAITES:   COMPANY
 WELL. LAWRENCE"X" #88-28:   WELL
 FLD .              N P R:   FIELD
 LOC .      S28 T39N R78W:   LOCATION
 CNTY.            NATRONA:   COUNTY
 STAT.            WYOMING:   STATE
 CTRY. UNITED STATES OF AMERICA:   COUNTRY
 SRVC.      DRESSER ATLAS:   SERVICE COMPANY
 DATE.        08-MAR-1984:   LOGDATE
 API .     49025109650000:   API NUMBER
~CURVE INFORMATION
#MNEM.UNIT       API CODE    CURVE DESCRIPTION
#----------   ------------   ------------------------------
 DEPT.F                  :   
 RHOB.G/C3   45 350 01 00:   BULK DENSITY
 CORR.G/C3   45 356 01 00:   DENSITY CORRECTION
 TEND.LBS    45 635 01 00:   TENSION FROM DENSITY LOG
 NPHI.DEC    42 890 03 00:   NEUTRON POROSITY SANDSTONE
 SPR .MV     07 010 01 00:   SPONTANEOUS POTENTIAL
 GRR .GAPI   07 310 01 00:   GAMMA RAY FROM RESISTIVITY
 CALR.IN     07 280 01 00:   CALIPER FROM RESISTIVITY
 RILD.OHMM   07 120 46 00:   DEEP INDUCTION RESISTIVITY
 RILM.OHMM   07 120 44 00:   INDUCTION LOG MEDIUM RESISTIVITY
 RSFL.OHMM   07 220 01 00:   SPHERICALLY FOCUSED RES.
 TENR.LBS    07 635 01 00:   TENSION FROM RESISTIVITY
 DT  .US/F   60 520 00 00:   DELTA TIME
 TENS.LBS    60 635 01 00:   TENSION
~PARAMETER INFORMATION
#MNEM.UNIT          VALUE    DESCRIPTION
#----------   ------------   ------------------------------
 EKB .F         5096.0000:   Kelly bushing
 EGL .F         5085.0000:   Ground level
 TD  .F         4100.0000:   Total depth
 DATE.        08-MAR-1984:   Date logged
 CLNT.            A2DTECH:   Client Code
 SL  .  600' FSL & 80 FEL:   Surface Location
 PD  .                 GL:   Permanent Datum
 EPD .F              5085:   Elevation Permanent Datum
 LMF .                 KB:   Log Measured From
 DMF .                 KB:   Drilling Measured From
 DAPD.F                11:   Feet Above Permanent Datum
 DD  .F              4100:   Depth driller
 DL  .F              4098:   Depth logger
 BLI .F              4096:   Bottom log interval
 TLI .F              2079:   Top log interval
 CS1 .IN            8.625:   Casing size
 CBD1.      8.625' @ 533':   Casing driller 1
 BS1 .IN            7.875:   Bit size
 BSD1.F              4100:   Depth drilled with bit1
 DFT .            GEL KCL:   Type fluid in hole
 DFD .                9.1:   Density
 DFV .                 38:   Viscosity
 DFPH.                8.0:   pH
 DFL .                 14:   Fluid loss
 MSS .           FLOWLINE:   Source of sample
 RMS .OHMM            .58:   Rm
 MST .F                84:   Rm Meas. temp.
 RMF .OHMM            .50:   Rmf
 MFST.F                73:   Rmf Meas. temp.
 RMC .OHMM            .72:   Rmc
 MCST.F                84:   Rmc Meas. temp.
 MFSS.               MEAS:   Source Rmf.
 MCSS.               CALC:   Source Rmc.
 RMB .OHMM            .36:   Rm. at BHT
 BHT .F               134:   BHT.
 TCS .HRS               7:   Time Circ. stopped
 MRT .F               134:   Maximum recorded temp.
 LUN .               6307:   Logging unit number
 LUL .               GLTE:   Logging unit location
 ENGI.            DEYOUNG:   Recorded By
 WITN.             STRONG:   Witnessed by
 ORIG.         2.5" PRINT:   Origin of data
 UWI .     49025109650000:   Unique Well ID
 DICO. A2D TECHNOLOGIES, INC.:   Digitizing Company
~OTHER INFORMATION
~A   DEPT     RHOB       CORR       TEND       NPHI        SPR         GRR      CALR       RILD       RILM       RSFL       TENR         DT       TENS   
# ...
 2906.0000     2.3450     0.0300   -53.6390     0.1670   -50.7350    57.0120     7.9930    32.6950    28.0080    21.7070   -34.8270    73.8260   -45.4880
 2906.5000     2.3550     0.0480   -54.1490     0.1590   -50.4940    54.4180     7.9940    31.7880    28.5760    22.0210   -34.9630    73.8260   -45.5650
 2907.0000     2.3640     0.0310   -54.6590     0.1570   -50.2350    53.6020     7.9960    30.8810    29.5790    22.9690   -35.0980    71.5150   -45.6420
 2907.5000     2.3770     0.0180   -55.1690     0.1590   -49.9730    57.7160     7.9940    29.9740    28.9090    24.5250   -35.2340    68.3530   -45.7180
 2908.0000     2.3950     0.0200   -55.6790     0.1620   -49.7180    61.2620     7.9920    29.0460    27.6230    26.0820   -35.3690    66.1340   -45.7950
 2908.5000     2.4140     0.0220   -56.1880     0.1640   -49.6010    63.4910     7.9900    29.1350    26.3370    28.5220   -35.5050    64.1620   -45.8720
 2909.0000     2.4210     0.0310   -56.3490     0.1650   -49.8710    65.7610     7.9880    29.2860    24.6570    26.2910   -35.6410    65.5420   -45.9490
 2909.5000     2.4090     0.0390   -56.3490     0.1660   -50.0990    62.5250     7.9850    29.4370    25.0880    20.5540   -35.7760    67.4660   -46.0260
 2910.0000     2.3940     0.0470   -56.3490     0.1620   -50.2540    59.1420     7.9830    29.5870    26.6610    21.3190   -35.9120    69.1910   -46.1030
 2910.5000     2.3800     0.0530   -56.3490     0.1550   -51.0520    55.5520     7.9810    29.7380    28.2340    22.1800   -36.0470    70.9160   -46.1790
 2911.0000     2.3710     0.0520   -56.3490     0.1470   -52.2980    52.0360     7.9790    29.8890    29.8070    23.0410   -36.1830    72.8400   -46.2560
 2911.5000     2.3890     0.0360   -56.3490     0.1360   -53.3910    48.5050     7.9760    30.0400    30.6760    23.9030   -36.3180    72.3870   -46.3330
 2912.0000     2.4310     0.0100   -52.8890     0.1240   -54.2080    45.0460     7.9740    30.1910    30.6760    27.6000   -36.4540    70.4870   -46.4100
 2912.5000     2.4800    -0.0170   -48.4130     0.1110   -52.6210    41.5410     7.9720    30.3410    30.6760    37.3740   -36.5900    68.0770   -46.4870
 2913.0000     2.5310    -0.0370   -49.2500     0.1130   -51.5930    40.3290     7.9700    30.4920    31.2400    47.1480   -36.7250    65.6670   -46.5640
 2913.5000     2.5110    -0.0240   -50.1770     0.1240   -51.9590    39.3300     7.9680    30.6430    30.0940    56.9220   -36.8610    62.9780   -46.6400
 2914.0000     2.4460    -0.0060   -51.1040     0.1340   -52.7880    42.4460     7.9650    29.2530    28.8730    49.1410   -36.9960    65.4730   -46.7170
 2914.5000     2.3850     0.0060   -52.0310     0.1440   -53.5570    45.2710     7.9630    27.4280    27.6510    36.4070   -37.1320    68.2940   -46.7940
 2915.0000     2.3750     0.0210   -52.9580     0.1460   -54.3130    47.0240     7.9610    25.6030    26.4300    24.6570   -37.2670    71.1140   -46.8710
 2915.5000     2.3710     0.0240   -53.8850     0.1480   -55.0980    46.3700     7.9590    23.7780    25.1100    24.6570   -37.4030    73.8260   -46.9480
 2916.0000     2.3750     0.0270   -54.8120     0.1500   -55.8260    45.6110     7.9570    22.9250    24.2270    24.6570   -37.5390    74.6840   -47.0250
 2916.5000     2.3700     0.0290   -55.7400     0.1530   -56.6630    45.1350     7.9650    22.5310    23.2650    24.6570   -37.6740    74.9410   -47.1010
 2917.0000     2.3580     0.0370   -56.6530     0.1570   -56.5120    44.8820     7.9720    22.1860    22.2870    24.6570   -37.8100    75.2070   -47.1780
 2917.5000     2.3550     0.0470   -57.5400     0.1620   -56.3020    44.7860     7.9800    21.8420    21.7070    25.5710   -37.9450    75.9960   -47.2550
 2918.0000     2.3550     0.0420   -58.4270     0.1630   -56.0460    42.0380     7.9880    21.4980    21.7070    27.4770   -38.0810    76.5880   -47.3320
 2918.5000     2.3660     0.0320   -59.3130     0.1580   -55.8170    39.5250     7.9960    21.1530    23.5400    30.8280   -38.2160    77.3770   -47.4090
 2919.0000     2.4050     0.0210   -60.2000     0.1470   -55.5470    37.8520     8.0040    20.9310    27.1080    34.1790   -38.3520    75.3630   -47.4860
 2919.5000     2.4550     0.0190   -61.0870     0.1340   -55.1210    39.0370     8.0120    26.1500    30.6760    38.1650   -38.4870    72.5190   -47.5620
 2920.0000     2.4940     0.0220   -61.9740     0.1210   -54.6050    40.2170     8.0200    31.5340    34.2450    37.9240   -38.6230    69.6750   -47.6390
 2920.5000     2.5240     0.0250   -62.8610     0.1280   -54.0890    41.5100     8.0270    35.4850    37.4760    37.6270   -38.7590    66.8320   -47.7160
 2921.0000     2.4850     0.0270   -63.7470     0.1430   -53.5840    42.8760     8.0360    34.8450    34.9130    37.4760   -38.8940    64.7530   -47.7930
 2921.5000     2.4340     0.0280   -63.4840     0.1570   -53.1700    44.4510     8.0320    31.2580    29.7250    32.9930   -39.0300    66.9010   -47.8700
 2922.0000     2.3930     0.0440   -61.4440     0.1710   -53.3230    46.0840     8.0230    28.8550    24.5380    26.9970   -39.1650    71.1960   -47.9470
 2922.5000     2.3720     0.0690   -59.4050     0.1850   -53.5240    47.7200     8.0150    26.4520    19.3510    20.6830   -39.3010    75.4910   -48.0230
 2923.0000     2.3550     0.0690   -57.3650     0.1970   -53.7220    49.7140     8.0080    23.8680    16.8770    15.7820   -39.4360    78.6920   -48.1000
 2923.5000     2.3560     0.0690   -57.0320     0.1970   -53.9320    52.1580     8.0000    21.1770    15.9760    15.1840   -39.5720    80.0330   -48.1770
 2924.0000     2.3600     0.0510   -58.3920     0.1950   -53.7910    54.5880     7.9920    18.4870    15.3610    14.5440   -39.7080    80.3350   -48.2540
 2924.5000     2.3630     0.0240   -59.7510     0.1930   -53.6330    57.0110     7.9840    16.2230    15.0080    14.2820   -39.8430    80.2010   -48.3310
 2925.0000     2.3670     0.0200   -61.1110     0.1900   -53.4530    59.4690     7.9760    15.3610    14.8700    14.2820   -39.9790    80.0800   -48.4080
 2925.5000     2.3710     0.0240   -62.4710     0.1870   -53.2780    61.8710     7.9680    15.0830    14.7310    14.3410   -40.1140    79.9590   -48.4840
 2926.0000     2.3670     0.0280   -63.8310     0.1840   -53.2850    64.2730     7.9610    15.0830    14.5930    14.4390   -40.2500    79.8390   -48.5610
 2926.5000     2.3540     0.0260   -63.1590     0.1830   -53.7640    66.9410     7.9530    14.8110    14.4540    14.5440   -40.3850    79.7180   -48.6380
 2927.0000     2.3410     0.0140   -59.0790     0.1850   -54.2350    68.3410     7.9450    14.8110    14.3160    14.5440   -40.5210    79.5970   -48.7180
 2927.5000     2.3280     0.0060   -55.0000     0.1840   -54.7080    65.6510     7.9370    14.5440    14.1970    15.0830   -40.6570    79.5460   -48.6440
 2928.0000     2.3150    -0.0020   -50.9210     0.1810   -55.1890    63.2900     7.9290    14.0240    13.9660    14.8110   -40.7110    79.9610   -48.5670
 2928.5000     2.3030    -0.0060   -49.6210     0.1890   -55.6890    63.0630     7.9210    13.7990    13.7340    13.3030   -40.7110    80.4730   -48.4900
 2929.0000     2.2890    -0.0060   -52.7590     0.1960   -55.9480    63.1840     7.9190    13.5240    13.5030    12.3460   -40.7110    80.9860   -48.4120
 2929.5000     2.2850    -0.0060   -55.8970     0.1950   -55.8180    63.9510     7.9250    13.2500    13.2710    12.3040   -40.7110    81.5190   -48.3350
 2930.0000     2.2930    -0.0020   -59.0350     0.1930   -55.7320    65.4140     7.9310    12.9750    13.0400    12.2190   -40.7110    81.3210   -48.2580
 2930.5000     2.3000     0.0050   -62.1730     0.1910   -55.6120    67.4860     7.9370    12.7010    12.8080    12.1340   -40.7110    81.1160   -48.1810
 2931.0000     2.3040     0.0120   -64.2860     0.1890   -55.4920    69.5200     7.9430    12.4260    12.5770    12.0490   -40.7110    80.9110   -48.1040
 2931.5000     2.3050     0.0180   -64.2860     0.1880   -54.8630    70.4860     7.9480    12.1520    12.3450    11.9640   -40.7110    80.7300   -48.0270
