~VERSION INFORMATION
 VERS.                2.0:   CWLS LOG ASCII STANDARD - VERSION 2.0
 WRAP.                 NO:   ONE LINE PER DEPTH STEP
~WELL INFORMATION
#MNEM.UNIT      DATA TYPE    INFORMATION
#----------   ------------   ------------------------------
 STRT.F           20.0000:   START DEPTH
 STOP.F         4105.0000:   STOP DEPTH
 STEP.F            0.5000:   STEP LENGTH
 NULL.          -999.2500:   NO VALUE
 COMP. LAWRENCE ALLISON AND ASSOCAITES:   COMPANY
 WELL. LAWRENCE"X" #88-28:   WELL
 FLD .              N P R:   FIELD
 LOC .      S28 T39N R78W:   LOCATION
 CNTY.            NATRONA:   COUNTY
 STAT.            WYOMING:   STATE
 CTRY. UNITED STATES OF AMERICA:   COUNTRY
 SRVC.      DRESSER ATLAS:   SERVICE COMPANY
 DATE.        08-MAR-1984:   LOGDATE
 API .     49025109650000:   API NUMBER
~CURVE INFORMATION
#MNEM.UNIT       API CODE    CURVE DESCRIPTION
#----------   ------------   ------------------------------
 DEPT.F                  :   
 RHOB.G/C3   45 350 01 00:   BULK DENSITY
 CORR.G/C3   45 356 01 00:   DENSITY CORRECTION
 TEND.LBS    45 635 01 00:   TENSION FROM DENSITY LOG
 NPHI.DEC    42 890 03 00:   NEUTRON POROSITY SANDSTONE
 SPR .MV     07 010 01 00:   SPONTANEOUS POTENTIAL
 GRR .GAPI   07 310 01 00:   GAMMA RAY FROM RESISTIVITY
 CALR.IN     07 280 01 00:   CALIPER FROM RESISTIVITY
 RILD.OHMM   07 120 46 00:   DEEP INDUCTION RESISTIVITY
 RILM.OHMM   07 120 44 00:   INDUCTION LOG MEDIUM RESISTIVITY
 RSFL.OHMM   07 220 01 00:   SPHERICALLY FOCUSED RES.
 TENR.LBS    07 635 01 00:   TENSION FROM RESISTIVITY
 DT  .US/F   60 520 00 00:   DELTA TIME
 TENS.LBS    60 635 01 00:   TENSION
~PARAMETER INFORMATION
#MNEM.UNIT          VALUE    DESCRIPTION
#----------   ------------   ------------------------------
 EKB .F         5096.0000:   Kelly bushing
 EGL .F         5085.0000:   Ground level
 TD  .F         4100.0000:   Total depth
 DATE.        08-MAR-1984:   Date logged
 CLNT.            A2DTECH:   Client Code
 SL  .  600' FSL & 80 FEL:   Surface Location
 PD  .                 GL:   Permanent Datum
 EPD .F              5085:   Elevation Permanent Datum
 LMF .                 KB:   Log Measured From
 DMF .                 KB:   Drilling Measured From
 DAPD.F                11:   Feet Above Permanent Datum
 DD  .F              4100:   Depth driller
 DL  .F              4098:   Depth logger
 BLI .F              4096:   Bottom log interval
 TLI .F              2079:   Top log interval
 CS1 .IN            8.625:   Casing size
 CBD1.      8.625' @ 533':   Casing driller 1
 BS1 .IN            7.875:   Bit size
 BSD1.F              4100:   Depth drilled with bit1
 DFT .            GEL KCL:   Type fluid in hole
 DFD .                9.1:   Density
 DFV .                 38:   Viscosity
 DFPH.                8.0:   pH
 DFL .                 14:   Fluid loss
 MSS .           FLOWLINE:   Source of sample
 RMS .OHMM            .58:   Rm
 MST .F                84:   Rm Meas. temp.
 RMF .OHMM            .50:   Rmf
 MFST.F                73:   Rmf Meas. temp.
 RMC .OHMM            .72:   Rmc
 MCST.F                84:   Rmc Meas. temp.
 MFSS.               MEAS:   Source Rmf.
 MCSS.               CALC:   Source Rmc.
 RMB .OHMM            .36:   Rm. at BHT
 BHT .F               134:   BHT.
 TCS .HRS               7:   Time Circ. stopped
 MRT .F               134:   Maximum recorded temp.
 LUN .               6307:   Logging unit number
 LUL .               GLTE:   Logging unit location
 ENGI.            DEYOUNG:   Recorded By
 WITN.             STRONG:   Witnessed by
 ORIG.         2.5" PRINT:   Origin of data
 UWI .     49025109650000:   Unique Well ID
 DICO. A2D TECHNOLOGIES, INC.:   Digitizing Company
~OTHER INFORMATION
~A   DEPT     RHOB       CORR       TEND       NPHI        SPR         GRR      CALR       RILD       RILM       RSFL       TENR         DT       TENS   
# ...
 4076.0000     2.5950     0.0580   -36.7010     0.1820   -36.9400  -999.2500     7.9690     6.8960     8.0020     7.6540   -32.8060  -999.2500   -23.9140
 4076.5000     2.5980     0.0590   -37.0640     0.1810   -37.2080  -999.2500     7.9680     7.0050     7.6910     7.6910   -32.8060  -999.2500   -24.1260
 4077.0000     2.6000     0.0600   -37.4270     0.1710   -37.4830  -999.2500     7.9660     7.3720     7.9710     8.3770   -32.8060  -999.2500   -24.3390
 4077.5000     2.5910     0.0610   -37.7900     0.1590   -37.7550  -999.2500     7.9650     7.7380     8.5030     9.4150   -32.8060  -999.2500   -24.5520
 4078.0000     2.5740     0.0520   -38.1530     0.1460   -37.4280  -999.2500     7.9640     8.1050     9.0340    10.4520   -32.8060  -999.2500   -24.7650
 4078.5000     2.5610     0.0430   -38.5160     0.1310   -35.9750  -999.2500     7.9620     8.4720     9.5660    11.4890   -32.8060  -999.2500   -24.9780
 4079.0000     2.5530     0.0460   -38.8790     0.1290   -34.5320  -999.2500     7.9610     8.8890    10.1060    12.5270   -32.8060  -999.2500   -24.8730
 4079.5000     2.5450     0.0510   -39.2420     0.1270   -33.0460  -999.2500     7.9590     9.4370    10.4230    13.0390   -32.8060  -999.2500   -24.6080
 4080.0000     2.5370     0.0530   -39.6050     0.1240   -31.5990  -999.2500     7.9580     9.9860    10.7780    12.2150   -32.8060  -999.2500   -24.3420
 4080.5000     2.5320     0.0430   -39.9680     0.1210   -30.1820  -999.2500     7.9570    10.5340    11.1330    11.0910   -32.8060  -999.2500   -24.0770
 4081.0000     2.5300     0.0310   -40.3300     0.1180   -29.4700  -999.2500  -999.2500    11.0820    11.4880    12.1100   -32.8060  -999.2500   -23.8120
 4081.5000     2.5110     0.0370   -40.4760     0.1160   -28.8540  -999.2500  -999.2500    11.6310    11.8430    13.6560   -32.8060  -999.2500   -23.5460
 4082.0000     2.4920     0.0450   -40.4760     0.1140   -28.3010  -999.2500  -999.2500    12.1240    12.1980    15.4550   -32.8060  -999.2500   -23.2810
 4082.5000     2.4720     0.0400   -40.4760     0.1180   -27.7490  -999.2500  -999.2500    12.5590    12.5730    15.0180   -32.8060  -999.2500   -23.0150
 4083.0000     2.4700     0.0310   -40.4760     0.1210   -27.1980  -999.2500  -999.2500    12.9950    12.8050    14.1430   -32.8060  -999.2500   -22.7500
 4083.5000     2.4730     0.0330   -40.4760     0.1240   -27.0660  -999.2500  -999.2500    12.9160    13.0510    13.2790   -32.8060  -999.2500   -22.4850
 4084.0000     2.4850     0.0370   -40.4760     0.1220   -27.3680  -999.2500  -999.2500    12.7570    13.2970    12.9010   -32.8060  -999.2500   -22.2190
 4084.5000     2.5200     0.0430   -40.4760     0.1200   -27.6830  -999.2500  -999.2500    12.5990    13.5230    12.5270   -32.8060  -999.2500   -21.9540
 4085.0000     2.5590     0.0390   -40.4760     0.1170   -27.8230  -999.2500  -999.2500    12.4410    13.0970    12.1530   -32.8060  -999.2500   -21.6890
 4085.5000     2.6000     0.0170   -40.4760     0.1130   -28.4610  -999.2500  -999.2500    12.2830    12.5100    11.6900   -32.8060  -999.2500   -21.4230
 4086.0000     2.6200     0.0040   -40.4760     0.1050   -29.7530  -999.2500  -999.2500    12.1240    11.9220    12.0980   -32.8060  -999.2500   -21.1580
 4086.5000     2.6240     0.0120   -40.4760     0.0980   -30.9910  -999.2500  -999.2500    11.8230    11.4800    13.7710   -32.8060  -999.2500   -20.8920
 4087.0000     2.6290     0.0260   -39.0790     0.0910   -32.2090  -999.2500  -999.2500    11.5190    11.1790    13.2890   -32.8060  -999.2500   -20.6270
 4087.5000     2.6350     0.0400   -36.9740     0.0090   -33.4320  -999.2500  -999.2500    11.2160    10.9700    11.6900   -32.8060  -999.2500   -20.3620
 4088.0000     2.6380     0.0540   -34.8690    -0.0060   -34.6690  -999.2500  -999.2500    11.0690    10.8690    11.8590   -32.8060  -999.2500   -20.0960
 4088.5000     2.6360     0.0680   -32.5400  -999.2500   -35.0040  -999.2500  -999.2500    10.5390    10.3900    12.1860   -32.8060  -999.2500   -19.8310
 4089.0000     2.6260     0.0660   -32.5400  -999.2500   -35.0340  -999.2500  -999.2500    10.0700     9.9660    12.5730   -32.8060  -999.2500   -19.5660
 4089.5000     2.6150     0.0630   -24.6030  -999.2500   -35.0690  -999.2500  -999.2500     9.6010     9.5420    11.9390   -32.8060  -999.2500   -19.3000
 4090.0000     2.6050     0.0610    -9.0260  -999.2500   -35.1190  -999.2500  -999.2500     9.1320     9.2270    11.1610   -32.8060  -999.2500   -19.0350
 4090.5000     2.6010     0.0610    21.0440  -999.2500   -35.1610  -999.2500  -999.2500     8.7370     9.2270    10.3830   -32.8060  -999.2500   -18.7690
 4091.0000     2.6150     0.0550    51.1140  -999.2500   -35.2030  -999.2500  -999.2500     8.7720     9.2270     9.5690   -32.8060  -999.2500   -18.5040
 4091.5000     2.6610     0.0350    66.3960  -999.2500   -35.2470  -999.2500  -999.2500     8.8770     9.3970     9.5690   -32.8060  -999.2500   -18.2390
 4092.0000     2.7070    -0.0030    72.4100  -999.2500   -35.2920  -999.2500  -999.2500     8.9820     9.5690     9.3970   -32.8060  -999.2500   -17.9730
 4092.5000     2.7340     0.0050    78.5710  -999.2500   -35.3350  -999.2500  -999.2500     9.6410    10.4810    10.2920   -32.8060  -999.2500   -17.7080
 4093.0000     2.7060     0.0350    81.1380  -999.2500   -35.3710  -999.2500  -999.2500    11.9520    10.8690    12.6890   -32.8060  -999.2500   -17.4430
 4093.5000     2.6870     0.0410    83.7690  -999.2500   -35.3180  -999.2500  -999.2500    29.4250    12.3460    15.6430   -32.8060  -999.2500   -17.1600
 4094.0000     2.6750     0.0470    86.5080  -999.2500   -35.2700  -999.2500  -999.2500    79.0470    12.3460    74.5220   -32.8060  -999.2500   -17.1600
 4094.5000     2.6630     0.0530    79.7790  -999.2500   -35.2170  -999.2500  -999.2500   128.6700    12.3460   137.5380   -32.8060  -999.2500   -25.0490
 4095.0000     2.6410     0.0530    72.7630  -999.2500   -35.1660  -999.2500  -999.2500   185.9560    12.3460   185.9560   -32.8060  -999.2500   -25.0490
 4095.5000     2.6040     0.0540    94.4440  -999.2500   -35.1150  -999.2500  -999.2500   185.9560    12.3460   185.9560   -32.8060  -999.2500   -25.0490
 4096.0000     2.5890     0.0540    94.4440  -999.2500   -35.0640  -999.2500  -999.2500   154.3300    12.1240   155.3980     6.0550  -999.2500   -17.1600
 4096.5000  -999.2500  -999.2500    38.0670  -999.2500   -35.0090  -999.2500  -999.2500   113.1950    12.1240   110.9340    51.0990  -999.2500    38.0670
 4097.0000  -999.2500  -999.2500    18.5690  -999.2500   -34.9770  -999.2500  -999.2500    72.0590    12.1240    66.4710    96.1420  -999.2500    94.1140
 4097.5000  -999.2500  -999.2500     1.2120  -999.2500   -34.9800  -999.2500  -999.2500    23.7750    12.1240    14.2820   149.0120  -999.2500   140.6310
 4098.0000  -999.2500  -999.2500   -17.1600  -999.2500   -34.9800  -999.2500  -999.2500    17.1900    12.1240    13.3960   149.0120  -999.2500   148.5210
 4098.5000  -999.2500  -999.2500   -40.8280  -999.2500   -34.9800  -999.2500  -999.2500    13.0390    12.1240    12.1240   125.2960  -999.2500   116.9630
 4099.0000  -999.2500  -999.2500   -64.4970  -999.2500   -34.9800  -999.2500  -999.2500    13.0390    12.1240    11.9050    85.5600  -999.2500    96.3710
 4099.5000  -999.2500  -999.2500   -64.4970  -999.2500   -34.9800  -999.2500  -999.2500    12.8040    12.1240    11.9050    41.1990  -999.2500    73.3830
 4100.0000  -999.2500  -999.2500   -64.4970  -999.2500   -34.9800  -999.2500  -999.2500    12.6890    12.1240    11.9050    18.5770  -999.2500    45.9570
 4100.5000  -999.2500  -999.2500   -64.4970  -999.2500  -999.2500  -999.2500  -999.2500  -999.2500  -999.2500  -999.2500  -999.2500  -999.2500  -999.2500
 4101.0000  -999.2500  -999.2500   -64.4970  -999.2500  -999.2500  -999.2500  -999.2500  -999.2500  -999.2500  -999.2500  -999.2500  -999.2500  -999.2500
 4101.5000  -999.2500  -999.2500   -64.4970  -999.2500  -999.2500  -999.2500  -999.2500  -999.2500  -999.2500  -999.2500  -999.2500  -999.2500  -999.2500
