~VERSION INFORMATION
 VERS.                2.0:   CWLS LOG ASCII STANDARD - VERSION 2.0
 WRAP.                 NO:   ONE LINE PER DEPTH STEP
~WELL INFORMATION
#MNEM.UNIT      DATA TYPE    INFORMATION
#----------   ------------   ------------------------------
 STRT.F           20.0000:   START DEPTH
 STOP.F         4105.0000:   STOP DEPTH
 STEP.F            0.5000:   STEP LENGTH
 NULL.          -999.2500:   NO VALUE
 COMP. LAWRENCE ALLISON AND ASSOCAITES:   COMPANY
 WELL. LAWRENCE"X" #88-28:   WELL
 FLD .              N P R:   FIELD
 LOC .      S28 T39N R78W:   LOCATION
 CNTY.            NATRONA:   COUNTY
 STAT.            WYOMING:   STATE
 CTRY. UNITED STATES OF AMERICA:   COUNTRY
 SRVC.      DRESSER ATLAS:   SERVICE COMPANY
 DATE.        08-MAR-1984:   LOGDATE
 API .     49025109650000:   API NUMBER
~CURVE INFORMATION
#MNEM.UNIT       API CODE    CURVE DESCRIPTION
#----------   ------------   ------------------------------
 DEPT.F                  :   
 RHOB.G/C3   45 350 01 00:   BULK DENSITY
 CORR.G/C3   45 356 01 00:   DENSITY CORRECTION
 TEND.LBS    45 635 01 00:   TENSION FROM DENSITY LOG
 NPHI.DEC    42 890 03 00:   NEUTRON POROSITY SANDSTONE
 SPR .MV     07 010 01 00:   SPONTANEOUS POTENTIAL
 GRR .GAPI   07 310 01 00:   GAMMA RAY FROM RESISTIVITY
 CALR.IN     07 280 01 00:   CALIPER FROM RESISTIVITY
 RILD.OHMM   07 120 46 00:   DEEP INDUCTION RESISTIVITY
 RILM.OHMM   07 120 44 00:   INDUCTION LOG MEDIUM RESISTIVITY
 RSFL.OHMM   07 220 01 00:   SPHERICALLY FOCUSED RES.
 TENR.LBS    07 635 01 00:   TENSION FROM RESISTIVITY
 DT  .US/F   60 520 00 00:   DELTA TIME
 TENS.LBS    60 635 01 00:   TENSION
~PARAMETER INFORMATION
#MNEM.UNIT          VALUE    DESCRIPTION
#----------   ------------   ------------------------------
 EKB .F         5096.0000:   Kelly bushing
 EGL .F         5085.0000:   Ground level
 TD  .F         4100.0000:   Total depth
 DATE.        08-MAR-1984:   Date logged
 CLNT.            A2DTECH:   Client Code
 SL  .  600' FSL & 80 FEL:   Surface Location
 PD  .                 GL:   Permanent Datum
 EPD .F              5085:   Elevation Permanent Datum
 LMF .                 KB:   Log Measured From
 DMF .                 KB:   Drilling Measured From
 DAPD.F                11:   Feet Above Permanent Datum
 DD  .F              4100:   Depth driller
 DL  .F              4098:   Depth logger
 BLI .F              4096:   Bottom log interval
 TLI .F              2079:   Top log interval
 CS1 .IN            8.625:   Casing size
 CBD1.      8.625' @ 533':   Casing driller 1
 BS1 .IN            7.875:   Bit size
 BSD1.F              4100:   Depth drilled with bit1
 DFT .            GEL KCL:   Type fluid in hole
 DFD .                9.1:   Density
 DFV .                 38:   Viscosity
 DFPH.                8.0:   pH
 DFL .                 14:   Fluid loss
 MSS .           FLOWLINE:   Source of sample
 RMS .OHMM            .58:   Rm
 MST .F                84:   Rm Meas. temp.
 RMF .OHMM            .50:   Rmf
 MFST.F                73:   Rmf Meas. temp.
 RMC .OHMM            .72:   Rmc
 MCST.F                84:   Rmc Meas. temp.
 MFSS.               MEAS:   Source Rmf.
 MCSS.               CALC:   Source Rmc.
 RMB .OHMM            .36:   Rm. at BHT
 BHT .F               134:   BHT.
 TCS .HRS               7:   Time Circ. stopped
 MRT .F               134:   Maximum recorded temp.
 LUN .               6307:   Logging unit number
 LUL .               GLTE:   Logging unit location
 ENGI.            DEYOUNG:   Recorded By
 WITN.             STRONG:   Witnessed by
 ORIG.         2.5" PRINT:   Origin of data
 UWI .     49025109650000:   Unique Well ID
 DICO. A2D TECHNOLOGIES, INC.:   Digitizing Company
~OTHER INFORMATION
~A   DEPT     RHOB       CORR       TEND       NPHI        SPR         GRR      CALR       RILD       RILM       RSFL       TENR         DT       TENS   
# ...
 2438.0000     2.5390     0.0200   -53.3070     0.2360   -42.4220   120.6790     8.5870     6.2160     6.6160     6.7440   -35.6880    87.8160   -27.2910
 2438.5000     2.5440     0.0140   -53.1420     0.2330   -42.0990   117.9130     8.5950     6.4800     6.8300     7.0670   -36.1370    87.4070   -27.1370
 2439.0000     2.5490     0.0060   -52.9760     0.2240   -41.8080   115.1460     8.6030     6.7440     7.0440     7.3900   -36.5850    86.4890   -26.9820
 2439.5000     2.5550    -0.0020   -52.8110     0.2160   -41.6960   112.4040     8.6110     7.0080     7.2570     7.7130   -37.0340    85.2120   -26.8280
 2440.0000     2.5640    -0.0060   -52.6450     0.2080   -41.6790   109.6550     8.6190     7.2720     7.4710     8.0360   -37.4820    83.9350   -26.6740
 2440.5000     2.5730     0.0390   -52.4800     0.2030   -41.8990   108.3060     8.6280     7.5360     7.6850     8.4070   -37.9310    82.6580   -26.5200
 2441.0000     2.5800     0.0920   -52.3140     0.2050   -42.2570   107.7410     8.6170     7.8330     7.8990     8.3770   -38.3790    81.3810   -26.3660
 2441.5000     2.5790     0.0920   -52.1490     0.2070   -42.5980   107.0330     8.6050     7.9770     7.9770     8.3170   -38.8280    80.3350   -26.2120
 2442.0000     2.5770     0.0660   -51.9830     0.2140   -42.9390   107.1970     8.5910     8.1230     7.9770     8.2570   -39.2760    80.8460   -26.0580
 2442.5000     2.5720     0.0300   -51.8180     0.2220   -43.2650   108.6900     8.5780     8.0650     7.9770     8.1970   -39.7250    81.6120   -25.9030
 2443.0000     2.5670     0.0090   -51.6520     0.2320   -43.6510   110.6620     8.5650     7.8360     7.9770     8.1380   -40.1730    82.3080   -25.7490
 2443.5000     2.5630    -0.0190   -51.4870     0.2330   -43.6730   112.7210     8.5520     7.8430     7.9770     8.1230   -40.6220    82.8660   -25.5950
 2444.0000     2.5620    -0.0070   -51.3210     0.2290   -43.6880   114.7420     8.5390     7.8560     7.9620     8.1230   -41.0700    83.2940   -25.4410
 2444.5000     2.5610     0.0200   -51.1560     0.2240   -43.6750   116.8070     8.5260     7.8690     7.9470     8.1230   -41.5190    83.5310   -25.2870
 2445.0000     2.5590     0.0440   -50.9900     0.2190   -43.6760   118.8210     8.5130     7.8830     7.9320     8.1230   -41.9670    83.7360   -25.1330
 2445.5000     2.5550     0.0450   -50.8250     0.2170   -43.6960   120.7510     8.5000     7.8960     7.9180     8.1230   -42.4160    83.9400   -25.1220
 2446.0000     2.5520     0.0450   -50.6590     0.2190   -43.4120   122.1590     8.4870     7.9090     7.9030     8.1230   -42.8640    84.1440   -25.2800
 2446.5000     2.5510     0.0480   -50.4940     0.2160   -42.6230   120.3030     8.4740     7.9220     7.8880     8.1230   -43.3130    84.3490   -25.4370
 2447.0000     2.5500     0.0330   -50.3280     0.2110   -41.8730   116.7990     8.4610     7.9360     7.8730     8.1220   -43.7610    84.1620   -25.5950
 2447.5000     2.5480     0.0150   -50.1630     0.2080   -41.2550   118.0340     8.4490     7.9490     7.8580     8.1210   -44.2100    83.3830   -25.7530
 2448.0000     2.5520    -0.0020   -49.9980     0.2120   -41.0090   120.6030     8.4350     7.9620     7.8440     8.1230   -44.6580    82.8720   -25.9110
 2448.5000     2.5550    -0.0050   -49.8320     0.2150   -41.4200   119.5650     8.4230     7.9770     7.8030     8.1230   -45.1070    82.3610   -26.0690
 2449.0000     2.5590     0.0000   -49.6670     0.2180   -43.2310   117.0030     8.4100     7.8150     7.7020     7.9790   -45.5550    81.9130   -26.2260
 2449.5000     2.5680     0.0150   -49.5010     0.2100   -43.6640   114.4360     8.3960     7.6380     7.6000     7.8200   -46.0040    82.4100   -26.3840
 2450.0000     2.5710     0.0260   -49.3360     0.2150   -42.8370   116.2380     8.4000     7.4600     7.4980     7.6220   -46.4520    83.2610   -26.5420
 2450.5000     2.5740     0.0390   -49.1700     0.2240   -42.1530   118.3170     8.4180     7.2820     7.3970     7.4170   -46.9010    84.1120   -26.7000
 2451.0000     2.5720     0.0360   -49.0050     0.2290   -41.3510   120.2640     8.4360     7.1540     7.2830     7.4170   -47.3490    85.0690   -26.8580
 2451.5000     2.5680     0.0250   -48.8390     0.2230   -41.2980   121.5540     8.4520     7.1640     7.2990     7.4170   -47.7980    85.2660   -27.0150
 2452.0000     2.5710     0.0330   -48.6740     0.2150   -41.5760   118.0490     8.4690     7.1750     7.3170     7.4170   -48.2460    85.2660   -27.1730
 2452.5000     2.5790     0.0500   -48.5080     0.2190   -42.4770   116.8040     8.4700     7.1850     7.3360     7.4170   -48.6170    85.2660   -27.3310
 2453.0000     2.5860     0.0660   -48.5130     0.2250   -43.3640   115.0210     8.4260     7.1950     7.3540     7.4260   -48.6170    85.1640   -27.4890
 2453.5000     2.5860     0.0770   -48.7500     0.2230   -43.6940   113.6310     8.3710     7.2060     7.3730     7.4490   -48.6170    84.9080   -27.6460
 2454.0000     2.5850     0.0770   -48.9870     0.2200   -43.6340   112.2920     8.3150     7.2160     7.3910     7.4730   -48.6170    84.6750   -27.8040
 2454.5000     2.5850     0.0670   -49.2250     0.2180   -43.5800   114.9350     8.2540     7.2260     7.4090     7.4970   -48.6170    84.7440   -27.9620
 2455.0000     2.5830     0.0520   -49.4620     0.2200   -43.5360   119.5940     8.2630     7.2370     7.4280     7.5200   -48.6170    84.8080   -28.1200
 2455.5000     2.5790     0.0360   -49.6990     0.2210   -43.4810   125.5940     8.3340     7.2470     7.4460     7.5440   -48.6170    84.8720   -28.2780
 2456.0000     2.5760     0.0280   -49.9360     0.2220   -43.4320   123.1580     8.3990     7.2570     7.4640     7.7000   -48.6170    84.4140   -28.4350
 2456.5000     2.5730     0.0350   -50.1730     0.2170   -43.3800   117.5020     8.4640     7.2670     7.4810     7.6820   -48.6170    83.9540   -28.5930
 2457.0000     2.5770     0.0420   -50.4110     0.2130   -43.3210   118.3470     8.5110     7.2770     7.4980     7.8240   -48.6170    83.4940   -28.7510
 2457.5000     2.5830     0.0500   -50.6480     0.2150   -43.2790   119.9650     8.5130     7.3230     7.5200     7.8680   -48.6170    83.0970   -28.9090
 2458.0000     2.5880     0.0550   -50.8850     0.2170   -42.8670   121.6250     8.5160     7.4020     7.5380     7.9170   -48.6170    83.0240   -29.0670
 2458.5000     2.5830     0.0580   -51.1220     0.2140   -42.3080   121.4890     8.5180     7.4820     7.6910     7.9740   -48.6170    82.9600   -29.2240
 2459.0000     2.5760     0.0510   -51.3590     0.2050   -41.7380   119.0720     8.5210     7.5610     7.6910     8.0170   -48.6170    82.8990   -29.3820
 2459.5000     2.5670     0.0370   -51.5960     0.1980   -41.1710   116.2510     8.5230     7.6410     7.7740     8.0700   -48.6170    82.4180   -29.5400
 2460.0000     2.5580     0.0240   -51.8340     0.1990   -40.9180   113.4940     8.5250     7.7200     7.9000     8.1210   -48.6170    81.9590   -29.6980
 2460.5000     2.5490     0.0110   -52.0710     0.2040   -41.5010   110.5760     8.5280     7.7990     8.0250     8.1720   -48.6170    81.4990   -29.8560
 2461.0000     2.5420     0.0020   -52.3080     0.2070   -41.9750   109.4020     8.5300     7.8330     8.1500     8.2230   -48.6170    81.1240   -30.0130
 2461.5000     2.5470    -0.0070   -52.5450     0.2070   -42.4970   109.5490     8.5330     7.8330     8.2720     8.2720   -48.6170    81.0740   -30.1710
 2462.0000     2.5560    -0.0020   -52.7820     0.2100   -43.0750   111.0070     8.5350     7.8330     8.1430     8.1230   -48.6170    81.0310   -30.3290
 2462.5000     2.5640     0.0250   -53.0200     0.2140   -42.9020   112.4470     8.5380     7.8330     8.0170     8.1230   -48.6170    80.9890   -30.4870
 2463.0000     2.5700     0.0410   -53.2570     0.2180   -42.4520   114.2970     8.5400     7.5560     7.8910     7.9770   -48.6170    80.9460   -30.6440
 2463.5000     2.5690     0.0450   -53.4940     0.2230   -42.4920   116.7960     8.5430     7.3040     7.7650     7.8330   -48.6170    81.3340   -30.8020
