~VERSION INFORMATION
 VERS.                2.0:   CWLS LOG ASCII STANDARD - VERSION 2.0
 WRAP.                 NO:   ONE LINE PER DEPTH STEP
~WELL INFORMATION
#MNEM.UNIT      DATA TYPE    INFORMATION
#----------   ------------   ------------------------------
 STRT.F           20.0000:   START DEPTH
 STOP.F         4105.0000:   STOP DEPTH
 STEP.F            0.5000:   STEP LENGTH
 NULL.          -999.2500:   NO VALUE
 COMP. LAWRENCE ALLISON AND ASSOCAITES:   COMPANY
 WELL. LAWRENCE"X" #88-28:   WELL
 FLD .              N P R:   FIELD
 LOC .      S28 T39N R78W:   LOCATION
 CNTY.            NATRONA:   COUNTY
 STAT.            WYOMING:   STATE
 CTRY. UNITED STATES OF AMERICA:   COUNTRY
 SRVC.      DRESSER ATLAS:   SERVICE COMPANY
 DATE.        08-MAR-1984:   LOGDATE
 API .     49025109650000:   API NUMBER
~CURVE INFORMATION
#MNEM.UNIT       API CODE    CURVE DESCRIPTION
#----------   ------------   ------------------------------
 DEPT.F                  :   
 RHOB.G/C3   45 350 01 00:   BULK DENSITY
 CORR.G/C3   45 356 01 00:   DENSITY CORRECTION
 TEND.LBS    45 635 01 00:   TENSION FROM DENSITY LOG
 NPHI.DEC    42 890 03 00:   NEUTRON POROSITY SANDSTONE
 SPR .MV     07 010 01 00:   SPONTANEOUS POTENTIAL
 GRR .GAPI   07 310 01 00:   GAMMA RAY FROM RESISTIVITY
 CALR.IN     07 280 01 00:   CALIPER FROM RESISTIVITY
 RILD.OHMM   07 120 46 00:   DEEP INDUCTION RESISTIVITY
 RILM.OHMM   07 120 44 00:   INDUCTION LOG MEDIUM RESISTIVITY
 RSFL.OHMM   07 220 01 00:   SPHERICALLY FOCUSED RES.
 TENR.LBS    07 635 01 00:   TENSION FROM RESISTIVITY
 DT  .US/F   60 520 00 00:   DELTA TIME
 TENS.LBS    60 635 01 00:   TENSION
~PARAMETER INFORMATION
#MNEM.UNIT          VALUE    DESCRIPTION
#----------   ------------   ------------------------------
 EKB .F         5096.0000:   Kelly bushing
 EGL .F         5085.0000:   Ground level
 TD  .F         4100.0000:   Total depth
 DATE.        08-MAR-1984:   Date logged
 CLNT.            A2DTECH:   Client Code
 SL  .  600' FSL & 80 FEL:   Surface Location
 PD  .                 GL:   Permanent Datum
 EPD .F              5085:   Elevation Permanent Datum
 LMF .                 KB:   Log Measured From
 DMF .                 KB:   Drilling Measured From
 DAPD.F                11:   Feet Above Permanent Datum
 DD  .F              4100:   Depth driller
 DL  .F              4098:   Depth logger
 BLI .F              4096:   Bottom log interval
 TLI .F              2079:   Top log interval
 CS1 .IN            8.625:   Casing size
 CBD1.      8.625' @ 533':   Casing driller 1
 BS1 .IN            7.875:   Bit size
 BSD1.F              4100:   Depth drilled with bit1
 DFT .            GEL KCL:   Type fluid in hole
 DFD .                9.1:   Density
 DFV .                 38:   Viscosity
 DFPH.                8.0:   pH
 DFL .                 14:   Fluid loss
 MSS .           FLOWLINE:   Source of sample
 RMS .OHMM            .58:   Rm
 MST .F                84:   Rm Meas. temp.
 RMF .OHMM            .50:   Rmf
 MFST.F                73:   Rmf Meas. temp.
 RMC .OHMM            .72:   Rmc
 MCST.F                84:   Rmc Meas. temp.
 MFSS.               MEAS:   Source Rmf.
 MCSS.               CALC:   Source Rmc.
 RMB .OHMM            .36:   Rm. at BHT
 BHT .F               134:   BHT.
 TCS .HRS               7:   Time Circ. stopped
 MRT .F               134:   Maximum recorded temp.
 LUN .               6307:   Logging unit number
 LUL .               GLTE:   Logging unit location
 ENGI.            DEYOUNG:   Recorded By
 WITN.             STRONG:   Witnessed by
 ORIG.         2.5" PRINT:   Origin of data
 UWI .     49025109650000:   Unique Well ID
 DICO. A2D TECHNOLOGIES, INC.:   Digitizing Company
~OTHER INFORMATION
~A   DEPT     RHOB       CORR       TEND       NPHI        SPR         GRR      CALR       RILD       RILM       RSFL       TENR         DT       TENS   
# ...
  540.0000  -999.2500  -999.2500  -999.2500  -999.2500   -66.7610    96.4330     9.5700    11.1990     9.3230     7.9910   -28.0210  -999.2500  -999.2500
  540.5000  -999.2500  -999.2500  -999.2500  -999.2500   -48.0210    97.3970     9.5620    10.1060     9.0610     8.0030   -27.6570  -999.2500  -999.2500
  541.0000  -999.2500  -999.2500  -999.2500  -999.2500   -29.7180    96.3440     9.5220    10.2060     9.1200     8.0160   -27.2920  -999.2500  -999.2500
  541.5000  -999.2500  -999.2500  -999.2500  -999.2500   -15.0830    93.4170     9.4900    10.4500     9.2660     8.0290   -26.9280  -999.2500  -999.2500
  542.0000  -999.2500  -999.2500  -999.2500  -999.2500   -14.4410    91.7780     9.4590    10.6730     9.4120     8.0410   -26.5640  -999.2500  -999.2500
  542.5000  -999.2500  -999.2500  -999.2500  -999.2500   -13.8840    90.4680     9.4560    10.8690     9.5690     8.0540   -26.2000  -999.2500  -999.2500
  543.0000  -999.2500  -999.2500  -999.2500  -999.2500   -13.9770    88.9280     9.4540    10.8310     9.5690     8.0660   -25.8360  -999.2500  -999.2500
  543.5000  -999.2500  -999.2500  -999.2500  -999.2500   -14.1310    88.3710     9.4520    10.7880     9.5970     8.0790   -25.4710  -999.2500  -999.2500
  544.0000  -999.2500  -999.2500  -999.2500  -999.2500   -14.5710    89.5770     9.4500    10.7460     9.6730     8.0920   -25.1070  -999.2500  -999.2500
  544.5000  -999.2500  -999.2500  -999.2500  -999.2500   -15.0560    92.4710     9.4470    10.7040     9.7450     8.1040   -25.1030  -999.2500  -999.2500
  545.0000  -999.2500  -999.2500  -999.2500  -999.2500   -15.5840    96.5750     9.4450    10.6730     9.7450     8.1170   -25.5680  -999.2500  -999.2500
  545.5000  -999.2500  -999.2500  -999.2500  -999.2500   -16.4280    99.1780     9.4430    10.6730     9.9240     8.1230   -26.0320  -999.2500  -999.2500
  546.0000  -999.2500  -999.2500  -999.2500  -999.2500   -17.4210    99.4510     9.4410    10.6730     9.9240     8.0770   -26.4970  -999.2500  -999.2500
  546.5000  -999.2500  -999.2500  -999.2500  -999.2500   -18.4040    98.3550     9.4390    10.6730     9.9280     8.0350   -26.9620  -999.2500  -999.2500
  547.0000  -999.2500  -999.2500  -999.2500  -999.2500   -19.3850    96.1240     9.4370    10.8690     9.9210     7.9770   -27.4270  -999.2500  -999.2500
  547.5000  -999.2500  -999.2500  -999.2500  -999.2500   -20.3680    94.6020     9.4340    11.0220     9.9260     8.0490   -27.8910  -999.2500  -999.2500
  548.0000  -999.2500  -999.2500  -999.2500  -999.2500   -21.3550    95.2420     9.4320    11.1730     9.9230     8.3600   -28.3560  -999.2500  -999.2500
  548.5000  -999.2500  -999.2500  -999.2500  -999.2500   -22.3340    93.8490     9.4300    11.3240     9.9240     8.5790   -28.8210  -999.2500  -999.2500
  549.0000  -999.2500  -999.2500  -999.2500  -999.2500   -23.3090    91.3100     9.4280    11.4760     9.9240     8.7370   -29.2850  -999.2500  -999.2500
  549.5000  -999.2500  -999.2500  -999.2500  -999.2500   -24.3200    89.1790     9.4260    11.6270     9.9240     8.7370   -29.7500  -999.2500  -999.2500
  550.0000  -999.2500  -999.2500  -999.2500  -999.2500   -24.7510    90.1310     9.4240    11.6900     9.9240     8.7620   -30.2150  -999.2500  -999.2500
  550.5000  -999.2500  -999.2500  -999.2500  -999.2500   -24.5500    95.2140     9.4210    11.6900     9.9240     8.8060   -30.6800  -999.2500  -999.2500
  551.0000  -999.2500  -999.2500  -999.2500  -999.2500   -24.1300    98.2570     9.4190    11.6900     9.9240     8.8510   -31.1440  -999.2500  -999.2500
  551.5000  -999.2500  -999.2500  -999.2500  -999.2500   -23.7590    97.2030     9.4170    11.6900     9.9240     8.8950   -31.6090  -999.2500  -999.2500
  552.0000  -999.2500  -999.2500  -999.2500  -999.2500   -23.3570    98.0460     9.4150    11.6900     9.9230     8.9390   -32.0740  -999.2500  -999.2500
  552.5000  -999.2500  -999.2500  -999.2500  -999.2500   -22.8950    94.5000     9.4130    11.6900     9.9240     8.9830   -32.5380  -999.2500  -999.2500
  553.0000  -999.2500  -999.2500  -999.2500  -999.2500   -23.2180    93.2830     9.4110    11.6900     9.9240     9.0490   -33.0030  -999.2500  -999.2500
  553.5000  -999.2500  -999.2500  -999.2500  -999.2500   -24.6470    93.5190     9.4080    11.6910     9.9220     9.0350   -33.4680  -999.2500  -999.2500
  554.0000  -999.2500  -999.2500  -999.2500  -999.2500   -26.0050    93.9150     9.4060    11.6910     9.9180     8.9310   -33.9330  -999.2500  -999.2500
  554.5000  -999.2500  -999.2500  -999.2500  -999.2500   -27.3550    91.9580     9.4040    11.6910     9.9240     8.8270   -34.3970  -999.2500  -999.2500
  555.0000  -999.2500  -999.2500  -999.2500  -999.2500   -28.7320    88.3300     9.4020    11.6910    10.0610     8.7240   -34.8620  -999.2500  -999.2500
  555.5000  -999.2500  -999.2500  -999.2500  -999.2500   -29.6960    84.4460     9.4000    11.7650    10.2100     8.5790   -35.3270  -999.2500  -999.2500
  556.0000  -999.2500  -999.2500  -999.2500  -999.2500   -30.5250    85.5470     9.3970    11.8610    10.3580     8.7080   -35.7920  -999.2500  -999.2500
  556.5000  -999.2500  -999.2500  -999.2500  -999.2500   -31.3530    87.6550     9.3950    11.9570    10.5060     8.9200   -36.2560  -999.2500  -999.2500
  557.0000  -999.2500  -999.2500  -999.2500  -999.2500   -32.1910    89.9860     9.3930    12.0530    10.6550     9.1320   -36.7210  -999.2500  -999.2500
  557.5000  -999.2500  -999.2500  -999.2500  -999.2500   -33.0200    92.3720     9.3910    12.1490    10.8030     9.3900   -37.1860  -999.2500  -999.2500
  558.0000  -999.2500  -999.2500  -999.2500  -999.2500   -33.8340    93.6640     9.3890    12.2450    10.9510     9.3770   -37.6500  -999.2500  -999.2500
  558.5000  -999.2500  -999.2500  -999.2500  -999.2500   -34.6280    93.1020     9.3870    12.3410    11.0690     9.3510   -38.1150  -999.2500  -999.2500
  559.0000  -999.2500  -999.2500  -999.2500  -999.2500   -35.4140    92.7080     9.3840    12.4370    11.1090     9.3260   -38.5800  -999.2500  -999.2500
  559.5000  -999.2500  -999.2500  -999.2500  -999.2500   -36.1920    94.7210     9.3820    12.5340    11.1570     9.3000   -39.0450  -999.2500  -999.2500
  560.0000  -999.2500  -999.2500  -999.2500  -999.2500   -36.9440    97.9670     9.3800    12.6300    11.2050     9.2740   -39.5090  -999.2500  -999.2500
  560.5000  -999.2500  -999.2500  -999.2500  -999.2500   -37.7170   101.2500     9.3840    12.7260    11.2540     9.2480   -39.9740  -999.2500  -999.2500
  561.0000  -999.2500  -999.2500  -999.2500  -999.2500   -38.5450   101.7780     9.3900    12.8040    11.3020     9.2270   -40.4390  -999.2500  -999.2500
  561.5000  -999.2500  -999.2500  -999.2500  -999.2500   -38.8070    98.6570     9.3960    12.9610    11.3500     9.4970   -40.7110  -999.2500  -999.2500
  562.0000  -999.2500  -999.2500  -999.2500  -999.2500   -38.3100    92.4860     9.4020    13.0920    11.3990     9.7250   -40.7110  -999.2500  -999.2500
  562.5000  -999.2500  -999.2500  -999.2500  -999.2500   -37.8740    92.3960     9.4070    13.2240    11.4800    10.1060   -40.7110  -999.2500  -999.2500
  563.0000  -999.2500  -999.2500  -999.2500  -999.2500   -37.4460    94.7550     9.4140    13.3560    11.4290    10.0560   -40.7110  -999.2500  -999.2500
  563.5000  -999.2500  -999.2500  -999.2500  -999.2500   -36.9930    96.7250     9.4210    13.4880    11.2740     9.9000   -40.7110  -999.2500  -999.2500
  564.0000  -999.2500  -999.2500  -999.2500  -999.2500   -36.5530    94.9420     9.4480    13.6200    11.1190     9.7450   -40.7110  -999.2500  -999.2500
  564.5000  -999.2500  -999.2500  -999.2500  -999.2500   -36.1320    92.1930     9.4720    13.7710    10.9650     9.8230   -40.7110  -999.2500  -999.2500
  565.0000  -999.2500  -999.2500  -999.2500  -999.2500   -35.6500    89.5810     9.4970    13.5150    10.8100     9.9000   -40.7110  -999.2500  -999.2500
  565.5000  -999.2500  -999.2500  -999.2500  -999.2500   -35.3120    86.7770     9.5210    13.2130    10.6550    10.0310   -40.7110  -999.2500  -999.2500
