~VERSION INFORMATION
 VERS.                2.0:   CWLS LOG ASCII STANDARD - VERSION 2.0
 WRAP.                 NO:   ONE LINE PER DEPTH STEP
~WELL INFORMATION
#MNEM.UNIT      DATA TYPE    INFORMATION
#----------   ------------   ------------------------------
 STRT.F           20.0000:   START DEPTH
 STOP.F         4105.0000:   STOP DEPTH
 STEP.F            0.5000:   STEP LENGTH
 NULL.          -999.2500:   NO VALUE
 COMP. LAWRENCE ALLISON AND ASSOCAITES:   COMPANY
 WELL. LAWRENCE"X" #88-28:   WELL
 FLD .              N P R:   FIELD
 LOC .      S28 T39N R78W:   LOCATION
 CNTY.            NATRONA:   COUNTY
 STAT.            WYOMING:   STATE
 CTRY. UNITED STATES OF AMERICA:   COUNTRY
 SRVC.      DRESSER ATLAS:   SERVICE COMPANY
 DATE.        08-MAR-1984:   LOGDATE
 API .     49025109650000:   API NUMBER
~CURVE INFORMATION
#MNEM.UNIT       API CODE    CURVE DESCRIPTION
#----------   ------------   ------------------------------
 DEPT.F                  :   
 RHOB.G/C3   45 350 01 00:   BULK DENSITY
 CORR.G/C3   45 356 01 00:   DENSITY CORRECTION
 TEND.LBS    45 635 01 00:   TENSION FROM DENSITY LOG
 NPHI.DEC    42 890 03 00:   NEUTRON POROSITY SANDSTONE
 SPR .MV     07 010 01 00:   SPONTANEOUS POTENTIAL
 GRR .GAPI   07 310 01 00:   GAMMA RAY FROM RESISTIVITY
 CALR.IN     07 280 01 00:   CALIPER FROM RESISTIVITY
 RILD.OHMM   07 120 46 00:   DEEP INDUCTION RESISTIVITY
 RILM.OHMM   07 120 44 00:   INDUCTION LOG MEDIUM RESISTIVITY
 RSFL.OHMM   07 220 01 00:   SPHERICALLY FOCUSED RES.
 TENR.LBS    07 635 01 00:   TENSION FROM RESISTIVITY
 DT  .US/F   60 520 00 00:   DELTA TIME
 TENS.LBS    60 635 01 00:   TENSION
~PARAMETER INFORMATION
#MNEM.UNIT          VALUE    DESCRIPTION
#----------   ------------   ------------------------------
 EKB .F         5096.0000:   Kelly bushing
 EGL .F         5085.0000:   Ground level
 TD  .F         4100.0000:   Total depth
 DATE.        08-MAR-1984:   Date logged
 CLNT.            A2DTECH:   Client Code
 SL  .  600' FSL & 80 FEL:   Surface Location
 PD  .                 GL:   Permanent Datum
 EPD .F              5085:   Elevation Permanent Datum
 LMF .                 KB:   Log Measured From
 DMF .                 KB:   Drilling Measured From
 DAPD.F                11:   Feet Above Permanent Datum
 DD  .F              4100:   Depth driller
 DL  .F              4098:   Depth logger
 BLI .F              4096:   Bottom log interval
 TLI .F              2079:   Top log interval
 CS1 .IN            8.625:   Casing size
 CBD1.      8.625' @ 533':   Casing driller 1
 BS1 .IN            7.875:   Bit size
 BSD1.F              4100:   Depth drilled with bit1
 DFT .            GEL KCL:   Type fluid in hole
 DFD .                9.1:   Density
 DFV .                 38:   Viscosity
 DFPH.                8.0:   pH
 DFL .                 14:   Fluid loss
 MSS .           FLOWLINE:   Source of sample
 RMS .OHMM            .58:   Rm
 MST .F                84:   Rm Meas. temp.
 RMF .OHMM            .50:   Rmf
 MFST.F                73:   Rmf Meas. temp.
 RMC .OHMM            .72:   Rmc
 MCST.F                84:   Rmc Meas. temp.
 MFSS.               MEAS:   Source Rmf.
 MCSS.               CALC:   Source Rmc.
 RMB .OHMM            .36:   Rm. at BHT
 BHT .F               134:   BHT.
 TCS .HRS               7:   Time Circ. stopped
 MRT .F               134:   Maximum recorded temp.
 LUN .               6307:   Logging unit number
 LUL .               GLTE:   Logging unit location
 ENGI.            DEYOUNG:   Recorded By
 WITN.             STRONG:   Witnessed by
 ORIG.         2.5" PRINT:   Origin of data
 UWI .     49025109650000:   Unique Well ID
 DICO. A2D TECHNOLOGIES, INC.:   Digitizing Company
~OTHER INFORMATION
~A   DEPT     RHOB       CORR       TEND       NPHI        SPR         GRR      CALR       RILD       RILM       RSFL       TENR         DT       TENS   
# ...
 3842.0000     2.5990     0.0160   -41.0560     0.2700   -44.4620   133.6440     8.6160     3.2340     3.3680     4.7830   -24.9010    90.5920   -28.6630
 3842.5000     2.6000     0.0400   -41.8500     0.2700   -44.4730   135.1650     8.6110     3.0660     3.1670     4.5460   -24.9010    91.9360   -28.3280
 3843.0000     2.5920     0.0480   -42.6430     0.2660   -44.4700   133.6410     8.6060     2.8990     2.9850     4.3090   -24.9010    93.2490   -27.9930
 3843.5000     2.5850     0.0560   -43.4370     0.2700   -44.4760   134.1080     8.6010     2.7310     2.8030     4.0720   -32.8060    94.5630   -27.6580
 3844.0000     2.5820     0.0630   -44.2310     0.2740   -44.4680   137.1830     8.5960     2.5640     2.6360     3.8350   -32.8060    95.8770   -27.3230
 3844.5000     2.5790     0.0840   -45.0240     0.2780   -44.4660   138.5730     8.5910     2.3970     2.5340     3.7140   -32.8060    97.1900   -26.9880
 3845.0000     2.5880     0.1170   -45.8180     0.2800   -44.5050   139.4250     8.5910     2.2290     2.4980     3.7140   -32.8060    98.3630   -26.6530
 3845.5000     2.5980     0.1520   -46.6120     0.2740   -44.0280   136.9270     8.5990     2.0740     2.4620     3.7140   -32.8060    98.7030   -26.3180
 3846.0000     2.6010     0.1860   -47.4050     0.2600   -42.9690   135.2340     8.6060     2.0570     2.4270     3.6470   -32.8060    99.0440   -25.9830
 3846.5000     2.5930     0.2080   -48.1990     0.2620   -41.9410   134.8660     8.6140     2.0000     2.3910     3.5810   -32.8060    99.3850   -25.6480
 3847.0000     2.5620     0.2270   -48.3250     0.2820   -40.9090   134.5080     8.6220     1.9640     2.3550     3.5160   -32.8060    99.8190   -25.3130
 3847.5000     2.5180     0.2380   -48.2050     0.2970   -40.1360   133.9920     8.6300     1.9640     2.3190     3.4580   -32.8060   100.2830   -25.0490
 3848.0000     2.4990     0.2810   -48.0850     0.2980   -40.1560   132.8500     8.6380     1.9640     2.2840     3.3290   -32.8060   100.7480   -25.0490
 3848.5000     2.5280     0.2320   -47.9660     0.2980   -40.7070   131.3780     8.6460     1.9960     2.2720     3.3600   -32.8060   101.2120   -25.0490
 3849.0000     2.5490     0.1590   -47.8460     0.2980   -41.2730   130.0300     8.6540     2.1090     2.2720     3.4060   -32.8060   101.3530   -25.0490
 3849.5000     2.5570     0.1010   -47.7260     0.2960   -41.7980   132.9470     8.6620     2.2210     2.2720     3.4530   -32.8060   100.8840   -25.0490
 3850.0000     2.5410     0.1500   -47.6060     0.2740   -42.4110   133.9190     8.6670     2.3340     2.2720     3.4220   -32.8060    99.8640   -25.0490
 3850.5000     2.5170     0.2340   -47.4860     0.2500   -41.6760   138.8220     8.6600     2.4880     2.5350     3.3910   -32.8060    98.8760   -25.0490
 3851.0000     2.5420     0.1720   -47.3660     0.2320   -40.5990   117.8720     8.6540     2.6990     2.7550     4.4900   -32.8060    94.1540   -25.0490
 3851.5000     2.5920     0.0890   -47.2470     0.2260   -40.5210   104.5450     8.6480     2.9100     2.9760     5.5490   -32.8060    89.5740   -25.0490
 3852.0000     2.6020     0.0200   -47.1270     0.2220   -40.4920    93.1400     8.6420     3.1210     3.1960     6.6490   -32.8060    86.0110   -25.0490
 3852.5000     2.6050    -0.0010   -47.0070     0.2250   -40.7110    96.3880     8.6360     3.3310     3.4170     7.6910   -32.8060    80.9270   -25.0490
 3853.0000     2.5890     0.0140   -46.8870     0.2290   -41.6380   104.9170     8.6290     3.4530     3.6370     5.6850   -32.8060    82.2800   -25.0490
 3853.5000     2.5680     0.0440   -46.7670     0.2350   -42.4980   112.1380     8.6230     3.4530     3.7140     4.4550   -32.8060    85.6210   -25.0490
 3854.0000     2.5540     0.0710   -46.6470     0.2410   -43.1890   114.5290     8.6170     3.4530     3.6470     4.4550   -32.8060    87.3790   -25.0490
 3854.5000     2.5900     0.0850   -46.5280     0.2480   -42.8640   112.8420     8.6100     3.3230     3.4390     4.6480   -32.8060    88.2250   -25.0490
 3855.0000     2.5830     0.0530   -46.4080     0.2460   -42.6370   111.5290     8.6040     3.1450     3.2520     5.1530   -32.8060    87.2390   -25.0490
 3855.5000     2.5630     0.0900   -46.2880     0.2410   -42.0960   110.5110     8.5980     2.9660     3.0660     4.8960   -32.8060    87.8750   -25.0490
 3856.0000     2.5590     0.1530   -46.1680     0.2460   -41.5950   113.2100     8.5920     2.7880     2.8790     4.2880   -32.8060    89.7410   -25.0490
 3856.5000     2.5540     0.2320   -46.0480     0.2540   -41.1220   115.4740     8.5890     2.6100     2.6930     3.6800   -32.8060    91.6070   -25.0490
 3857.0000     2.5550     0.2100   -45.9280     0.2630   -40.6170   118.0400     8.5890     2.4320     2.5070     3.5160   -32.8060    93.7480   -25.0490
 3857.5000     2.5600     0.1800   -45.8090     0.2650   -40.1210   115.1990     8.5890     2.2540     2.3560     3.5160   -32.8060    94.2900   -25.0490
 3858.0000     2.5530     0.1760   -45.6890     0.2650   -39.6500   116.7250     8.5890     2.1370     2.3560     3.5160   -32.8060    94.9260   -25.0490
 3858.5000     2.5330     0.1710   -45.5690     0.2640   -39.1220   118.4480     8.5900     2.1040     2.3730     3.5160   -32.8060    95.5620   -25.0490
 3859.0000     2.5150     0.1610   -45.4490     0.2620   -38.8440   120.3750     8.5870     2.0710     2.3890     3.5160   -32.8060    96.5490   -25.0490
 3859.5000     2.4970     0.2140   -45.3290     0.2480   -38.4940   122.0620     8.5870     2.0370     2.3990     3.3990   -32.8060    97.6520   -25.0490
 3860.0000     2.5070     0.2970   -45.2090     0.2530   -38.5490   122.8800     8.5000     2.2440     2.6590     3.2940   -32.8060    98.1760   -25.0490
 3860.5000     2.5240     0.2190   -45.0890     0.2630   -38.5370   121.3570     8.4520     2.4610     2.9280     3.1530   -32.8060    97.8900   -25.0490
 3861.0000     2.5410     0.1620   -44.9700     0.2550   -38.5430   119.6160     8.4030     2.6770     3.1980     3.8550   -32.8060    94.4350   -25.0490
 3861.5000     2.5580     0.0940   -44.8500     0.2430   -38.7990   113.8200     8.3570     2.8930     3.4680     4.9290   -32.8060    90.7600   -25.0490
 3862.0000     2.5730     0.0420   -44.7300     0.2270   -39.0330   106.0930     8.3100     3.1090     3.7370     6.0020   -32.8060    87.6430   -25.0490
 3862.5000     2.5730     0.0240   -44.6100     0.2370   -39.3020   109.0460     8.2630     3.3250     3.8870     7.2830   -32.8060    84.5270   -25.0490
 3863.0000     2.5640     0.0080   -44.4900     0.2530   -39.0130   115.8760     8.2150     3.5410     3.9220     6.3410   -32.8060    82.5680   -25.0490
 3863.5000     2.5560    -0.0050   -44.3700     0.2720   -38.6820   121.8100     8.1700     3.7820     3.9940     5.1740   -32.8060    84.6040   -25.0490
 3864.0000     2.5530     0.0060   -44.2510     0.2730   -38.3280   126.0280     8.1180     3.5860     3.9940     4.1420   -32.8060    87.0410   -25.0490
 3864.5000     2.6150     0.0180   -44.1310     0.2740   -37.9800   126.5060     8.1340     3.3650     3.6550     4.5090   -32.8060    87.3850   -25.0490
 3865.0000     2.6480     0.0340   -44.0110     0.2770   -37.7250   127.1460     8.1540     3.1440     3.3520     4.8370   -32.8060    87.0410   -25.0490
 3865.5000     2.6110     0.0530   -43.8910     0.2800   -37.6590   133.1710     8.1770     2.9310     3.0480     5.1530   -32.8060    86.7150   -25.0490
 3866.0000     2.5110     0.1380   -43.7710     0.2790   -37.5870   138.9240     8.1990     2.8780     2.8260     4.4270   -32.8060    86.8440   -25.0490
 3866.5000     2.4130     0.2190   -43.6510     0.2690   -37.5190   146.3370     8.2230     3.0400     2.9310     3.7270   -32.8060    91.2700   -25.0490
 3867.0000     2.4380     0.1820   -43.5320     0.2580   -37.4530   143.2870     8.2280     3.4170     3.5120     3.2690   -32.8060    96.9030   -25.0490
 3867.5000     2.4990     0.0690   -43.4120     0.2470   -37.3790   134.6670     8.2130     3.7560     4.1590     3.6020   -32.8060    96.0360   -25.0490
