~VERSION INFORMATION
 VERS.                2.0:   CWLS LOG ASCII STANDARD - VERSION 2.0
 WRAP.                 NO:   ONE LINE PER DEPTH STEP
~WELL INFORMATION
#MNEM.UNIT      DATA TYPE    INFORMATION
#----------   ------------   ------------------------------
 STRT.F           20.0000:   START DEPTH
 STOP.F         4105.0000:   STOP DEPTH
 STEP.F            0.5000:   STEP LENGTH
 NULL.          -999.2500:   NO VALUE
 COMP. LAWRENCE ALLISON AND ASSOCAITES:   COMPANY
 WELL. LAWRENCE"X" #88-28:   WELL
 FLD .              N P R:   FIELD
 LOC .      S28 T39N R78W:   LOCATION
 CNTY.            NATRONA:   COUNTY
 STAT.            WYOMING:   STATE
 CTRY. UNITED STATES OF AMERICA:   COUNTRY
 SRVC.      DRESSER ATLAS:   SERVICE COMPANY
 DATE.        08-MAR-1984:   LOGDATE
 API .     49025109650000:   API NUMBER
~CURVE INFORMATION
#MNEM.UNIT       API CODE    CURVE DESCRIPTION
#----------   ------------   ------------------------------
 DEPT.F                  :   
 RHOB.G/C3   45 350 01 00:   BULK DENSITY
 CORR.G/C3   45 356 01 00:   DENSITY CORRECTION
 TEND.LBS    45 635 01 00:   TENSION FROM DENSITY LOG
 NPHI.DEC    42 890 03 00:   NEUTRON POROSITY SANDSTONE
 SPR .MV     07 010 01 00:   SPONTANEOUS POTENTIAL
 GRR .GAPI   07 310 01 00:   GAMMA RAY FROM RESISTIVITY
 CALR.IN     07 280 01 00:   CALIPER FROM RESISTIVITY
 RILD.OHMM   07 120 46 00:   DEEP INDUCTION RESISTIVITY
 RILM.OHMM   07 120 44 00:   INDUCTION LOG MEDIUM RESISTIVITY
 RSFL.OHMM   07 220 01 00:   SPHERICALLY FOCUSED RES.
 TENR.LBS    07 635 01 00:   TENSION FROM RESISTIVITY
 DT  .US/F   60 520 00 00:   DELTA TIME
 TENS.LBS    60 635 01 00:   TENSION
~PARAMETER INFORMATION
#MNEM.UNIT          VALUE    DESCRIPTION
#----------   ------------   ------------------------------
 EKB .F         5096.0000:   Kelly bushing
 EGL .F         5085.0000:   Ground level
 TD  .F         4100.0000:   Total depth
 DATE.        08-MAR-1984:   Date logged
 CLNT.            A2DTECH:   Client Code
 SL  .  600' FSL & 80 FEL:   Surface Location
 PD  .                 GL:   Permanent Datum
 EPD .F              5085:   Elevation Permanent Datum
 LMF .                 KB:   Log Measured From
 DMF .                 KB:   Drilling Measured From
 DAPD.F                11:   Feet Above Permanent Datum
 DD  .F              4100:   Depth driller
 DL  .F              4098:   Depth logger
 BLI .F              4096:   Bottom log interval
 TLI .F              2079:   Top log interval
 CS1 .IN            8.625:   Casing size
 CBD1.      8.625' @ 533':   Casing driller 1
 BS1 .IN            7.875:   Bit size
 BSD1.F              4100:   Depth drilled with bit1
 DFT .            GEL KCL:   Type fluid in hole
 DFD .                9.1:   Density
 DFV .                 38:   Viscosity
 DFPH.                8.0:   pH
 DFL .                 14:   Fluid loss
 MSS .           FLOWLINE:   Source of sample
 RMS .OHMM            .58:   Rm
 MST .F                84:   Rm Meas. temp.
 RMF .OHMM            .50:   Rmf
 MFST.F                73:   Rmf Meas. temp.
 RMC .OHMM            .72:   Rmc
 MCST.F                84:   Rmc Meas. temp.
 MFSS.               MEAS:   Source Rmf.
 MCSS.               CALC:   Source Rmc.
 RMB .OHMM            .36:   Rm. at BHT
 BHT .F               134:   BHT.
 TCS .HRS               7:   Time Circ. stopped
 MRT .F               134:   Maximum recorded temp.
 LUN .               6307:   Logging unit number
 LUL .               GLTE:   Logging unit location
 ENGI.            DEYOUNG:   Recorded By
 WITN.             STRONG:   Witnessed by
 ORIG.         2.5" PRINT:   Origin of data
 UWI .     49025109650000:   Unique Well ID
 DICO. A2D TECHNOLOGIES, INC.:   Digitizing Company
~OTHER INFORMATION
~A   DEPT     RHOB       CORR       TEND       NPHI        SPR         GRR      CALR       RILD       RILM       RSFL       TENR         DT       TENS   
# ...
 3608.0000     2.4900     0.0170   -44.5250     0.2290   -41.5480   144.1060     8.2420     2.9880     3.1700     3.4930   -38.5350    91.9350   -40.8280
 3608.5000     2.4990    -0.0160   -44.1520     0.2250   -42.0120   140.1610     8.2470     3.0110     3.1920     3.9670   -38.7750    90.4480   -40.8280
 3609.0000     2.5080    -0.0260   -43.7780     0.2210   -42.4450   136.2550     8.2520     3.0350     3.2140     4.5950   -39.0140    88.9610   -40.8280
 3609.5000     2.5110    -0.0370   -43.4040     0.2180   -42.8560   132.5390     8.2570     3.0400     3.2360     5.4430   -39.2530    87.4730   -40.8280
 3610.0000     2.5010    -0.0280   -43.0300     0.2180   -42.5590   131.2290     8.2620     3.1790     3.2580     5.0670   -39.4920    86.3710   -40.8280
 3610.5000     2.4840    -0.0150   -42.6570     0.2200   -42.2730   130.0070     8.2670     3.3140     3.3100     4.4900   -39.7320    85.5500   -40.8280
 3611.0000     2.4840    -0.0020   -42.2830     0.2200   -41.9550   129.0330     8.2730     3.4530     3.3920     3.9130   -39.9710    85.0690   -40.8280
 3611.5000     2.4990     0.0690   -41.9090     0.2190   -41.5260   126.0700     8.2830     3.3060     3.4730     3.4940   -40.2100    85.5230   -40.8280
 3612.0000     2.5250     0.1240   -41.5350     0.2190   -40.6910   121.4960     8.2940     3.0570     3.5810     3.6940   -40.4490    85.3610   -40.8280
 3612.5000     2.5420     0.1100   -41.1620     0.2330   -39.8560   115.4210     8.3060     2.8070     3.3110     3.8950   -40.7110    84.8720   -40.8280
 3613.0000     2.4940     0.0310   -40.7880     0.2460   -39.0040   117.1220     8.3170     2.5570     2.9080     4.0680   -41.9980    84.0430   -40.8280
 3613.5000     2.3470    -0.0290   -40.4760     0.2510   -38.1830   125.6260     8.3280     2.3070     2.5050     5.0770   -43.4210    83.0970   -40.8280
 3614.0000     2.2280     0.0330   -43.2960     0.2560   -37.3280   139.4330     8.3390     2.0580     2.0370     4.8840   -44.8440    87.8390   -40.8280
 3614.5000     2.1830     0.1300   -45.7140     0.2600   -36.4490   153.1610     8.3500     1.8260     2.0150     3.2470   -46.2670    93.2010   -40.8280
 3615.0000     2.1860     0.2470   -48.1330     0.2600   -35.6500   162.5630     8.3610     1.7930     2.0000     2.0760   -47.6900    98.5620   -40.8280
 3615.5000     2.2440     0.2300   -50.5510     0.2580   -36.2050   162.5340     8.3720     1.7930     2.0000     1.9560   -49.1130   103.9230   -40.8280
 3616.0000     2.3280     0.1530   -52.9690     0.2460   -37.0950   160.3140     8.3830     1.7930     2.1660     2.3170   -50.5360   106.4500   -40.8280
 3616.5000     2.4200     0.1140   -55.3870     0.2350   -37.9440   154.3530     8.3940     1.8750     2.3100     2.8190   -51.9590   100.8820   -40.8280
 3617.0000     2.4930     0.0670   -54.4440     0.2240   -38.8130   148.3360     8.4050     2.0050     2.4530     3.3210   -53.3810    95.3140   -40.8280
 3617.5000     2.4970     0.0140   -51.2820     0.2160   -39.6750   147.3480     8.4160     2.1360     2.5970     3.8510   -54.8040    91.3810   -40.8280
 3618.0000     2.5020    -0.0320   -48.1200     0.2190   -40.5250   147.7600     8.4270     2.2660     2.7410     3.8510   -56.2270    90.1780   -40.8280
 3618.5000     2.5070    -0.0460   -44.9570     0.2300   -41.4170   148.1920     8.4380     2.4430     2.8840     3.8510   -56.5220    89.6060   -40.8280
 3619.0000     2.5240    -0.0120   -41.7950     0.2400   -41.7350   148.3730     8.4490     1.9410     3.0280     3.8570   -55.6060    89.7420   -40.8280
 3619.5000     2.5460     0.0540   -40.4760     0.2460   -42.0030   146.2220     8.4600     0.9480     3.2100     3.8800   -54.1830    89.8950   -40.8280
 3620.0000     2.5730     0.0770   -40.4760     0.2520   -42.3640   142.0530     8.4710     1.1160     0.9660     3.9150   -52.7600    90.0490   -40.8280
 3620.5000     2.5650     0.1060   -40.4760     0.2570   -42.5020   138.0890     8.4820     1.6040     1.3050     3.8960   -51.3370    90.1970   -40.8280
 3621.0000     2.5270     0.1410   -40.4760     0.2620   -42.4570   133.6190     8.4930     2.0920     1.8910     3.7600   -49.9140    91.1560   -40.8280
 3621.5000     2.4650     0.1310   -40.4760     0.2640   -41.7820   140.7760     8.5050     2.4140     2.3560     3.6050   -48.4910    91.9720   -40.8280
 3622.0000     2.3940     0.0700   -40.4760     0.2610   -41.1370   156.4080     8.5100     2.3080     2.0510     3.2190   -47.0680    94.5460   -40.8280
 3622.5000     2.2990     0.0530   -40.4760     0.2580   -40.4520   161.9640     8.5100     2.2020     1.5390     2.8320   -45.6450    96.8540   -40.8280
 3623.0000     2.3030     0.0570   -43.7300     0.2650   -39.7900   161.7330     8.5090     2.0950     1.0770     2.6280   -44.2220    99.1620   -40.8280
 3623.5000     2.3140     0.0620   -48.8690     0.2720   -39.1200   158.8440     8.5080     1.9890     1.2070     2.6280   -42.8000   101.4690   -40.8280
 3624.0000     2.3790     0.0690   -54.0080     0.2820   -38.4300   156.4150     8.5060     1.8830     1.4960     2.6500   -41.3770   102.7510   -40.8280
 3624.5000     2.4430     0.0770   -59.1470     0.2800   -38.1340   154.5630     8.5050     1.7930     1.7850     2.6710   -40.7110   103.0180   -40.8280
 3625.0000     2.4390     0.0840   -64.2860     0.2760   -38.4430   155.4340     8.5040     1.7930     2.0370     2.6290   -40.7110   102.6480   -40.8280
 3625.5000     2.4450     0.0770   -64.2860     0.2700   -38.6900   155.8580     8.5030     1.7930     2.0210     2.5340   -40.7110   102.5350   -40.8280
 3626.0000     2.4550     0.0440   -64.2860     0.2640   -38.9650   155.9090     8.5020     1.7930     1.9530     2.5880   -40.7110   102.3720   -40.8280
 3626.5000     2.4770     0.0090   -64.2860     0.2570   -39.1890   152.8200     8.5000     1.9420     1.8860     2.7030   -40.7110   102.0320   -40.8280
 3627.0000     2.4890     0.0120   -64.2860     0.2550   -39.4750   150.1090     8.4990     2.0370     1.8180     2.8180   -40.7110   100.7240   -40.8280
 3627.5000     2.4830     0.0100   -53.9680     0.2580   -39.8770   147.1280     8.4980     1.9740     1.7510     2.9310   -40.7110    99.5520   -40.8280
 3628.0000     2.4610     0.0020   -48.4130     0.2600   -40.3010   145.0590     8.4970     1.8190     1.6830     2.8780   -40.7110    98.9300   -40.8280
 3628.5000     2.4240    -0.0050   -48.4130     0.2590   -39.6460   156.6960     8.4960     1.6630     1.6150     2.5990   -40.7110    99.0730   -40.8280
 3629.0000     2.3900     0.0050   -48.4130     0.2590   -39.1360   177.2540     8.4940     1.5080     1.5480     2.2780   -40.7110    99.9800   -40.8280
 3629.5000     2.3950     0.0150   -48.4130     0.2590   -38.9310   201.4280     8.4930     1.4130     1.4800     1.9560   -40.7110   101.0450   -40.8280
 3630.0000     2.4050     0.0250   -48.4130     0.2810   -39.1750   199.8270     8.4920     1.3650     1.4410     1.8600   -40.7110   100.4700   -40.8280
 3630.5000     2.4160     0.0370   -48.4130     0.2900   -39.4910   235.7800     8.4910     1.3160     1.4150     1.8600   -40.7110    99.8720   -40.8280
 3631.0000     2.3900     0.0690   -48.4130     0.2770   -39.8030   251.8180     8.4900     1.2920     1.4150     1.8340   -40.7110    99.6390   -40.8280
 3631.5000     2.3480     0.0900   -48.4130     0.2530   -40.1110   233.7980     8.4880     1.2920     1.5100     1.8260   -40.7110    99.5990   -40.8280
 3632.0000     2.3720     0.0620   -48.4130     0.2490   -40.4180   203.2250     8.4870     1.3440     1.5940     1.8980   -40.7110    99.5600   -40.8280
 3632.5000     2.4280     0.0360   -48.4130     0.2550   -40.7440   196.9620     8.4860     1.4320     1.6780     2.2470   -40.7110    99.5210   -40.8280
 3633.0000     2.4370     0.0220   -48.4130     0.2610   -41.0350   155.0920     8.4850     1.5210     1.7630     2.6280   -40.7110    99.4810   -40.8280
 3633.5000     2.4350     0.0410   -48.4130     0.2670   -41.2610   153.2130     8.4840     1.6090     1.8470     2.6060   -40.7110    99.6110   -40.8280
