~VERSION INFORMATION
 VERS.                2.0:   CWLS LOG ASCII STANDARD - VERSION 2.0
 WRAP.                 NO:   ONE LINE PER DEPTH STEP
~WELL INFORMATION
#MNEM.UNIT      DATA TYPE    INFORMATION
#----------   ------------   ------------------------------
 STRT.F           20.0000:   START DEPTH
 STOP.F         4105.0000:   STOP DEPTH
 STEP.F            0.5000:   STEP LENGTH
 NULL.          -999.2500:   NO VALUE
 COMP. LAWRENCE ALLISON AND ASSOCAITES:   COMPANY
 WELL. LAWRENCE"X" #88-28:   WELL
 FLD .              N P R:   FIELD
 LOC .      S28 T39N R78W:   LOCATION
 CNTY.            NATRONA:   COUNTY
 STAT.            WYOMING:   STATE
 CTRY. UNITED STATES OF AMERICA:   COUNTRY
 SRVC.      DRESSER ATLAS:   SERVICE COMPANY
 DATE.        08-MAR-1984:   LOGDATE
 API .     49025109650000:   API NUMBER
~CURVE INFORMATION
#MNEM.UNIT       API CODE    CURVE DESCRIPTION
#----------   ------------   ------------------------------
 DEPT.F                  :   
 RHOB.G/C3   45 350 01 00:   BULK DENSITY
 CORR.G/C3   45 356 01 00:   DENSITY CORRECTION
 TEND.LBS    45 635 01 00:   TENSION FROM DENSITY LOG
 NPHI.DEC    42 890 03 00:   NEUTRON POROSITY SANDSTONE
 SPR .MV     07 010 01 00:   SPONTANEOUS POTENTIAL
 GRR .GAPI   07 310 01 00:   GAMMA RAY FROM RESISTIVITY
 CALR.IN     07 280 01 00:   CALIPER FROM RESISTIVITY
 RILD.OHMM   07 120 46 00:   DEEP INDUCTION RESISTIVITY
 RILM.OHMM   07 120 44 00:   INDUCTION LOG MEDIUM RESISTIVITY
 RSFL.OHMM   07 220 01 00:   SPHERICALLY FOCUSED RES.
 TENR.LBS    07 635 01 00:   TENSION FROM RESISTIVITY
 DT  .US/F   60 520 00 00:   DELTA TIME
 TENS.LBS    60 635 01 00:   TENSION
~PARAMETER INFORMATION
#MNEM.UNIT          VALUE    DESCRIPTION
#----------   ------------   ------------------------------
 EKB .F         5096.0000:   Kelly bushing
 EGL .F         5085.0000:   Ground level
 TD  .F         4100.0000:   Total depth
 DATE.        08-MAR-1984:   Date logged
 CLNT.            A2DTECH:   Client Code
 SL  .  600' FSL & 80 FEL:   Surface Location
 PD  .                 GL:   Permanent Datum
 EPD .F              5085:   Elevation Permanent Datum
 LMF .                 KB:   Log Measured From
 DMF .                 KB:   Drilling Measured From
 DAPD.F                11:   Feet Above Permanent Datum
 DD  .F              4100:   Depth driller
 DL  .F              4098:   Depth logger
 BLI .F              4096:   Bottom log interval
 TLI .F              2079:   Top log interval
 CS1 .IN            8.625:   Casing size
 CBD1.      8.625' @ 533':   Casing driller 1
 BS1 .IN            7.875:   Bit size
 BSD1.F              4100:   Depth drilled with bit1
 DFT .            GEL KCL:   Type fluid in hole
 DFD .                9.1:   Density
 DFV .                 38:   Viscosity
 DFPH.                8.0:   pH
 DFL .                 14:   Fluid loss
 MSS .           FLOWLINE:   Source of sample
 RMS .OHMM            .58:   Rm
 MST .F                84:   Rm Meas. temp.
 RMF .OHMM            .50:   Rmf
 MFST.F                73:   Rmf Meas. temp.
 RMC .OHMM            .72:   Rmc
 MCST.F                84:   Rmc Meas. temp.
 MFSS.               MEAS:   Source Rmf.
 MCSS.               CALC:   Source Rmc.
 RMB .OHMM            .36:   Rm. at BHT
 BHT .F               134:   BHT.
 TCS .HRS               7:   Time Circ. stopped
 MRT .F               134:   Maximum recorded temp.
 LUN .               6307:   Logging unit number
 LUL .               GLTE:   Logging unit location
 ENGI.            DEYOUNG:   Recorded By
 WITN.             STRONG:   Witnessed by
 ORIG.         2.5" PRINT:   Origin of data
 UWI .     49025109650000:   Unique Well ID
 DICO. A2D TECHNOLOGIES, INC.:   Digitizing Company
~OTHER INFORMATION
~A   DEPT     RHOB       CORR       TEND       NPHI        SPR         GRR      CALR       RILD       RILM       RSFL       TENR         DT       TENS   
# ...
 3374.0000     2.3680     0.1250   -48.4130     0.2610   -42.2610   164.2250     8.0750     2.7250     2.8260     3.2370   -26.0680    96.5090   -32.9390
 3374.5000     2.3220     0.1620   -48.4130     0.2360   -42.7090   162.1260     8.0750     2.6000     2.8260     3.2100   -26.4540    95.5920   -32.9390
 3375.0000     2.3300     0.1410   -48.4130     0.2270   -43.2460   159.4760     8.0750     2.4610     2.7250     3.2690   -26.8410    94.6070   -32.9390
 3375.5000     2.3630     0.0740   -48.4130     0.2330   -43.2740   161.3400     8.0750     2.3220     2.6630     3.2950   -27.2270    93.6220   -32.9390
 3376.0000     2.3940     0.0170   -48.4130     0.2440   -43.3030   170.7370     8.0750     2.1830     2.6000     3.3290   -27.6140    92.6370   -32.9390
 3376.5000     2.4120     0.0100   -48.4130     0.2550   -43.2730   184.5940     8.0750     2.0440     2.4010     3.2100   -28.0000    91.6510   -32.9390
 3377.0000     2.3990     0.0040   -48.4130     0.2600   -43.2510   197.8110     8.0750     1.9050     2.1380     2.9990   -28.3870    91.4520   -32.9390
 3377.5000     2.3860     0.0040   -48.4130     0.2620   -42.4460   201.7090     8.0750     1.7660     1.8750     2.5950   -28.7730    92.4310   -32.9390
 3378.0000     2.3800     0.0110   -48.4130     0.2630   -41.5940   196.2450     8.0750     1.6270     1.6370     2.1910   -29.1600    94.5360   -32.9390
 3378.5000     2.3820     0.0140   -48.4130     0.2650   -40.7160   192.7130     8.0750     1.4950     1.6370     1.7610   -29.5460    96.2170   -32.9390
 3379.0000     2.4270     0.0160   -48.4130     0.2650   -39.8440   190.4690     8.0750     1.4680     1.6670     1.7930   -29.9330    97.6920   -32.9390
 3379.5000     2.4780     0.0190   -48.4130     0.2650   -38.9850   189.9490     8.0750     1.5780     1.8600     1.9290   -30.3190    96.5090   -32.9390
 3380.0000     2.4610     0.0350   -48.4130     0.2540   -38.1200   189.1640     8.0750     1.7950     2.0770     2.2710   -30.7060    94.5360   -32.9390
 3380.5000     2.4250     0.0530   -48.4130     0.2430   -37.2220   175.2950     8.0750     2.0120     2.2710     2.6900   -31.0920    93.1860   -32.9390
 3381.0000     2.3860     0.0720   -48.4130     0.2250   -37.0660   163.4980     8.0750     2.2290     2.4660     3.0960   -31.4780    91.9720   -32.9390
 3381.5000     2.3930     0.0850   -48.4130     0.2280   -37.2790   151.4210     8.0750     2.4460     2.6600     3.1750   -31.8650    93.1560   -32.9390
 3382.0000     2.4150     0.0510   -48.4130     0.2350   -38.3440   139.5660     8.0750     2.6630     2.8540     3.4530   -32.2510    94.1480   -32.9390
 3382.5000     2.4530     0.0090   -48.4130     0.2430   -39.7580   136.7290     8.0740     2.8400     3.0400     3.7540   -32.6380    93.7010   -32.9390
 3383.0000     2.4680    -0.0280   -48.4130     0.2510   -40.8670   138.4940     8.0730     2.9990     3.0960     3.9960   -33.0240    92.8070   -32.9390
 3383.5000     2.4700    -0.0190   -48.4130     0.2590   -41.2170   144.6050     8.0730     3.0960     3.1530     4.1420   -33.4110    91.9130   -32.9390
 3384.0000     2.4630    -0.0070   -48.4130     0.2660   -41.3050   150.4820     8.0720     2.8900     3.0170     3.9910   -33.7970    91.7750   -32.9390
 3384.5000     2.4640     0.0060   -48.4130     0.2600   -41.3200   156.3070     8.0710     2.6860     2.7990     3.6730   -34.1840    92.7090   -32.9390
 3385.0000     2.4700     0.0170   -48.4130     0.2630   -41.3020   162.0860     8.0710     2.4820     2.5820     3.4530   -34.5700    93.8040   -32.9390
 3385.5000     2.4420    -0.0030   -48.4130     0.2720   -41.3020   167.8810     8.0700     2.2790     2.3650     3.2880   -34.9570    94.7340   -32.9390
 3386.0000     2.4030     0.0470   -48.6320     0.2730   -41.3030   176.0020     8.0690     2.2310     2.2720     3.0050   -35.3430    96.7910   -32.9390
 3386.5000     2.3670     0.1160   -49.6780     0.2590   -41.3710   173.2990     8.0690     2.2310     2.2720     2.6150   -35.7300    98.5790   -32.9390
 3387.0000     2.3820     0.1020   -50.7240     0.2590   -41.8210   164.5200     8.0680     2.2720     2.2720     2.3990   -36.1160   100.3670   -32.9390
 3387.5000     2.4160     0.0460   -51.7700     0.2590   -42.1590   156.7600     8.0680     2.3470     2.3960     2.9110   -36.5030   102.2290   -32.9390
 3388.0000     2.4540     0.0220   -52.8160     0.2510   -42.6200   150.0330     8.0670     2.4430     2.6790     3.4000   -36.8890    99.9210   -32.9390
 3388.5000     2.4730     0.0100   -53.8620     0.2510   -43.0790   151.9420     8.0660     2.5060     2.9620     3.7820   -37.2750    97.3670   -32.9390
 3389.0000     2.4800     0.0060   -54.9080     0.2500   -43.3020   154.3820     8.0660     2.6820     3.2450     3.9440   -37.6620    94.8130   -32.9390
 3389.5000     2.4760     0.0040   -55.9540     0.2490   -43.2790   157.2230     8.0650     2.8570     3.5160     4.1100   -38.0480    92.9150   -32.9390
 3390.0000     2.4760     0.0010   -57.0000     0.2450   -43.3010   159.9580     8.0640     3.0320     3.5720     4.2960   -38.4350    92.2850   -32.9390
 3390.5000     2.4780    -0.0010   -58.0460     0.2370   -43.0380   162.5360     8.0640     3.2070     3.6470     4.2050   -38.8210    91.8590   -32.9390
 3391.0000     2.4810     0.0010   -59.0920     0.2340   -42.3990   165.4180     8.0630     3.3910     3.5900     4.1030   -39.2080    91.5780   -32.9390
 3391.5000     2.4830     0.0090   -60.1380     0.2340   -41.7920   165.5970     8.0620     3.3120     3.5380     4.0010   -39.5940    91.5780   -32.9390
 3392.0000     2.4800     0.0160   -61.1840     0.2380   -41.1560   162.9080     8.0620     3.2290     3.4870     3.8980   -39.9810    91.5780   -32.9390
 3392.5000     2.4770     0.0240   -62.2300     0.2420   -40.8750   158.8990     8.0610     3.1470     3.4360     3.7820   -40.3670    92.1010   -32.9390
 3393.0000     2.4750     0.0160   -63.2760     0.2460   -41.0870   155.0180     8.0600     3.0400     3.3840     3.7570   -40.7540    92.6110   -32.9390
 3393.5000     2.4790     0.0050   -64.2860     0.2440   -41.5330   151.1510     8.0600     3.0510     3.3290     3.7050   -41.1400    93.1220   -32.9390
 3394.0000     2.4850     0.0170   -62.7220     0.2420   -41.9740   147.1620     8.0590     3.0880     3.2690     3.6530   -41.5270    93.6330   -32.9390
 3394.5000     2.4900     0.0290   -61.2110     0.2400   -41.8300   143.4890     8.0590     3.0960     3.1530     3.5810   -41.9130    94.1440   -32.9390
 3395.0000     2.4920     0.0410   -59.7000     0.2440   -41.4520   139.0480     8.0580     3.0960     3.0960     3.6540   -42.2990    94.5360   -32.9390
 3395.5000     2.4860     0.0190   -58.1890     0.2440   -41.0730   138.7450     8.0570     3.0030     3.0960     3.7730   -42.6860    94.1050   -32.9390
 3396.0000     2.4770     0.0030   -56.6780     0.2430   -40.6830   139.2140     8.0570     2.8920     3.0960     3.8920   -43.0720    93.5500   -32.9390
 3396.5000     2.4580    -0.0070   -55.1680     0.2560   -40.5020   141.4550     8.0560     2.7820     3.0580     3.9940   -43.4590    93.6670   -32.9390
 3397.0000     2.4290     0.0220   -53.6570     0.2590   -40.5290   143.2670     8.0550     2.6720     2.9870     3.6450   -43.8450    94.1800   -32.9390
 3397.5000     2.3940     0.0760   -52.1460     0.2530   -40.8210   145.5760     8.0550     2.6280     2.8780     3.3390   -44.2320    95.3480   -32.9390
 3398.0000     2.3700     0.1160   -50.6350     0.2430   -41.1310   141.5190     8.0540     2.6840     2.8260     2.9310   -44.6180    96.9030   -32.9390
 3398.5000     2.3850     0.0170   -49.1240     0.2330   -41.4550   136.1980     8.0530     2.8260     2.8810     3.0090   -45.0050    94.9540   -32.9390
 3399.0000     2.3980    -0.0090   -48.8640     0.2230   -41.7600   130.7220     8.0530     2.8260     2.9630     3.2840   -45.3910    92.0340   -32.9390
 3399.5000     2.4060    -0.0310   -49.7160     0.2130   -42.1030   125.4930     8.0520     2.8260     2.9850     3.5600   -45.7780    89.0140   -32.9390
