~VERSION INFORMATION
 VERS.                2.0:   CWLS LOG ASCII STANDARD - VERSION 2.0
 WRAP.                 NO:   ONE LINE PER DEPTH STEP
~WELL INFORMATION
#MNEM.UNIT      DATA TYPE    INFORMATION
#----------   ------------   ------------------------------
 STRT.F           20.0000:   START DEPTH
 STOP.F         4105.0000:   STOP DEPTH
 STEP.F            0.5000:   STEP LENGTH
 NULL.          -999.2500:   NO VALUE
 COMP. LAWRENCE ALLISON AND ASSOCAITES:   COMPANY
 WELL. LAWRENCE"X" #88-28:   WELL
 FLD .              N P R:   FIELD
 LOC .      S28 T39N R78W:   LOCATION
 CNTY.            NATRONA:   COUNTY
 STAT.            WYOMING:   STATE
 CTRY. UNITED STATES OF AMERICA:   COUNTRY
 SRVC.      DRESSER ATLAS:   SERVICE COMPANY
 DATE.        08-MAR-1984:   LOGDATE
 API .     49025109650000:   API NUMBER
~CURVE INFORMATION
#MNEM.UNIT       API CODE    CURVE DESCRIPTION
#----------   ------------   ------------------------------
 DEPT.F                  :   
 RHOB.G/C3   45 350 01 00:   BULK DENSITY
 CORR.G/C3   45 356 01 00:   DENSITY CORRECTION
 TEND.LBS    45 635 01 00:   TENSION FROM DENSITY LOG
 NPHI.DEC    42 890 03 00:   NEUTRON POROSITY SANDSTONE
 SPR .MV     07 010 01 00:   SPONTANEOUS POTENTIAL
 GRR .GAPI   07 310 01 00:   GAMMA RAY FROM RESISTIVITY
 CALR.IN     07 280 01 00:   CALIPER FROM RESISTIVITY
 RILD.OHMM   07 120 46 00:   DEEP INDUCTION RESISTIVITY
 RILM.OHMM   07 120 44 00:   INDUCTION LOG MEDIUM RESISTIVITY
 RSFL.OHMM   07 220 01 00:   SPHERICALLY FOCUSED RES.
 TENR.LBS    07 635 01 00:   TENSION FROM RESISTIVITY
 DT  .US/F   60 520 00 00:   DELTA TIME
 TENS.LBS    60 635 01 00:   TENSION
~PARAMETER INFORMATION
#MNEM.UNIT          VALUE    DESCRIPTION
#----------   ------------   ------------------------------
 EKB .F         5096.0000:   Kelly bushing
 EGL .F         5085.0000:   Ground level
 TD  .F         4100.0000:   Total depth
 DATE.        08-MAR-1984:   Date logged
 CLNT.            A2DTECH:   Client Code
 SL  .  600' FSL & 80 FEL:   Surface Location
 PD  .                 GL:   Permanent Datum
 EPD .F              5085:   Elevation Permanent Datum
 LMF .                 KB:   Log Measured From
 DMF .                 KB:   Drilling Measured From
 DAPD.F                11:   Feet Above Permanent Datum
 DD  .F              4100:   Depth driller
 DL  .F              4098:   Depth logger
 BLI .F              4096:   Bottom log interval
 TLI .F              2079:   Top log interval
 CS1 .IN            8.625:   Casing size
 CBD1.      8.625' @ 533':   Casing driller 1
 BS1 .IN            7.875:   Bit size
 BSD1.F              4100:   Depth drilled with bit1
 DFT .            GEL KCL:   Type fluid in hole
 DFD .                9.1:   Density
 DFV .                 38:   Viscosity
 DFPH.                8.0:   pH
 DFL .                 14:   Fluid loss
 MSS .           FLOWLINE:   Source of sample
 RMS .OHMM            .58:   Rm
 MST .F                84:   Rm Meas. temp.
 RMF .OHMM            .50:   Rmf
 MFST.F                73:   Rmf Meas. temp.
 RMC .OHMM            .72:   Rmc
 MCST.F                84:   Rmc Meas. temp.
 MFSS.               MEAS:   Source Rmf.
 MCSS.               CALC:   Source Rmc.
 RMB .OHMM            .36:   Rm. at BHT
 BHT .F               134:   BHT.
 TCS .HRS               7:   Time Circ. stopped
 MRT .F               134:   Maximum recorded temp.
 LUN .               6307:   Logging unit number
 LUL .               GLTE:   Logging unit location
 ENGI.            DEYOUNG:   Recorded By
 WITN.             STRONG:   Witnessed by
 ORIG.         2.5" PRINT:   Origin of data
 UWI .     49025109650000:   Unique Well ID
 DICO. A2D TECHNOLOGIES, INC.:   Digitizing Company
~OTHER INFORMATION
~A   DEPT     RHOB       CORR       TEND       NPHI        SPR         GRR      CALR       RILD       RILM       RSFL       TENR         DT       TENS   
# ...
  774.0000  -999.2500  -999.2500  -999.2500  -999.2500   -36.4700   109.9450     9.4190     9.9240     8.7370     7.9770   -32.8060  -999.2500  -999.2500
  774.5000  -999.2500  -999.2500  -999.2500  -999.2500   -37.1670   109.9870     9.4190     9.9230     8.7370     7.9770   -32.8060  -999.2500  -999.2500
  775.0000  -999.2500  -999.2500  -999.2500  -999.2500   -37.3660   105.6660     9.4190     9.9220     8.7960     7.9770   -32.8060  -999.2500  -999.2500
  775.5000  -999.2500  -999.2500  -999.2500  -999.2500   -37.2730    99.6120     9.4190     9.9210     8.9500     7.9770   -32.8060  -999.2500  -999.2500
  776.0000  -999.2500  -999.2500  -999.2500  -999.2500   -37.1020    98.5610     9.4190     9.9210     9.1040     8.3660   -32.9740  -999.2500  -999.2500
  776.5000  -999.2500  -999.2500  -999.2500  -999.2500   -36.9800    99.3540     9.4190    10.0460     9.2570     8.8290   -33.1720  -999.2500  -999.2500
  777.0000  -999.2500  -999.2500  -999.2500  -999.2500   -37.0120   100.2670     9.4190    10.2310     9.4110     9.2270   -33.3710  -999.2500  -999.2500
  777.5000  -999.2500  -999.2500  -999.2500  -999.2500   -37.8230   100.7570     9.4190    10.4160     9.5650     9.0880   -33.5700  -999.2500  -999.2500
  778.0000  -999.2500  -999.2500  -999.2500  -999.2500   -38.5490    98.7160     9.4190    10.6030     9.7190     8.9660   -33.7690  -999.2500  -999.2500
  778.5000  -999.2500  -999.2500  -999.2500  -999.2500   -39.2780    96.7680     9.4190    10.7850     9.8720     8.8970   -33.9680  -999.2500  -999.2500
  779.0000  -999.2500  -999.2500  -999.2500  -999.2500   -40.0850    94.7050     9.4190    10.9690     9.9240     8.9420   -34.1660  -999.2500  -999.2500
  779.5000  -999.2500  -999.2500  -999.2500  -999.2500   -39.9840    92.4230     9.4190    11.1520     9.9240     8.9850   -34.3650  -999.2500  -999.2500
  780.0000  -999.2500  -999.2500  -999.2500  -999.2500   -39.7230    91.9880     9.4190    11.2720     9.9240     9.0270   -34.5640  -999.2500  -999.2500
  780.5000  -999.2500  -999.2500  -999.2500  -999.2500   -39.4380    94.8140     9.4190    11.6720     9.9240     9.0700   -34.7630  -999.2500  -999.2500
  781.0000  -999.2500  -999.2500  -999.2500  -999.2500   -39.1710    95.5890     9.4190    11.6430     9.9240     9.1130   -34.9610  -999.2500  -999.2500
  781.5000  -999.2500  -999.2500  -999.2500  -999.2500   -38.8870    93.5840     9.4190    11.5840     9.9240     9.1560   -35.1600  -999.2500  -999.2500
  782.0000  -999.2500  -999.2500  -999.2500  -999.2500   -38.6180    92.4960     9.4190    11.5250     9.9240     9.1980   -35.3590  -999.2500  -999.2500
  782.5000  -999.2500  -999.2500  -999.2500  -999.2500   -37.8210    91.9280     9.4190    11.4660     9.9240     9.2270   -35.5580  -999.2500  -999.2500
  783.0000  -999.2500  -999.2500  -999.2500  -999.2500   -36.7780    94.7890     9.4190    11.4060     9.9240     9.2270   -35.7570  -999.2500  -999.2500
  783.5000  -999.2500  -999.2500  -999.2500  -999.2500   -35.7480    95.3600     9.4190    11.3470     9.9240     9.3970   -35.9550  -999.2500  -999.2500
  784.0000  -999.2500  -999.2500  -999.2500  -999.2500   -34.7470    96.0870     9.4200    11.2880     9.9240     9.2350   -36.1540  -999.2500  -999.2500
  784.5000  -999.2500  -999.2500  -999.2500  -999.2500   -33.6960    93.4100     9.4210    11.2290     9.9240     8.9110   -36.3530  -999.2500  -999.2500
  785.0000  -999.2500  -999.2500  -999.2500  -999.2500   -33.9060    90.2130     9.4220    11.1700     9.9240     8.9470   -36.5520  -999.2500  -999.2500
  785.5000  -999.2500  -999.2500  -999.2500  -999.2500   -34.7280    89.7260     9.4230    11.1110     9.9240     9.0180   -36.7500  -999.2500  -999.2500
  786.0000  -999.2500  -999.2500  -999.2500  -999.2500   -35.5230    91.7810     9.4240    11.0520     9.9250     9.0890   -36.9490  -999.2500  -999.2500
  786.5000  -999.2500  -999.2500  -999.2500  -999.2500   -36.2990    92.4180     9.4250    10.9930     9.9250     9.1600   -37.1480  -999.2500  -999.2500
  787.0000  -999.2500  -999.2500  -999.2500  -999.2500   -37.0990    93.2040     9.4260    10.9340     9.9240     9.2270   -37.3470  -999.2500  -999.2500
  787.5000  -999.2500  -999.2500  -999.2500  -999.2500   -37.3500    94.1870     9.4270    10.8750     9.9240     8.9300   -37.5460  -999.2500  -999.2500
  788.0000  -999.2500  -999.2500  -999.2500  -999.2500   -36.9840    93.6280     9.4280    10.8150     9.9240     8.6500   -37.7440  -999.2500  -999.2500
  788.5000  -999.2500  -999.2500  -999.2500  -999.2500   -36.5900    91.6880     9.4290    10.7560     9.9240     8.5790   -37.9430  -999.2500  -999.2500
  789.0000  -999.2500  -999.2500  -999.2500  -999.2500   -36.5760    89.8500     9.4300    10.6970     9.7130     8.7250   -38.1420  -999.2500  -999.2500
  789.5000  -999.2500  -999.2500  -999.2500  -999.2500   -36.9980    88.1940     9.4310    10.6380     9.5510     8.9750   -38.3410  -999.2500  -999.2500
  790.0000  -999.2500  -999.2500  -999.2500  -999.2500   -37.5500    86.7720     9.4320    10.5780     9.3900     9.0610   -38.5390  -999.2500  -999.2500
  790.5000  -999.2500  -999.2500  -999.2500  -999.2500   -38.0990    91.9670     9.4330    10.5180     9.2290     8.9490   -38.7380  -999.2500  -999.2500
  791.0000  -999.2500  -999.2500  -999.2500  -999.2500   -38.6500    95.5330     9.4340    10.4790     9.0610     8.8220   -38.9370  -999.2500  -999.2500
  791.5000  -999.2500  -999.2500  -999.2500  -999.2500   -39.1890    95.1590     9.4350    10.4800     9.1080     8.6950   -39.1360  -999.2500  -999.2500
  792.0000  -999.2500  -999.2500  -999.2500  -999.2500   -39.7050    95.2950     9.4360    10.4810     9.1580     8.5680   -39.3350  -999.2500  -999.2500
  792.5000  -999.2500  -999.2500  -999.2500  -999.2500   -39.7210    92.2880     9.4370    10.4810     9.2070     8.4240   -39.5330  -999.2500  -999.2500
  793.0000  -999.2500  -999.2500  -999.2500  -999.2500   -39.7450    88.6960     9.4380    10.4800     9.2570     8.2720   -39.7320  -999.2500  -999.2500
  793.5000  -999.2500  -999.2500  -999.2500  -999.2500   -39.7230    85.3210     9.4380    10.4210     9.3070     8.4240   -39.9310  -999.2500  -999.2500
  794.0000  -999.2500  -999.2500  -999.2500  -999.2500   -39.6840    82.8820     9.4390    10.2920     9.3560     8.7180   -40.1300  -999.2500  -999.2500
  794.5000  -999.2500  -999.2500  -999.2500  -999.2500   -38.9050    83.8010     9.4400    10.3630     9.4060     9.0330   -40.3280  -999.2500  -999.2500
  795.0000  -999.2500  -999.2500  -999.2500  -999.2500   -37.6400    90.4610     9.4410    10.5460     9.4560     9.3970   -40.5270  -999.2500  -999.2500
  795.5000  -999.2500  -999.2500  -999.2500  -999.2500   -36.3830    93.4550     9.4420    10.7290     9.5050     9.3970   -40.7110  -999.2500  -999.2500
  796.0000  -999.2500  -999.2500  -999.2500  -999.2500   -35.0300    92.1640     9.4430    10.9120     9.5550     9.3970   -41.1110  -999.2500  -999.2500
  796.5000  -999.2500  -999.2500  -999.2500  -999.2500   -34.0550    91.1210     9.4440    11.0690     9.6050     9.3970   -41.4830  -999.2500  -999.2500
  797.0000  -999.2500  -999.2500  -999.2500  -999.2500   -33.7730    90.1880     9.4450    11.0690     9.6550     9.2270   -41.8560  -999.2500  -999.2500
  797.5000  -999.2500  -999.2500  -999.2500  -999.2500   -33.7950    89.1000     9.4460    11.0690     9.7040     9.2270   -42.2280  -999.2500  -999.2500
  798.0000  -999.2500  -999.2500  -999.2500  -999.2500   -34.2530    88.0260     9.4470    11.0690     9.7540     9.2270   -42.6000  -999.2500  -999.2500
  798.5000  -999.2500  -999.2500  -999.2500  -999.2500   -34.7990    88.0030     9.4480    11.0690     9.8040     9.2270   -42.9720  -999.2500  -999.2500
  799.0000  -999.2500  -999.2500  -999.2500  -999.2500   -35.3660    89.0940     9.4490    11.0690     9.8540     9.1790   -43.3450  -999.2500  -999.2500
  799.5000  -999.2500  -999.2500  -999.2500  -999.2500   -35.9420    88.2270     9.4500    11.0690     9.9040     9.1250   -43.7170  -999.2500  -999.2500
