~VERSION INFORMATION
 VERS.                2.0:   CWLS LOG ASCII STANDARD - VERSION 2.0
 WRAP.                 NO:   ONE LINE PER DEPTH STEP
~WELL INFORMATION
#MNEM.UNIT      DATA TYPE    INFORMATION
#----------   ------------   ------------------------------
 STRT.F           71.0000:   START DEPTH
 STOP.F         3406.0000:   STOP DEPTH
 STEP.F            0.5000:   STEP LENGTH
 NULL.          -999.2500:   NO VALUE
 COMP. LAWRENCE ALLIOSON AND ASSOCIATES:   COMPANY
 WELL. LAWRENCE "X" #44-34:   WELL
 FLD .             NPR #3:   FIELD
 LOC .      S34 T39N R78W:   LOCATION
 CNTY.            NATRONA:   COUNTY
 STAT.            WYOMING:   STATE
 CTRY. UNITED STATES OF AMERICA:   COUNTRY
 SRVC.      DRESSER ATLAS:   SERVICE COMPANY
 DATE.        24-SEP-1984:   LOGDATE
 API .     49025109920000:   API NUMBER
~CURVE INFORMATION
#MNEM.UNIT       API CODE    CURVE DESCRIPTION
#----------   ------------   ------------------------------
 DEPT.F                  :   
 TENS.LBS    60 635 01 00:   TENSION FROM SONIC
 DT  .US/F   60 520 00 00:   DELTA TIME
 GRS .GAPI   60 310 01 00:   GAMMA RAY FROM SONIC LOG
 TEND.LBS    45 635 01 00:   TENSION FROM DENSITY LOG
 NPHI.DEC    42 890 03 00:   NEUTRON POROSITY SANDSTONE
 CALR.IN     07 280 01 00:   CALIPER FROM RESISTIVITY
 GRR .GAPI   07 310 01 00:   GAMMA RAY FROM RESISTIVITY
 RFOC.OHMM   07 220 04 00:   RESISTIVITY FOCUSED LOG RES.
 ILD .OHMM   07 120 46 00:   DEEP INDUCTION RESISTIVITY
 ILM .OHMM   07 120 44 00:   INDUCTION LOG MEDIUM RESISTIVITY
 TENR.LBS    07 635 01 00:   TENSION FROM RESISTIVITY
 SPR .MV     07 010 01 00:   SPONTANEOUS POTENTIAL
 CORR.G/C3   45 356 01 00:   DENSITY CORRECTION
 RHOB.G/C3   45 350 01 00:   BULK DENSITY
~PARAMETER INFORMATION
#MNEM.UNIT          VALUE    DESCRIPTION
#----------   ------------   ------------------------------
 EKB .F         5134.0000:   Kelly bushing
 EGL .F         5122.0000:   Ground level
 EDF .F            0.0000:   Drilling floor
 TD  .F         3404.0000:   Total depth
 DATE.        24-SEP-1984:   Date logged
 CLNT.            A2DTECH:   Client Code
 SL  . 2234' FEL & 2337' FNL:   Surface Location
 PD  .                 GL:   Permanent Datum
 EPD .F              5122:   Elevation Permanent Datum
 LMF .                 KB:   Log Measured From
 DMF .                 KB:   Drilling Measured From
 DAPD.F                12:   Feet Above Permanent Datum
 DD  .F              3404:   Depth driller
 DL  .F              3397:   Depth logger
 BLI .F              3395:   Bottom log interval
 TLI .F               780:   Top log interval
 CS1 .IN            8.625:   Casing size
 CBD1.      8.625" @ 726':   Casing driller 1
 CBL1.F               730:   Casing logger 1
 BS1 .IN            7.875:   Bit size
 BSD1.F              3404:   Depth drilled with bit1
 DFT .            GEL-KCL:   Type fluid in hole
 DFD .               9.14:   Density
 DFV .                 43:   Viscosity
 DFPH.                8.0:   pH
 DFL .               12.0:   Fluid loss
 MSS .           FLOWLINE:   Source of sample
 RMS .OHMM           0.42:   Rm
 MST .F                70:   Rm Meas. temp.
 RMF .OHMM           0.31:   Rmf
 MFST.F                60:   Rmf Meas. temp.
 RMC .OHMM           0.52:   Rmc
 MCST.F                60:   Rmc Meas. temp.
 MFSS.               CALC:   Source Rmf.
 MCSS.               CALC:   Source Rmc.
 RMB .OHMM           0.23:   Rm. at BHT
 BHT .F               125:   BHT.
 TCS .HRS               4:   Time Circ. stopped
 MRT .F               125:   Maximum recorded temp.
 LUN .               6274:   Logging unit number
 LUL .               GLTE:   Logging unit location
 ENGI.           M. HINDS:   Recorded By
 WITN.            JOHNSON:   Witnessed by
 ORIG.     2.5", 5" PRINT:   Origin of data
 UWI .     49025109920000:   Unique Well ID
 DICO. A2D TECHNOLOGIES, INC.:   Digitizing Company
~OTHER INFORMATION
~A   DEPT     TENS         DT         GRS      TEND       NPHI       CALR        GRR       RFOC        ILD        ILM       TENR        SPR       CORR       RHOB   
# ...
 1271.5000  -999.2500  -999.2500  -999.2500  -999.2500  -999.2500     8.1330   108.8710     8.0640     8.2030     8.5870   -37.8800   -18.6010  -999.2500  -999.2500
 1272.0000  -999.2500  -999.2500  -999.2500  -999.2500  -999.2500     8.1210   112.6540     8.0050     8.0900     8.4750   -37.7550   -18.9260  -999.2500  -999.2500
 1272.5000  -999.2500  -999.2500  -999.2500  -999.2500  -999.2500     8.1090   113.5120     7.8790     7.9770     8.3630   -37.6300   -19.2390  -999.2500  -999.2500
 1273.0000  -999.2500  -999.2500  -999.2500  -999.2500  -999.2500     8.0960   114.3450     7.7520     7.8640     8.2520   -37.5050   -19.5660  -999.2500  -999.2500
 1273.5000  -999.2500  -999.2500  -999.2500  -999.2500  -999.2500     8.0840   115.0390     7.6250     7.7500     8.1400   -37.3800   -19.8970  -999.2500  -999.2500
 1274.0000  -999.2500  -999.2500  -999.2500  -999.2500  -999.2500     8.0720   112.9340     7.4990     7.6360     8.0290   -37.2540   -20.0720  -999.2500  -999.2500
 1274.5000  -999.2500  -999.2500  -999.2500  -999.2500  -999.2500     8.0590   110.9160     7.3720     7.5210     7.9170   -37.1290   -19.8920  -999.2500  -999.2500
 1275.0000  -999.2500  -999.2500  -999.2500  -999.2500  -999.2500     8.0510   110.8120     7.2460     7.4070     7.8060   -37.0040   -19.7230  -999.2500  -999.2500
 1275.5000  -999.2500  -999.2500  -999.2500  -999.2500  -999.2500     8.0540   111.3800     7.1010     7.3560     7.6940   -36.8790   -19.5490  -999.2500  -999.2500
 1276.0000  -999.2500  -999.2500  -999.2500  -999.2500  -999.2500     8.0560   111.8320     7.0860     7.3250     7.6360   -36.7540   -19.3710  -999.2500  -999.2500
 1276.5000  -999.2500  -999.2500  -999.2500  -999.2500  -999.2500     8.0580   110.0420     7.0680     7.2940     7.6010   -36.6290   -19.3180  -999.2500  -999.2500
 1277.0000  -999.2500  -999.2500  -999.2500  -999.2500  -999.2500     8.0600   108.7930     7.0510     7.2620     7.5680   -36.5040   -19.3220  -999.2500  -999.2500
 1277.5000  -999.2500  -999.2500  -999.2500  -999.2500  -999.2500     8.0620   109.3720     7.0330     7.2310     7.5350   -36.3790   -19.3250  -999.2500  -999.2500
 1278.0000  -999.2500  -999.2500  -999.2500  -999.2500  -999.2500     8.0640   111.0210     7.0150     7.1990     7.5030   -36.2530   -19.3130  -999.2500  -999.2500
 1278.5000  -999.2500  -999.2500  -999.2500  -999.2500  -999.2500     8.0660   110.1650     6.9970     7.1680     7.4700   -36.1280   -19.3320  -999.2500  -999.2500
 1279.0000  -999.2500  -999.2500  -999.2500  -999.2500  -999.2500     8.0680   109.2040     6.9800     7.1360     7.4380   -36.0030   -19.3610  -999.2500  -999.2500
 1279.5000  -999.2500  -999.2500  -999.2500  -999.2500  -999.2500     8.0700   108.0480     6.9730     7.1010     7.4050   -35.8780   -20.0390  -999.2500  -999.2500
 1280.0000  -999.2500  -999.2500  -999.2500  -999.2500  -999.2500     8.0720   108.4940     6.9730     7.1010     7.3730   -35.7530   -20.7160  -999.2500  -999.2500
 1280.5000  -999.2500  -999.2500  -999.2500  -999.2500  -999.2500     8.0740   108.5140     6.9730     7.1010     7.3640   -35.6280   -20.9200  -999.2500  -999.2500
 1281.0000  -999.2500  -999.2500  -999.2500  -999.2500  -999.2500     8.0760   107.7030     6.9730     7.1350     7.3640   -35.5030   -20.4890  -999.2500  -999.2500
 1281.5000  -999.2500  -999.2500  -999.2500  -999.2500  -999.2500     8.0770   106.8740     6.9730     7.1920     7.3910   -35.3780   -20.1050  -999.2500  -999.2500
 1282.0000  -999.2500  -999.2500  -999.2500  -999.2500  -999.2500     8.0790   105.8660     6.9740     7.2500     7.4500   -35.2520   -19.3600  -999.2500  -999.2500
 1282.5000  -999.2500  -999.2500  -999.2500  -999.2500  -999.2500     8.0810   104.4150     6.9740     7.3070     7.5100   -35.1270   -19.3420  -999.2500  -999.2500
 1283.0000  -999.2500  -999.2500  -999.2500  -999.2500  -999.2500     8.0830   102.8430     6.9730     7.3640     7.5690   -35.0020   -19.6110  -999.2500  -999.2500
 1283.5000  -999.2500  -999.2500  -999.2500  -999.2500  -999.2500     8.0850   102.8470     6.9730     7.4220     7.6280   -34.8770   -20.0070  -999.2500  -999.2500
 1284.0000  -999.2500  -999.2500  -999.2500  -999.2500  -999.2500     8.0870   103.7570     6.9730     7.4790     7.6880   -34.7520   -20.3840  -999.2500  -999.2500
 1284.5000  -999.2500  -999.2500  -999.2500  -999.2500  -999.2500     8.0890   104.6260     7.1320     7.5360     7.7470   -34.6270   -20.7710  -999.2500  -999.2500
 1285.0000  -999.2500  -999.2500  -999.2500  -999.2500  -999.2500     8.0920   105.6630     7.2730     7.5930     7.8070   -34.5020   -20.9410  -999.2500  -999.2500
 1285.5000  -999.2500  -999.2500  -999.2500  -999.2500  -999.2500     8.1090   108.6670     7.4140     7.6510     7.8660   -34.3770   -20.7620  -999.2500  -999.2500
 1286.0000  -999.2500  -999.2500  -999.2500  -999.2500  -999.2500     8.1300   112.4410     7.5550     7.7080     7.9250   -34.2510   -20.4030  -999.2500  -999.2500
 1286.5000  -999.2500  -999.2500  -999.2500  -999.2500  -999.2500     8.1510   110.7250     7.6950     7.7760     7.9850   -34.1260   -20.1250  -999.2500  -999.2500
 1287.0000  -999.2500  -999.2500  -999.2500  -999.2500  -999.2500     8.1720   108.1490     7.7760     7.7760     8.0440   -34.0010   -20.2310  -999.2500  -999.2500
 1287.5000  -999.2500  -999.2500  -999.2500  -999.2500  -999.2500     8.1930   104.5050     7.6730     7.7250     8.0640   -33.8760   -20.3660  -999.2500  -999.2500
 1288.0000  -999.2500  -999.2500  -999.2500  -999.2500  -999.2500     8.2110   101.6250     7.5740     7.6770     8.0180   -33.7510   -20.4480  -999.2500  -999.2500
 1288.5000  -999.2500  -999.2500  -999.2500  -999.2500  -999.2500     8.2210   100.1050     7.4760     7.6280     7.9680   -33.6260   -20.8450  -999.2500  -999.2500
 1289.0000  -999.2500  -999.2500  -999.2500  -999.2500  -999.2500     8.2300   100.3420     7.3770     7.5790     7.9170   -33.5010   -20.9010  -999.2500  -999.2500
 1289.5000  -999.2500  -999.2500  -999.2500  -999.2500  -999.2500     8.2390   100.6830     7.2790     7.5310     7.8670   -33.3750   -20.6300  -999.2500  -999.2500
 1290.0000  -999.2500  -999.2500  -999.2500  -999.2500  -999.2500     8.2480   100.0900     7.1800     7.3640     7.8170   -33.2500   -20.2650  -999.2500  -999.2500
 1290.5000  -999.2500  -999.2500  -999.2500  -999.2500  -999.2500     8.2520    99.3170     7.1010     7.3670     7.6360   -33.1250   -19.8970  -999.2500  -999.2500
 1291.0000  -999.2500  -999.2500  -999.2500  -999.2500  -999.2500     8.2510    98.5890     7.1010     7.3820     7.6360   -33.0000   -19.7000  -999.2500  -999.2500
 1291.5000  -999.2500  -999.2500  -999.2500  -999.2500  -999.2500     8.2500   101.0180     7.1010     7.3960     7.6530   -32.8750   -19.6410  -999.2500  -999.2500
 1292.0000  -999.2500  -999.2500  -999.2500  -999.2500  -999.2500     8.2210   106.1760     7.1010     7.4110     7.6690   -32.7500   -19.5660  -999.2500  -999.2500
 1292.5000  -999.2500  -999.2500  -999.2500  -999.2500  -999.2500     8.1880   112.5610     7.1010     7.4260     7.6830   -32.6250   -19.4850  -999.2500  -999.2500
 1293.0000  -999.2500  -999.2500  -999.2500  -999.2500  -999.2500     8.1550   112.2370     7.1010     7.4410     7.6980   -32.5000   -19.4210  -999.2500  -999.2500
 1293.5000  -999.2500  -999.2500  -999.2500  -999.2500  -999.2500     8.1210   107.8550     7.1160     7.4550     7.7130   -32.3740   -19.3420  -999.2500  -999.2500
 1294.0000  -999.2500  -999.2500  -999.2500  -999.2500  -999.2500     8.0870   105.8830     7.1330     7.4700     7.7290   -32.2490   -19.7360  -999.2500  -999.2500
 1294.5000  -999.2500  -999.2500  -999.2500  -999.2500  -999.2500     8.0570   107.2280     7.1500     7.4850     7.7450   -32.1240   -20.3120  -999.2500  -999.2500
 1295.0000  -999.2500  -999.2500  -999.2500  -999.2500  -999.2500     8.0210   108.5560     7.1670     7.4990     7.7610   -31.9990   -20.8940  -999.2500  -999.2500
 1295.5000  -999.2500  -999.2500  -999.2500  -999.2500  -999.2500     8.0040   107.2410     7.1850     7.4540     7.7760   -31.8740   -21.4720  -999.2500  -999.2500
