~VERSION INFORMATION
 VERS.                2.0:   CWLS LOG ASCII STANDARD - VERSION 2.0
 WRAP.                 NO:   ONE LINE PER DEPTH STEP
~WELL INFORMATION
#MNEM.UNIT      DATA TYPE    INFORMATION
#----------   ------------   ------------------------------
 STRT.F           71.0000:   START DEPTH
 STOP.F         3406.0000:   STOP DEPTH
 STEP.F            0.5000:   STEP LENGTH
 NULL.          -999.2500:   NO VALUE
 COMP. LAWRENCE ALLIOSON AND ASSOCIATES:   COMPANY
 WELL. LAWRENCE "X" #44-34:   WELL
 FLD .             NPR #3:   FIELD
 LOC .      S34 T39N R78W:   LOCATION
 CNTY.            NATRONA:   COUNTY
 STAT.            WYOMING:   STATE
 CTRY. UNITED STATES OF AMERICA:   COUNTRY
 SRVC.      DRESSER ATLAS:   SERVICE COMPANY
 DATE.        24-SEP-1984:   LOGDATE
 API .     49025109920000:   API NUMBER
~CURVE INFORMATION
#MNEM.UNIT       API CODE    CURVE DESCRIPTION
#----------   ------------   ------------------------------
 DEPT.F                  :   
 TENS.LBS    60 635 01 00:   TENSION FROM SONIC
 DT  .US/F   60 520 00 00:   DELTA TIME
 GRS .GAPI   60 310 01 00:   GAMMA RAY FROM SONIC LOG
 TEND.LBS    45 635 01 00:   TENSION FROM DENSITY LOG
 NPHI.DEC    42 890 03 00:   NEUTRON POROSITY SANDSTONE
 CALR.IN     07 280 01 00:   CALIPER FROM RESISTIVITY
 GRR .GAPI   07 310 01 00:   GAMMA RAY FROM RESISTIVITY
 RFOC.OHMM   07 220 04 00:   RESISTIVITY FOCUSED LOG RES.
 ILD .OHMM   07 120 46 00:   DEEP INDUCTION RESISTIVITY
 ILM .OHMM   07 120 44 00:   INDUCTION LOG MEDIUM RESISTIVITY
 TENR.LBS    07 635 01 00:   TENSION FROM RESISTIVITY
 SPR .MV     07 010 01 00:   SPONTANEOUS POTENTIAL
 CORR.G/C3   45 356 01 00:   DENSITY CORRECTION
 RHOB.G/C3   45 350 01 00:   BULK DENSITY
~PARAMETER INFORMATION
#MNEM.UNIT          VALUE    DESCRIPTION
#----------   ------------   ------------------------------
 EKB .F         5134.0000:   Kelly bushing
 EGL .F         5122.0000:   Ground level
 EDF .F            0.0000:   Drilling floor
 TD  .F         3404.0000:   Total depth
 DATE.        24-SEP-1984:   Date logged
 CLNT.            A2DTECH:   Client Code
 SL  . 2234' FEL & 2337' FNL:   Surface Location
 PD  .                 GL:   Permanent Datum
 EPD .F              5122:   Elevation Permanent Datum
 LMF .                 KB:   Log Measured From
 DMF .                 KB:   Drilling Measured From
 DAPD.F                12:   Feet Above Permanent Datum
 DD  .F              3404:   Depth driller
 DL  .F              3397:   Depth logger
 BLI .F              3395:   Bottom log interval
 TLI .F               780:   Top log interval
 CS1 .IN            8.625:   Casing size
 CBD1.      8.625" @ 726':   Casing driller 1
 CBL1.F               730:   Casing logger 1
 BS1 .IN            7.875:   Bit size
 BSD1.F              3404:   Depth drilled with bit1
 DFT .            GEL-KCL:   Type fluid in hole
 DFD .               9.14:   Density
 DFV .                 43:   Viscosity
 DFPH.                8.0:   pH
 DFL .               12.0:   Fluid loss
 MSS .           FLOWLINE:   Source of sample
 RMS .OHMM           0.42:   Rm
 MST .F                70:   Rm Meas. temp.
 RMF .OHMM           0.31:   Rmf
 MFST.F                60:   Rmf Meas. temp.
 RMC .OHMM           0.52:   Rmc
 MCST.F                60:   Rmc Meas. temp.
 MFSS.               CALC:   Source Rmf.
 MCSS.               CALC:   Source Rmc.
 RMB .OHMM           0.23:   Rm. at BHT
 BHT .F               125:   BHT.
 TCS .HRS               4:   Time Circ. stopped
 MRT .F               125:   Maximum recorded temp.
 LUN .               6274:   Logging unit number
 LUL .               GLTE:   Logging unit location
 ENGI.           M. HINDS:   Recorded By
 WITN.            JOHNSON:   Witnessed by
 ORIG.     2.5", 5" PRINT:   Origin of data
 UWI .     49025109920000:   Unique Well ID
 DICO. A2D TECHNOLOGIES, INC.:   Digitizing Company
~OTHER INFORMATION
~A   DEPT     TENS         DT         GRS      TEND       NPHI       CALR        GRR       RFOC        ILD        ILM       TENR        SPR       CORR       RHOB   
# ...
 1957.5000  -999.2500  -999.2500  -999.2500  -999.2500  -999.2500     7.8740   126.6630    10.2650     9.0950     9.6700   -45.2950   -22.9070  -999.2500  -999.2500
 1958.0000  -999.2500  -999.2500  -999.2500  -999.2500  -999.2500     7.8990   127.7410    10.3140     9.1580     9.6700   -45.0750   -22.8920  -999.2500  -999.2500
 1958.5000  -999.2500  -999.2500  -999.2500  -999.2500  -999.2500     7.9240   128.8970    10.3630     9.1430     9.6710   -44.8550   -22.6400  -999.2500  -999.2500
 1959.0000  -999.2500  -999.2500  -999.2500  -999.2500  -999.2500     7.9300   130.1710    10.3990     9.1060     9.6710   -44.6350   -22.4230  -999.2500  -999.2500
 1959.5000  -999.2500  -999.2500  -999.2500  -999.2500  -999.2500     7.9160   128.9630    10.3990     9.0680     9.6570   -44.4150   -22.1910  -999.2500  -999.2500
 1960.0000  -999.2500  -999.2500  -999.2500  -999.2500  -999.2500     7.9030   127.4930    10.3480     9.0310     9.6290   -44.1950   -21.9640  -999.2500  -999.2500
 1960.5000  -999.2500  -999.2500  -999.2500  -999.2500  -999.2500     7.8900   126.3250    10.3010     8.9940     9.6000   -43.9750   -21.7350  -999.2500  -999.2500
 1961.0000  -999.2500  -999.2500  -999.2500  -999.2500  -999.2500     7.8770   126.3530    10.2550     8.9570     9.5720   -43.7550   -21.5100  -999.2500  -999.2500
 1961.5000  -999.2500  -999.2500  -999.2500  -999.2500  -999.2500     7.8640   128.1470    10.2080     8.9190     9.5440   -43.5350   -21.2820  -999.2500  -999.2500
 1962.0000  -999.2500  -999.2500  -999.2500  -999.2500  -999.2500     7.8530   128.6200    10.1610     8.8820     9.5150   -43.3150   -21.0380  -999.2500  -999.2500
 1962.5000  -999.2500  -999.2500  -999.2500  -999.2500  -999.2500     7.8500   127.2280    10.1150     8.8450     9.4870   -43.0940   -20.9070  -999.2500  -999.2500
 1963.0000  -999.2500  -999.2500  -999.2500  -999.2500  -999.2500     7.8480   124.9310    10.0680     8.7470     9.4590   -42.8740   -20.9240  -999.2500  -999.2500
 1963.5000  -999.2500  -999.2500  -999.2500  -999.2500  -999.2500     7.8460   127.6420    10.0210     8.6120     9.4310   -42.6540   -21.2430  -999.2500  -999.2500
 1964.0000  -999.2500  -999.2500  -999.2500  -999.2500  -999.2500     7.8440   130.9150     9.9750     8.4770     9.4020   -42.4340   -21.6150  -999.2500  -999.2500
 1964.5000  -999.2500  -999.2500  -999.2500  -999.2500  -999.2500     7.8410   134.3700     9.9280     8.3420     9.3740   -42.2140   -21.9920  -999.2500  -999.2500
 1965.0000  -999.2500  -999.2500  -999.2500  -999.2500  -999.2500     7.8390   135.0520     9.8810     8.2120     9.3460   -41.9940   -22.4070  -999.2500  -999.2500
 1965.5000  -999.2500  -999.2500  -999.2500  -999.2500  -999.2500     7.8370   133.1970     9.8500     8.2880     9.3330   -41.7740   -22.3150  -999.2500  -999.2500
 1966.0000  -999.2500  -999.2500  -999.2500  -999.2500  -999.2500     7.8350   129.3410     9.8620     8.3600     9.3590   -41.6670   -21.9090  -999.2500  -999.2500
 1966.5000  -999.2500  -999.2500  -999.2500  -999.2500  -999.2500     7.8330   125.2600     9.8730     8.4330     9.3850   -41.6670   -21.7750  -999.2500  -999.2500
 1967.0000  -999.2500  -999.2500  -999.2500  -999.2500  -999.2500     7.8310   124.9340     9.8840     8.5060     9.4100   -41.6670   -22.1020  -999.2500  -999.2500
 1967.5000  -999.2500  -999.2500  -999.2500  -999.2500  -999.2500     7.8290   127.2580     9.8960     8.5790     9.4360   -41.6670   -22.1450  -999.2500  -999.2500
 1968.0000  -999.2500  -999.2500  -999.2500  -999.2500  -999.2500     7.8260   129.5010     9.9070     8.6520     9.4620   -41.6670   -22.1930  -999.2500  -999.2500
 1968.5000  -999.2500  -999.2500  -999.2500  -999.2500  -999.2500     7.8240   132.2150     9.9180     8.7250     9.4880   -41.6670   -22.2350  -999.2500  -999.2500
 1969.0000  -999.2500  -999.2500  -999.2500  -999.2500  -999.2500     7.8220   135.2720     9.9300     8.7980     9.5130   -41.6670   -22.2780  -999.2500  -999.2500
 1969.5000  -999.2500  -999.2500  -999.2500  -999.2500  -999.2500     7.8200   137.5970     9.9410     8.8710     9.5390   -41.6670   -22.3220  -999.2500  -999.2500
 1970.0000  -999.2500  -999.2500  -999.2500  -999.2500  -999.2500     7.8180   135.8270     9.9520     8.9430     9.5650   -41.6670   -22.3670  -999.2500  -999.2500
 1970.5000  -999.2500  -999.2500  -999.2500  -999.2500  -999.2500     7.8160   132.2130     9.9630     9.0160     9.5910   -41.6670   -22.4100  -999.2500  -999.2500
 1971.0000  -999.2500  -999.2500  -999.2500  -999.2500  -999.2500     7.8140   129.3970     9.9750     9.0890     9.6170   -41.6670   -22.4520  -999.2500  -999.2500
 1971.5000  -999.2500  -999.2500  -999.2500  -999.2500  -999.2500     7.8110   128.8230     9.9860     9.1580     9.6420   -41.6670   -22.5030  -999.2500  -999.2500
 1972.0000  -999.2500  -999.2500  -999.2500  -999.2500  -999.2500     7.8090   128.0790     9.9970     9.1460     9.6700   -41.6670   -22.4510  -999.2500  -999.2500
 1972.5000  -999.2500  -999.2500  -999.2500  -999.2500  -999.2500     7.8070   128.3830    10.0090     9.1360     9.6970   -41.6670   -22.3430  -999.2500  -999.2500
 1973.0000  -999.2500  -999.2500  -999.2500  -999.2500  -999.2500     7.8050   129.5150    10.0190     9.1250     9.7270   -41.6670   -22.2420  -999.2500  -999.2500
 1973.5000  -999.2500  -999.2500  -999.2500  -999.2500  -999.2500     7.8030   130.2660    10.0280     9.1150     9.7560   -41.6670   -22.1450  -999.2500  -999.2500
 1974.0000  -999.2500  -999.2500  -999.2500  -999.2500  -999.2500     7.8010   130.2640    10.0290     9.1040     9.7850   -41.6670   -22.0420  -999.2500  -999.2500
 1974.5000  -999.2500  -999.2500  -999.2500  -999.2500  -999.2500     7.7980   129.3130    10.0250     9.0940     9.8140   -41.6670   -21.9450  -999.2500  -999.2500
 1975.0000  -999.2500  -999.2500  -999.2500  -999.2500  -999.2500     7.7960   127.8840    10.0620     9.0830     9.8430   -41.6670   -21.8480  -999.2500  -999.2500
 1975.5000  -999.2500  -999.2500  -999.2500  -999.2500  -999.2500     7.7940   126.4880    10.1310     9.0730     9.8720   -41.6670   -21.7320  -999.2500  -999.2500
 1976.0000  -999.2500  -999.2500  -999.2500  -999.2500  -999.2500     7.7920   125.1050    10.1960     9.0620     9.9020   -41.6670   -21.8340  -999.2500  -999.2500
 1976.5000  -999.2500  -999.2500  -999.2500  -999.2500  -999.2500     7.7900   123.6370    10.2600     9.0520     9.9310   -41.6670   -22.0600  -999.2500  -999.2500
 1977.0000  -999.2500  -999.2500  -999.2500  -999.2500  -999.2500     7.7880   122.3700    10.3250     9.0420     9.9590   -41.6670   -22.2710  -999.2500  -999.2500
 1977.5000  -999.2500  -999.2500  -999.2500  -999.2500  -999.2500     7.7860   120.8960    10.3990     9.0320     9.9880   -41.6670   -22.4760  -999.2500  -999.2500
 1978.0000  -999.2500  -999.2500  -999.2500  -999.2500  -999.2500     7.7830   122.9030    10.3160     9.0200    10.0200   -41.6670   -22.6870  -999.2500  -999.2500
 1978.5000  -999.2500  -999.2500  -999.2500  -999.2500  -999.2500     7.7810   125.7180    10.2120     9.0090     9.8450   -41.6670   -22.9000  -999.2500  -999.2500
 1979.0000  -999.2500  -999.2500  -999.2500  -999.2500  -999.2500     7.7790   128.3970    10.0610     8.9990     9.5830   -41.6670   -23.1020  -999.2500  -999.2500
 1979.5000  -999.2500  -999.2500  -999.2500  -999.2500  -999.2500     7.7770   134.9180     9.8640     8.8810     9.3220   -41.6670   -23.2960  -999.2500  -999.2500
 1980.0000  -999.2500  -999.2500  -999.2500  -999.2500  -999.2500     7.7750   140.9930     9.6560     8.6110     9.0600   -41.6670   -23.2330  -999.2500  -999.2500
 1980.5000  -999.2500  -999.2500  -999.2500  -999.2500  -999.2500     7.7730   144.4190     9.4490     8.3410     8.8310   -41.6670   -23.1700  -999.2500  -999.2500
 1981.0000  -999.2500  -999.2500  -999.2500  -999.2500  -999.2500     7.7770   142.4250     9.2410     8.0640     8.8870   -41.6670   -23.0960  -999.2500  -999.2500
 1981.5000  -999.2500  -999.2500  -999.2500  -999.2500  -999.2500     7.7800   137.2170     9.1580     8.0640     8.9630   -41.6670   -23.0270  -999.2500  -999.2500
