~VERSION INFORMATION
 VERS.                2.0:   CWLS LOG ASCII STANDARD - VERSION 2.0
 WRAP.                 NO:   ONE LINE PER DEPTH STEP
~WELL INFORMATION
#MNEM.UNIT      DATA TYPE    INFORMATION
#----------   ------------   ------------------------------
 STRT.F           71.0000:   START DEPTH
 STOP.F         3406.0000:   STOP DEPTH
 STEP.F            0.5000:   STEP LENGTH
 NULL.          -999.2500:   NO VALUE
 COMP. LAWRENCE ALLIOSON AND ASSOCIATES:   COMPANY
 WELL. LAWRENCE "X" #44-34:   WELL
 FLD .             NPR #3:   FIELD
 LOC .      S34 T39N R78W:   LOCATION
 CNTY.            NATRONA:   COUNTY
 STAT.            WYOMING:   STATE
 CTRY. UNITED STATES OF AMERICA:   COUNTRY
 SRVC.      DRESSER ATLAS:   SERVICE COMPANY
 DATE.        24-SEP-1984:   LOGDATE
 API .     49025109920000:   API NUMBER
~CURVE INFORMATION
#MNEM.UNIT       API CODE    CURVE DESCRIPTION
#----------   ------------   ------------------------------
 DEPT.F                  :   
 TENS.LBS    60 635 01 00:   TENSION FROM SONIC
 DT  .US/F   60 520 00 00:   DELTA TIME
 GRS .GAPI   60 310 01 00:   GAMMA RAY FROM SONIC LOG
 TEND.LBS    45 635 01 00:   TENSION FROM DENSITY LOG
 NPHI.DEC    42 890 03 00:   NEUTRON POROSITY SANDSTONE
 CALR.IN     07 280 01 00:   CALIPER FROM RESISTIVITY
 GRR .GAPI   07 310 01 00:   GAMMA RAY FROM RESISTIVITY
 RFOC.OHMM   07 220 04 00:   RESISTIVITY FOCUSED LOG RES.
 ILD .OHMM   07 120 46 00:   DEEP INDUCTION RESISTIVITY
 ILM .OHMM   07 120 44 00:   INDUCTION LOG MEDIUM RESISTIVITY
 TENR.LBS    07 635 01 00:   TENSION FROM RESISTIVITY
 SPR .MV     07 010 01 00:   SPONTANEOUS POTENTIAL
 CORR.G/C3   45 356 01 00:   DENSITY CORRECTION
 RHOB.G/C3   45 350 01 00:   BULK DENSITY
~PARAMETER INFORMATION
#MNEM.UNIT          VALUE    DESCRIPTION
#----------   ------------   ------------------------------
 EKB .F         5134.0000:   Kelly bushing
 EGL .F         5122.0000:   Ground level
 EDF .F            0.0000:   Drilling floor
 TD  .F         3404.0000:   Total depth
 DATE.        24-SEP-1984:   Date logged
 CLNT.            A2DTECH:   Client Code
 SL  . 2234' FEL & 2337' FNL:   Surface Location
 PD  .                 GL:   Permanent Datum
 EPD .F              5122:   Elevation Permanent Datum
 LMF .                 KB:   Log Measured From
 DMF .                 KB:   Drilling Measured From
 DAPD.F                12:   Feet Above Permanent Datum
 DD  .F              3404:   Depth driller
 DL  .F              3397:   Depth logger
 BLI .F              3395:   Bottom log interval
 TLI .F               780:   Top log interval
 CS1 .IN            8.625:   Casing size
 CBD1.      8.625" @ 726':   Casing driller 1
 CBL1.F               730:   Casing logger 1
 BS1 .IN            7.875:   Bit size
 BSD1.F              3404:   Depth drilled with bit1
 DFT .            GEL-KCL:   Type fluid in hole
 DFD .               9.14:   Density
 DFV .                 43:   Viscosity
 DFPH.                8.0:   pH
 DFL .               12.0:   Fluid loss
 MSS .           FLOWLINE:   Source of sample
 RMS .OHMM           0.42:   Rm
 MST .F                70:   Rm Meas. temp.
 RMF .OHMM           0.31:   Rmf
 MFST.F                60:   Rmf Meas. temp.
 RMC .OHMM           0.52:   Rmc
 MCST.F                60:   Rmc Meas. temp.
 MFSS.               CALC:   Source Rmf.
 MCSS.               CALC:   Source Rmc.
 RMB .OHMM           0.23:   Rm. at BHT
 BHT .F               125:   BHT.
 TCS .HRS               4:   Time Circ. stopped
 MRT .F               125:   Maximum recorded temp.
 LUN .               6274:   Logging unit number
 LUL .               GLTE:   Logging unit location
 ENGI.           M. HINDS:   Recorded By
 WITN.            JOHNSON:   Witnessed by
 ORIG.     2.5", 5" PRINT:   Origin of data
 UWI .     49025109920000:   Unique Well ID
 DICO. A2D TECHNOLOGIES, INC.:   Digitizing Company
~OTHER INFORMATION
~A   DEPT     TENS         DT         GRS      TEND       NPHI       CALR        GRR       RFOC        ILD        ILM       TENR        SPR       CORR       RHOB   
# ...
 2668.0000    -0.0740    77.0830    91.5630   -63.3600     0.1960     7.5940    91.8350    14.0270    13.2660    13.6140   -39.8490   -14.7700    -0.0020     2.4640
 2668.5000    -0.2300    76.9000    92.6200   -63.3600     0.2050     7.5960    91.6420    14.6860    13.0200    13.6570   -39.6410   -15.0310     0.0090     2.4710
 2669.0000    -0.3870    77.3620    94.5750   -63.3600     0.2100     7.5970    93.4260    14.1240    12.7740    13.5410   -39.4320   -15.2980     0.0200     2.4750
 2669.5000    -0.5440    77.8230    93.9440   -63.3600     0.2000     7.5990    95.8200    13.4660    12.7000    13.4020   -39.2240   -15.5830     0.0320     2.4800
 2670.0000    -0.7010    78.1010    90.9090   -63.3600     0.1920     7.6010    93.5300    12.9320    12.9320    13.2620   -39.0160   -15.7350     0.0440     2.4850
 2670.5000    -0.8570    77.9340    87.7510   -63.3600     0.1880     7.6020    89.9420    12.9320    12.9320    13.1230   -38.8080   -15.6570     0.0500     2.4890
 2671.0000    -1.0140    77.3040    86.9130   -63.3600     0.1880     7.6040    87.4630    13.6470    12.6500    12.9830   -38.5990   -15.6000     0.0400     2.4840
 2671.5000    -1.1710    76.6740    89.0970   -63.3600     0.1910     7.6050    88.0860    14.3230    12.3840    12.8440   -38.3910   -15.5450     0.0300     2.4790
 2672.0000    -1.3280    76.3050    92.6530   -63.3600     0.1950     7.6070    91.5280    15.2300    12.0260    12.7050   -38.1830   -15.4830     0.0250     2.4830
 2672.5000    -1.4850    76.5600    97.1770   -63.3600     0.1990     7.6090    95.2900    14.5940    12.1220    12.5650   -37.9750   -15.4260     0.0320     2.4930
 2673.0000    -1.6410    77.1810    96.8900   -63.3600     0.1950     7.6100    98.3380    13.6310    12.2470    12.4260   -37.7660   -15.3690     0.0400     2.5030
 2673.5000    -1.7980    77.8030    95.0950   -63.3600     0.1930     7.6110    97.1450    12.6690    12.0990    12.2860   -37.5580   -15.3060     0.0460     2.5040
 2674.0000    -1.9550    78.2970    93.3760   -63.3600     0.2020     7.6140    94.2180    11.5970    11.9070    12.1470   -37.3500   -15.1560     0.0410     2.4990
 2674.5000    -2.1120    78.2510    93.8440   -63.3600     0.2090     7.6030    93.5020    12.0050    11.7160    12.0260   -37.1410   -15.0400     0.0350     2.4960
 2675.0000    -2.2690    78.0700    98.1780   -63.3600     0.2090     7.5840    95.5130    12.8060    11.5970    12.0260   -36.9330   -14.6230     0.0280     2.4980
 2675.5000    -2.4250    78.1260   101.2350   -63.3600     0.2110     7.5660    99.1830    13.2600    11.6910    12.0260   -36.7250   -13.9730     0.0230     2.4990
 2676.0000    -2.5820    78.4300   104.1380   -63.3600     0.2150     7.5480   102.0800    12.6420    11.7850    12.0260   -36.5170   -13.3730     0.0230     2.4890
 2676.5000    -2.7390    79.1080   104.3620   -63.3600     0.2170     7.5310   104.8040    12.2470    12.0930    12.2470   -36.3080   -12.7260     0.0260     2.4710
 2677.0000    -2.8960    79.7910   100.4490   -63.3600     0.2260     7.5130   102.6860    12.5410    12.4790    12.4710   -36.1000   -12.0890     0.0290     2.4580
 2677.5000    -3.0520    80.0730    90.2510   -63.3600     0.2360     7.4950    98.6030    12.7000    12.8650    12.7000   -35.8920   -10.4510     0.0320     2.4310
 2678.0000    -3.2090    80.1890    79.4660   -63.3600     0.2410     7.4780    88.0480    12.5910    13.2510    12.9320   -35.6840    -8.9050     0.0350     2.3970
 2678.5000    -3.3660    80.1890    71.3570   -63.3600     0.2260     7.4590    77.7480    12.4710    13.9350    13.3160   -35.4750    -7.3090     0.0280     2.3820
 2679.0000    -3.5230    80.1890    66.7380   -63.3600     0.2060     7.4580    69.1900    12.4710    14.8310    14.0230   -35.2670    -5.6460     0.0110     2.3770
 2679.5000    -3.6800    80.0850    66.8890   -63.3600     0.1950     7.4660    66.6910    13.0270    15.7270    14.7290   -35.0590    -4.8930     0.0160     2.3750
 2680.0000    -3.8360    79.9530    67.8260   -63.3600     0.1970     7.4730    67.4530    13.5440    16.6220    15.4350   -34.8500    -4.5580     0.0190     2.3730
 2680.5000    -3.9930    79.8200    69.0710   -63.3600     0.1990     7.4800    68.6750    14.0610    17.5180    16.1420   -34.6420    -4.2200     0.0240     2.3730
 2681.0000    -4.1500    79.6080    69.7570   -63.3600     0.2010     7.4870    69.6720    14.4220    18.4140    16.8480   -34.4340    -3.8450     0.0260     2.3740
 2681.5000    -4.3070    79.3720    69.7550   -63.3600     0.2030     7.4940    69.6760    14.0020    19.3100    17.5540   -34.2260    -3.5060     0.0230     2.3770
 2682.0000    -4.4640    79.1370    69.7500   -63.3600     0.2060     7.5010    69.7340    13.9070    20.2060    18.2610   -34.0170    -3.1480     0.0210     2.3780
 2682.5000    -4.6200    78.8940    69.5890   -63.3600     0.1990     7.5080    69.6680    13.9070    21.1020    18.9670   -33.8090    -2.7820     0.0180     2.3850
 2683.0000    -4.7770    78.1710    68.8120   -63.3600     0.1890     7.5160    69.5960    14.1620    21.9970    19.6740   -33.6010    -2.5850     0.0190     2.4110
 2683.5000    -4.9340    77.2990    66.2910   -63.3600     0.1790     7.5230    67.0320    14.6860    22.8930    20.3670   -33.3930    -3.1630     0.0300     2.4500
 2684.0000    -5.0910    75.4360    63.2210   -63.3600     0.1690     7.5300    64.8330    18.3810    23.5520    20.2240   -33.1840    -3.4240     0.0300     2.4780
 2684.5000    -5.2470    72.8400    62.8660   -63.3600     0.1660     7.5350    61.6940    24.1410    23.5520    19.6840   -32.9760    -3.7920     0.0310     2.4720
 2685.0000    -5.4040    71.7230    65.8510   -63.3600     0.1700     7.5240    63.6860    32.0740    23.5520    19.1430   -32.7680    -4.1380     0.0300     2.4350
 2685.5000    -5.5610    72.4240    72.5360   -63.3600     0.1820     7.5050    70.1800    30.5380    22.3530    18.4140   -32.5590    -4.5080     0.0310     2.4310
 2686.0000    -5.7180    74.3330    79.2150   -63.3600     0.1930     7.4740    76.6250    24.2760    21.1540    17.5700   -32.3510    -5.1750     0.0310     2.4340
 2686.5000    -5.8750    76.2430    79.4640   -63.3600     0.2030     7.4210    79.3110    18.0140    19.9550    16.7260   -32.1430    -5.9770     0.0410     2.4230
 2687.0000    -6.0490    78.1530    74.0420   -63.3600     0.2070     7.3650    77.2740    13.0720    18.7560    15.8820   -31.9350    -6.8390     0.0510     2.4050
 2687.5000    -6.2550    79.6300    68.1860   -63.3600     0.2070     7.3300    70.5280    12.6390    17.5570    15.0380   -31.7260    -7.4480     0.0610     2.3870
 2688.0000    -6.4610    80.3080    65.1230   -63.3600     0.2040     7.3350    66.1940    12.2060    16.3580    14.1620   -31.5180    -7.1230     0.0710     2.3730
 2688.5000    -6.6680    80.8860    63.9270   -63.3600     0.1950     7.3410    64.6210    12.0260    14.9550    14.2730   -31.3100    -6.6630     0.0780     2.3740
 2689.0000    -6.8740    80.6290    63.0210   -63.3600     0.1860     7.3890    62.8840    12.0260    15.3270    14.8070   -31.1010    -6.2800     0.0770     2.3870
 2689.5000    -7.0800    79.8040    62.9330   -63.3600     0.1830     7.4150    61.8750    12.8310    15.7750    15.3400   -30.8930    -5.8270     0.0760     2.4080
 2690.0000    -7.2870    78.4930    64.2510   -63.3600     0.1850     7.4460    64.7120    13.9840    16.2230    15.8740   -30.6850    -6.5330     0.0550     2.4310
 2690.5000    -7.4930    77.1020    71.0930   -63.3600     0.1870     7.4770    69.1740    15.1370    16.6710    16.3770   -30.4770    -7.3880     0.0320     2.4540
 2691.0000    -7.6990    76.3050    75.1830   -63.3600     0.1890     7.5070    74.2460    16.3770    16.9830    15.8950   -30.2680    -8.2820     0.0090     2.4610
 2691.5000    -7.9060    76.4040    76.5420   -63.3600     0.1900     7.5330    75.7300    15.3690    16.6600    15.4390   -30.0600    -9.1450    -0.0120     2.4690
 2692.0000    -8.1120    76.8860    78.5800   -63.3600     0.1890     7.5340    78.3720    14.2780    16.0680    14.9820   -29.8520   -10.0170    -0.0070     2.4690
