~VERSION INFORMATION
 VERS.                2.0:   CWLS LOG ASCII STANDARD - VERSION 2.0
 WRAP.                 NO:   ONE LINE PER DEPTH STEP
~WELL INFORMATION
#MNEM.UNIT      DATA TYPE    INFORMATION
#----------   ------------   ------------------------------
 STRT.F           71.0000:   START DEPTH
 STOP.F         3406.0000:   STOP DEPTH
 STEP.F            0.5000:   STEP LENGTH
 NULL.          -999.2500:   NO VALUE
 COMP. LAWRENCE ALLIOSON AND ASSOCIATES:   COMPANY
 WELL. LAWRENCE "X" #44-34:   WELL
 FLD .             NPR #3:   FIELD
 LOC .      S34 T39N R78W:   LOCATION
 CNTY.            NATRONA:   COUNTY
 STAT.            WYOMING:   STATE
 CTRY. UNITED STATES OF AMERICA:   COUNTRY
 SRVC.      DRESSER ATLAS:   SERVICE COMPANY
 DATE.        24-SEP-1984:   LOGDATE
 API .     49025109920000:   API NUMBER
~CURVE INFORMATION
#MNEM.UNIT       API CODE    CURVE DESCRIPTION
#----------   ------------   ------------------------------
 DEPT.F                  :   
 TENS.LBS    60 635 01 00:   TENSION FROM SONIC
 DT  .US/F   60 520 00 00:   DELTA TIME
 GRS .GAPI   60 310 01 00:   GAMMA RAY FROM SONIC LOG
 TEND.LBS    45 635 01 00:   TENSION FROM DENSITY LOG
 NPHI.DEC    42 890 03 00:   NEUTRON POROSITY SANDSTONE
 CALR.IN     07 280 01 00:   CALIPER FROM RESISTIVITY
 GRR .GAPI   07 310 01 00:   GAMMA RAY FROM RESISTIVITY
 RFOC.OHMM   07 220 04 00:   RESISTIVITY FOCUSED LOG RES.
 ILD .OHMM   07 120 46 00:   DEEP INDUCTION RESISTIVITY
 ILM .OHMM   07 120 44 00:   INDUCTION LOG MEDIUM RESISTIVITY
 TENR.LBS    07 635 01 00:   TENSION FROM RESISTIVITY
 SPR .MV     07 010 01 00:   SPONTANEOUS POTENTIAL
 CORR.G/C3   45 356 01 00:   DENSITY CORRECTION
 RHOB.G/C3   45 350 01 00:   BULK DENSITY
~PARAMETER INFORMATION
#MNEM.UNIT          VALUE    DESCRIPTION
#----------   ------------   ------------------------------
 EKB .F         5134.0000:   Kelly bushing
 EGL .F         5122.0000:   Ground level
 EDF .F            0.0000:   Drilling floor
 TD  .F         3404.0000:   Total depth
 DATE.        24-SEP-1984:   Date logged
 CLNT.            A2DTECH:   Client Code
 SL  . 2234' FEL & 2337' FNL:   Surface Location
 PD  .                 GL:   Permanent Datum
 EPD .F              5122:   Elevation Permanent Datum
 LMF .                 KB:   Log Measured From
 DMF .                 KB:   Drilling Measured From
 DAPD.F                12:   Feet Above Permanent Datum
 DD  .F              3404:   Depth driller
 DL  .F              3397:   Depth logger
 BLI .F              3395:   Bottom log interval
 TLI .F               780:   Top log interval
 CS1 .IN            8.625:   Casing size
 CBD1.      8.625" @ 726':   Casing driller 1
 CBL1.F               730:   Casing logger 1
 BS1 .IN            7.875:   Bit size
 BSD1.F              3404:   Depth drilled with bit1
 DFT .            GEL-KCL:   Type fluid in hole
 DFD .               9.14:   Density
 DFV .                 43:   Viscosity
 DFPH.                8.0:   pH
 DFL .               12.0:   Fluid loss
 MSS .           FLOWLINE:   Source of sample
 RMS .OHMM           0.42:   Rm
 MST .F                70:   Rm Meas. temp.
 RMF .OHMM           0.31:   Rmf
 MFST.F                60:   Rmf Meas. temp.
 RMC .OHMM           0.52:   Rmc
 MCST.F                60:   Rmc Meas. temp.
 MFSS.               CALC:   Source Rmf.
 MCSS.               CALC:   Source Rmc.
 RMB .OHMM           0.23:   Rm. at BHT
 BHT .F               125:   BHT.
 TCS .HRS               4:   Time Circ. stopped
 MRT .F               125:   Maximum recorded temp.
 LUN .               6274:   Logging unit number
 LUL .               GLTE:   Logging unit location
 ENGI.           M. HINDS:   Recorded By
 WITN.            JOHNSON:   Witnessed by
 ORIG.     2.5", 5" PRINT:   Origin of data
 UWI .     49025109920000:   Unique Well ID
 DICO. A2D TECHNOLOGIES, INC.:   Digitizing Company
~OTHER INFORMATION
~A   DEPT     TENS         DT         GRS      TEND       NPHI       CALR        GRR       RFOC        ILD        ILM       TENR        SPR       CORR       RHOB   
# ...
  904.0000  -999.2500  -999.2500  -999.2500  -999.2500  -999.2500     8.6510    98.4960     8.0640     9.2720     9.4040   -59.8660   -10.6850  -999.2500  -999.2500
  904.5000  -999.2500  -999.2500  -999.2500  -999.2500  -999.2500     8.6150   100.7080     8.0640     9.2170     9.3860   -59.9480   -10.5650  -999.2500  -999.2500
  905.0000  -999.2500  -999.2500  -999.2500  -999.2500  -999.2500     8.5780   100.3730     8.0640     9.1580     9.3680   -60.0300   -10.6110  -999.2500  -999.2500
  905.5000  -999.2500  -999.2500  -999.2500  -999.2500  -999.2500     8.5450   100.0980     8.0880     9.1580     9.3500   -60.1130   -10.6550  -999.2500  -999.2500
  906.0000  -999.2500  -999.2500  -999.2500  -999.2500  -999.2500     8.5160    99.6150     8.1310     9.1490     9.3320   -60.1950   -10.7040  -999.2500  -999.2500
  906.5000  -999.2500  -999.2500  -999.2500  -999.2500  -999.2500     8.4840    97.4950     8.1740     9.1290     9.3250   -60.2770   -10.7510  -999.2500  -999.2500
  907.0000  -999.2500  -999.2500  -999.2500  -999.2500  -999.2500     8.4540    95.8740     8.3620     9.1080     9.3250   -60.3600   -10.7980  -999.2500  -999.2500
  907.5000  -999.2500  -999.2500  -999.2500  -999.2500  -999.2500     8.4220    95.9130     8.3250     9.0870     9.3250   -60.4420   -10.8460  -999.2500  -999.2500
  908.0000  -999.2500  -999.2500  -999.2500  -999.2500  -999.2500     8.4080    93.9660     8.2230     9.0670     9.3250   -60.5240   -10.8940  -999.2500  -999.2500
  908.5000  -999.2500  -999.2500  -999.2500  -999.2500  -999.2500     8.4070    91.8430     8.1200     9.0460     9.3250   -60.6070   -10.9410  -999.2500  -999.2500
  909.0000  -999.2500  -999.2500  -999.2500  -999.2500  -999.2500     8.4040    90.4800     8.0170     9.0250     9.3250   -60.6890   -11.0140  -999.2500  -999.2500
  909.5000  -999.2500  -999.2500  -999.2500  -999.2500  -999.2500     8.4020    89.4100     7.9140     9.0050     9.3250   -60.7710   -11.0980  -999.2500  -999.2500
  910.0000  -999.2500  -999.2500  -999.2500  -999.2500  -999.2500     8.4000    88.2920     7.8110     8.8850     9.3250   -60.8540   -11.1830  -999.2500  -999.2500
  910.5000  -999.2500  -999.2500  -999.2500  -999.2500  -999.2500     8.3970    88.9990     7.7530     8.6290     9.2380   -60.9360   -11.2660  -999.2500  -999.2500
  911.0000  -999.2500  -999.2500  -999.2500  -999.2500  -999.2500     8.3950    92.5110     7.6680     8.3720     8.9210   -61.0180   -11.3510  -999.2500  -999.2500
  911.5000  -999.2500  -999.2500  -999.2500  -999.2500  -999.2500     8.3930    95.8920     7.5840     8.1150     8.6040   -61.1010   -11.4350  -999.2500  -999.2500
  912.0000  -999.2500  -999.2500  -999.2500  -999.2500  -999.2500     8.3900    97.3060     7.4990     7.9040     8.3470   -61.1830   -11.5180  -999.2500  -999.2500
  912.5000  -999.2500  -999.2500  -999.2500  -999.2500  -999.2500     8.3880    98.7470     7.4150     7.8420     8.2820   -61.2650   -11.6040  -999.2500  -999.2500
  913.0000  -999.2500  -999.2500  -999.2500  -999.2500  -999.2500     8.3860    99.9500     7.3300     7.7800     8.2160   -61.3480   -11.6870  -999.2500  -999.2500
  913.5000  -999.2500  -999.2500  -999.2500  -999.2500  -999.2500     8.3830   101.5000     7.2450     7.7180     8.1510   -61.4300   -11.7540  -999.2500  -999.2500
  914.0000  -999.2500  -999.2500  -999.2500  -999.2500  -999.2500     8.3810   101.6430     7.1610     7.6570     8.0850   -61.5080   -11.7580  -999.2500  -999.2500
  914.5000  -999.2500  -999.2500  -999.2500  -999.2500  -999.2500     8.3780   100.8770     7.1010     7.6360     8.0640   -61.5080   -11.6780  -999.2500  -999.2500
  915.0000  -999.2500  -999.2500  -999.2500  -999.2500  -999.2500     8.3770    98.4530     7.1150     7.6360     8.0640   -61.5080   -11.4120  -999.2500  -999.2500
  915.5000  -999.2500  -999.2500  -999.2500  -999.2500  -999.2500     8.3730    96.2010     7.1300     7.6360     8.0640   -61.5080   -11.1500  -999.2500  -999.2500
  916.0000  -999.2500  -999.2500  -999.2500  -999.2500  -999.2500     8.3720    97.7160     7.1440     7.6360     8.0640   -61.5080   -10.8930  -999.2500  -999.2500
  916.5000  -999.2500  -999.2500  -999.2500  -999.2500  -999.2500     8.3760    99.0660     7.1590     7.6360     8.0640   -61.5080   -10.6290  -999.2500  -999.2500
  917.0000  -999.2500  -999.2500  -999.2500  -999.2500  -999.2500     8.4300   100.6060     7.1740     7.6360     8.0640   -61.5080   -10.5380  -999.2500  -999.2500
  917.5000  -999.2500  -999.2500  -999.2500  -999.2500  -999.2500     8.4700    99.2020     7.1890     7.6360     8.0640   -61.5080   -10.7020  -999.2500  -999.2500
  918.0000  -999.2500  -999.2500  -999.2500  -999.2500  -999.2500     8.5160    99.3150     7.2040     7.6370     8.0640   -61.5080   -10.9960  -999.2500  -999.2500
  918.5000  -999.2500  -999.2500  -999.2500  -999.2500  -999.2500     8.5620   100.3690     7.2190     7.6370     8.0640   -61.5080   -11.2710  -999.2500  -999.2500
  919.0000  -999.2500  -999.2500  -999.2500  -999.2500  -999.2500     8.6050   100.3490     7.2300     7.6360     8.0630   -61.5080   -11.5470  -999.2500  -999.2500
  919.5000  -999.2500  -999.2500  -999.2500  -999.2500  -999.2500     8.6480    99.3030     7.2070     7.6370     8.0630   -61.5080   -11.8220  -999.2500  -999.2500
  920.0000  -999.2500  -999.2500  -999.2500  -999.2500  -999.2500     8.6490   100.6830     7.1880     7.6380     8.0640   -61.5080   -12.0980  -999.2500  -999.2500
  920.5000  -999.2500  -999.2500  -999.2500  -999.2500  -999.2500     8.6500   100.1450     7.1700     7.6360     8.0640   -61.5080   -12.3930  -999.2500  -999.2500
  921.0000  -999.2500  -999.2500  -999.2500  -999.2500  -999.2500     8.6490    99.6190     7.1480     7.5970     7.9330   -61.5080   -12.5660  -999.2500  -999.2500
  921.5000  -999.2500  -999.2500  -999.2500  -999.2500  -999.2500     8.6510    97.8640     7.1220     7.4910     7.7560   -61.5080   -12.5480  -999.2500  -999.2500
  922.0000  -999.2500  -999.2500  -999.2500  -999.2500  -999.2500     8.6560    97.3300     7.1280     7.3840     7.5800   -61.5080   -12.5500  -999.2500  -999.2500
  922.5000  -999.2500  -999.2500  -999.2500  -999.2500  -999.2500     8.6620    98.8570     6.9380     7.2780     7.4030   -61.5080   -12.5500  -999.2500  -999.2500
  923.0000  -999.2500  -999.2500  -999.2500  -999.2500  -999.2500     8.6670    99.8620     6.8480     7.1480     7.2270   -61.5080   -12.5530  -999.2500  -999.2500
  923.5000  -999.2500  -999.2500  -999.2500  -999.2500  -999.2500     8.6730    97.7820     6.6520     6.9990     7.0510   -61.5080   -12.5590  -999.2500  -999.2500
  924.0000  -999.2500  -999.2500  -999.2500  -999.2500  -999.2500     8.6790    96.2810     6.4870     6.8510     6.8740   -61.5080   -12.7080  -999.2500  -999.2500
  924.5000  -999.2500  -999.2500  -999.2500  -999.2500  -999.2500     8.6830    96.4530     6.3210     6.7020     6.6980   -61.5080   -12.8620  -999.2500  -999.2500
  925.0000  -999.2500  -999.2500  -999.2500  -999.2500  -999.2500     8.6870   101.7310     6.1560     6.5530     6.5210   -61.5080   -12.9650  -999.2500  -999.2500
  925.5000  -999.2500  -999.2500  -999.2500  -999.2500  -999.2500     8.6490   105.9860     6.0300     6.4050     6.3450   -61.5080   -12.8680  -999.2500  -999.2500
  926.0000  -999.2500  -999.2500  -999.2500  -999.2500  -999.2500     8.6090   106.7910     6.0300     6.2560     6.1960   -61.5080   -12.7210  -999.2500  -999.2500
  926.5000  -999.2500  -999.2500  -999.2500  -999.2500  -999.2500     8.5680   103.3110     6.0300     6.1080     6.0770   -61.5080   -12.5830  -999.2500  -999.2500
  927.0000  -999.2500  -999.2500  -999.2500  -999.2500  -999.2500     8.5280    99.9130     6.0300     5.9590     5.9580   -61.5080   -12.4390  -999.2500  -999.2500
  927.5000  -999.2500  -999.2500  -999.2500  -999.2500  -999.2500     8.4900    98.9560     6.0300     5.8110     5.8390   -61.5080   -12.3080  -999.2500  -999.2500
  928.0000  -999.2500  -999.2500  -999.2500  -999.2500  -999.2500     8.4950   100.7960     6.0300     5.6620     5.7190   -61.5080   -12.1680  -999.2500  -999.2500
