~VERSION INFORMATION
 VERS.                2.0:   CWLS LOG ASCII STANDARD - VERSION 2.0
 WRAP.                 NO:   ONE LINE PER DEPTH STEP
~WELL INFORMATION
#MNEM.UNIT      DATA TYPE    INFORMATION
#----------   ------------   ------------------------------
 STRT.F           71.0000:   START DEPTH
 STOP.F         3406.0000:   STOP DEPTH
 STEP.F            0.5000:   STEP LENGTH
 NULL.          -999.2500:   NO VALUE
 COMP. LAWRENCE ALLIOSON AND ASSOCIATES:   COMPANY
 WELL. LAWRENCE "X" #44-34:   WELL
 FLD .             NPR #3:   FIELD
 LOC .      S34 T39N R78W:   LOCATION
 CNTY.            NATRONA:   COUNTY
 STAT.            WYOMING:   STATE
 CTRY. UNITED STATES OF AMERICA:   COUNTRY
 SRVC.      DRESSER ATLAS:   SERVICE COMPANY
 DATE.        24-SEP-1984:   LOGDATE
 API .     49025109920000:   API NUMBER
~CURVE INFORMATION
#MNEM.UNIT       API CODE    CURVE DESCRIPTION
#----------   ------------   ------------------------------
 DEPT.F                  :   
 TENS.LBS    60 635 01 00:   TENSION FROM SONIC
 DT  .US/F   60 520 00 00:   DELTA TIME
 GRS .GAPI   60 310 01 00:   GAMMA RAY FROM SONIC LOG
 TEND.LBS    45 635 01 00:   TENSION FROM DENSITY LOG
 NPHI.DEC    42 890 03 00:   NEUTRON POROSITY SANDSTONE
 CALR.IN     07 280 01 00:   CALIPER FROM RESISTIVITY
 GRR .GAPI   07 310 01 00:   GAMMA RAY FROM RESISTIVITY
 RFOC.OHMM   07 220 04 00:   RESISTIVITY FOCUSED LOG RES.
 ILD .OHMM   07 120 46 00:   DEEP INDUCTION RESISTIVITY
 ILM .OHMM   07 120 44 00:   INDUCTION LOG MEDIUM RESISTIVITY
 TENR.LBS    07 635 01 00:   TENSION FROM RESISTIVITY
 SPR .MV     07 010 01 00:   SPONTANEOUS POTENTIAL
 CORR.G/C3   45 356 01 00:   DENSITY CORRECTION
 RHOB.G/C3   45 350 01 00:   BULK DENSITY
~PARAMETER INFORMATION
#MNEM.UNIT          VALUE    DESCRIPTION
#----------   ------------   ------------------------------
 EKB .F         5134.0000:   Kelly bushing
 EGL .F         5122.0000:   Ground level
 EDF .F            0.0000:   Drilling floor
 TD  .F         3404.0000:   Total depth
 DATE.        24-SEP-1984:   Date logged
 CLNT.            A2DTECH:   Client Code
 SL  . 2234' FEL & 2337' FNL:   Surface Location
 PD  .                 GL:   Permanent Datum
 EPD .F              5122:   Elevation Permanent Datum
 LMF .                 KB:   Log Measured From
 DMF .                 KB:   Drilling Measured From
 DAPD.F                12:   Feet Above Permanent Datum
 DD  .F              3404:   Depth driller
 DL  .F              3397:   Depth logger
 BLI .F              3395:   Bottom log interval
 TLI .F               780:   Top log interval
 CS1 .IN            8.625:   Casing size
 CBD1.      8.625" @ 726':   Casing driller 1
 CBL1.F               730:   Casing logger 1
 BS1 .IN            7.875:   Bit size
 BSD1.F              3404:   Depth drilled with bit1
 DFT .            GEL-KCL:   Type fluid in hole
 DFD .               9.14:   Density
 DFV .                 43:   Viscosity
 DFPH.                8.0:   pH
 DFL .               12.0:   Fluid loss
 MSS .           FLOWLINE:   Source of sample
 RMS .OHMM           0.42:   Rm
 MST .F                70:   Rm Meas. temp.
 RMF .OHMM           0.31:   Rmf
 MFST.F                60:   Rmf Meas. temp.
 RMC .OHMM           0.52:   Rmc
 MCST.F                60:   Rmc Meas. temp.
 MFSS.               CALC:   Source Rmf.
 MCSS.               CALC:   Source Rmc.
 RMB .OHMM           0.23:   Rm. at BHT
 BHT .F               125:   BHT.
 TCS .HRS               4:   Time Circ. stopped
 MRT .F               125:   Maximum recorded temp.
 LUN .               6274:   Logging unit number
 LUL .               GLTE:   Logging unit location
 ENGI.           M. HINDS:   Recorded By
 WITN.            JOHNSON:   Witnessed by
 ORIG.     2.5", 5" PRINT:   Origin of data
 UWI .     49025109920000:   Unique Well ID
 DICO. A2D TECHNOLOGIES, INC.:   Digitizing Company
~OTHER INFORMATION
~A   DEPT     TENS         DT         GRS      TEND       NPHI       CALR        GRR       RFOC        ILD        ILM       TENR        SPR       CORR       RHOB   
# ...
 2153.5000  -999.2500  -999.2500  -999.2500  -999.2500  -999.2500     7.8760    87.4570     6.2930     4.9950     5.4660   -41.6670   -24.4100  -999.2500  -999.2500
 2154.0000  -999.2500  -999.2500  -999.2500  -999.2500  -999.2500     7.8780    93.4810     5.6790     4.7480     5.2400   -41.6670   -24.5910  -999.2500  -999.2500
 2154.5000  -999.2500  -999.2500  -999.2500  -999.2500  -999.2500     7.8810    98.9700     5.0650     4.5090     5.0140   -41.6670   -25.0460  -999.2500  -999.2500
 2155.0000  -999.2500  -999.2500  -999.2500  -999.2500  -999.2500     7.8830    97.5770     4.7620     4.4780     4.8790   -41.6670   -25.4540  -999.2500  -999.2500
 2155.5000  -999.2500  -999.2500  -999.2500  -999.2500  -999.2500     7.8850    95.0960     4.7620     4.4470     4.9920   -41.6670   -25.9020  -999.2500  -999.2500
 2156.0000  -999.2500  -999.2500  -999.2500  -999.2500  -999.2500     7.8880    93.0940     5.5270     4.4280     5.1040   -41.6670   -26.3450  -999.2500  -999.2500
 2156.5000  -999.2500  -999.2500  -999.2500  -999.2500  -999.2500     7.8900    92.1760     6.2080     4.5470     5.2170   -41.6670   -26.5010  -999.2500  -999.2500
 2157.0000  -999.2500  -999.2500  -999.2500  -999.2500  -999.2500     7.8930    91.3260     7.2310     4.6680     5.3290   -41.6670   -26.3280  -999.2500  -999.2500
 2157.5000  -999.2500  -999.2500  -999.2500  -999.2500  -999.2500     7.8950    92.5730     7.1900     4.7890     5.4070   -41.6670   -26.1370  -999.2500  -999.2500
 2158.0000  -999.2500  -999.2500  -999.2500  -999.2500  -999.2500     7.8980    91.6590     6.6200     4.9110     5.4070   -41.6670   -25.9490  -999.2500  -999.2500
 2158.5000  -999.2500  -999.2500  -999.2500  -999.2500  -999.2500     7.9000    89.5940     6.0510     4.9380     5.4070   -41.6670   -25.7560  -999.2500  -999.2500
 2159.0000  -999.2500  -999.2500  -999.2500  -999.2500  -999.2500     7.9020    88.9000     5.4070     4.8980     5.4070   -41.6670   -25.6700  -999.2500  -999.2500
 2159.5000  -999.2500  -999.2500  -999.2500  -999.2500  -999.2500     7.9050    92.9040     6.0300     4.8600     5.4070   -41.6670   -25.5930  -999.2500  -999.2500
 2160.0000  -999.2500  -999.2500  -999.2500  -999.2500  -999.2500     7.9070    96.8330     6.0060     4.8490     5.4610   -41.6670   -25.5150  -999.2500  -999.2500
 2160.5000  -999.2500  -999.2500  -999.2500  -999.2500  -999.2500     7.9100   101.2740     5.9350     5.0350     5.6190   -41.6670   -25.4360  -999.2500  -999.2500
 2161.0000  -999.2500  -999.2500  -999.2500  -999.2500  -999.2500     7.9120   100.4410     5.8650     5.2280     5.7760   -41.6670   -25.3570  -999.2500  -999.2500
 2161.5000  -999.2500  -999.2500  -999.2500  -999.2500  -999.2500     7.9150    99.3730     5.8150     5.4220     5.9330   -41.6670   -25.2790  -999.2500  -999.2500
 2162.0000  -999.2500  -999.2500  -999.2500  -999.2500  -999.2500     7.9170    99.6170     6.5290     5.6150     6.0900   -41.6670   -25.2000  -999.2500  -999.2500
 2162.5000  -999.2500  -999.2500  -999.2500  -999.2500  -999.2500     7.9200    99.9370     7.3150     5.8090     6.2480   -41.6670   -25.1220  -999.2500  -999.2500
 2163.0000  -999.2500  -999.2500  -999.2500  -999.2500  -999.2500     7.9220    97.8600     8.1020     6.0300     6.4440   -41.6670   -25.0430  -999.2500  -999.2500
 2163.5000  -999.2500  -999.2500  -999.2500  -999.2500  -999.2500     7.9250    94.0940     8.6720     6.1410     6.7640   -41.6670   -24.9650  -999.2500  -999.2500
 2164.0000  -999.2500  -999.2500  -999.2500  -999.2500  -999.2500     7.9270    90.6170     7.9270     6.1220     7.1010   -41.6670   -24.8860  -999.2500  -999.2500
 2164.5000  -999.2500  -999.2500  -999.2500  -999.2500  -999.2500     7.9290    90.5230     7.2440     6.0640     6.9650   -41.6670   -24.8070  -999.2500  -999.2500
 2165.0000  -999.2500  -999.2500  -999.2500  -999.2500  -999.2500     7.9320    91.7850     6.8480     6.0070     6.9510   -41.6670   -24.7280  -999.2500  -999.2500
 2165.5000  -999.2500  -999.2500  -999.2500  -999.2500  -999.2500     7.9150    93.3470     6.7240     5.9500     6.9370   -41.6670   -24.6490  -999.2500  -999.2500
 2166.0000  -999.2500  -999.2500  -999.2500  -999.2500  -999.2500     7.8910    94.0230     6.6030     5.9210     6.9220   -41.6670   -24.5710  -999.2500  -999.2500
 2166.5000  -999.2500  -999.2500  -999.2500  -999.2500  -999.2500     7.8680    92.4190     6.6030     5.9210     6.9080   -41.6670   -24.5000  -999.2500  -999.2500
 2167.0000  -999.2500  -999.2500  -999.2500  -999.2500  -999.2500     7.8450    90.5160     6.6510     5.9210     6.8940   -41.6670   -24.5460  -999.2500  -999.2500
 2167.5000  -999.2500  -999.2500  -999.2500  -999.2500  -999.2500     7.8210    88.4070     6.7240     5.9210     6.8790   -41.6670   -24.6780  -999.2500  -999.2500
 2168.0000  -999.2500  -999.2500  -999.2500  -999.2500  -999.2500     7.7980    85.8870     7.0950     5.9880     6.8650   -41.6670   -24.8090  -999.2500  -999.2500
 2168.5000  -999.2500  -999.2500  -999.2500  -999.2500  -999.2500     7.7750    82.8980     7.4400     6.0500     6.8510   -41.6670   -24.9400  -999.2500  -999.2500
 2169.0000  -999.2500  -999.2500  -999.2500  -999.2500  -999.2500     7.7840    79.9770     7.7760     6.1120     6.9120   -41.6670   -25.0720  -999.2500  -999.2500
 2169.5000  -999.2500  -999.2500  -999.2500  -999.2500  -999.2500     7.7950    79.3880     7.5330     6.1740     6.9930   -41.6670   -25.2040  -999.2500  -999.2500
 2170.0000  -999.2500  -999.2500  -999.2500  -999.2500  -999.2500     7.8070    82.0890     7.2950     6.2370     7.0740   -41.6670   -25.3340  -999.2500  -999.2500
 2170.5000  -999.2500  -999.2500  -999.2500  -999.2500  -999.2500     7.8190    84.7800     7.2310     6.3790     7.1550   -41.6670   -25.4660  -999.2500  -999.2500
 2171.0000  -999.2500  -999.2500  -999.2500  -999.2500  -999.2500     7.8300    87.5500     7.2310     6.5500     7.2370   -41.6670   -25.6000  -999.2500  -999.2500
 2171.5000  -999.2500  -999.2500  -999.2500  -999.2500  -999.2500     7.8420    89.6170     7.4000     6.7220     7.3180   -41.6670   -25.6960  -999.2500  -999.2500
 2172.0000  -999.2500  -999.2500  -999.2500  -999.2500  -999.2500     7.8520    89.5950     7.7810     6.9730     7.3990   -41.6670   -25.6880  -999.2500  -999.2500
 2172.5000  -999.2500  -999.2500  -999.2500  -999.2500  -999.2500     7.8530    89.6080     8.1620     6.8480     7.4990   -41.6670   -25.5410  -999.2500  -999.2500
 2173.0000  -999.2500  -999.2500  -999.2500  -999.2500  -999.2500     7.8530    88.7720     8.7330     6.6210     7.3920   -41.6670   -25.4030  -999.2500  -999.2500
 2173.5000  -999.2500  -999.2500  -999.2500  -999.2500  -999.2500     7.8530    87.9180     8.6810     6.4240     7.1160   -41.6670   -25.2560  -999.2500  -999.2500
 2174.0000  -999.2500  -999.2500  -999.2500  -999.2500  -999.2500     7.8530    87.2060     8.0660     6.2270     6.8410   -41.6670   -25.1140  -999.2500  -999.2500
 2174.5000  -999.2500  -999.2500  -999.2500  -999.2500  -999.2500     7.8520    90.2720     7.4510     6.0310     6.5650   -41.6670   -24.9710  -999.2500  -999.2500
 2175.0000  -999.2500  -999.2500  -999.2500  -999.2500  -999.2500     7.8540    94.8030     6.8360     5.8340     6.2900   -41.6670   -24.8260  -999.2500  -999.2500
 2175.5000  -999.2500  -999.2500  -999.2500  -999.2500  -999.2500     7.8580    99.3730     6.3260     5.6370     6.0140   -41.6670   -24.6860  -999.2500  -999.2500
 2176.0000  -999.2500  -999.2500  -999.2500  -999.2500  -999.2500     7.8630   102.9550     5.9570     5.4400     5.9210   -41.6670   -24.5420  -999.2500  -999.2500
 2176.5000  -999.2500  -999.2500  -999.2500  -999.2500  -999.2500     7.8670   105.0900     5.5870     5.1210     5.9210   -41.6670   -24.4900  -999.2500  -999.2500
 2177.0000  -999.2500  -999.2500  -999.2500  -999.2500  -999.2500     7.8710   107.5140     5.2140     5.1290     5.9210   -41.6670   -24.5850  -999.2500  -999.2500
 2177.5000  -999.2500  -999.2500  -999.2500  -999.2500  -999.2500     7.8750   103.5880     5.6710     5.1520     5.9210   -41.6670   -24.7570  -999.2500  -999.2500
