~VERSION INFORMATION
 VERS.                2.0:   CWLS LOG ASCII STANDARD - VERSION 2.0
 WRAP.                 NO:   ONE LINE PER DEPTH STEP
~WELL INFORMATION
#MNEM.UNIT      DATA TYPE    INFORMATION
#----------   ------------   ------------------------------
 STRT.F           71.0000:   START DEPTH
 STOP.F         3406.0000:   STOP DEPTH
 STEP.F            0.5000:   STEP LENGTH
 NULL.          -999.2500:   NO VALUE
 COMP. LAWRENCE ALLIOSON AND ASSOCIATES:   COMPANY
 WELL. LAWRENCE "X" #44-34:   WELL
 FLD .             NPR #3:   FIELD
 LOC .      S34 T39N R78W:   LOCATION
 CNTY.            NATRONA:   COUNTY
 STAT.            WYOMING:   STATE
 CTRY. UNITED STATES OF AMERICA:   COUNTRY
 SRVC.      DRESSER ATLAS:   SERVICE COMPANY
 DATE.        24-SEP-1984:   LOGDATE
 API .     49025109920000:   API NUMBER
~CURVE INFORMATION
#MNEM.UNIT       API CODE    CURVE DESCRIPTION
#----------   ------------   ------------------------------
 DEPT.F                  :   
 TENS.LBS    60 635 01 00:   TENSION FROM SONIC
 DT  .US/F   60 520 00 00:   DELTA TIME
 GRS .GAPI   60 310 01 00:   GAMMA RAY FROM SONIC LOG
 TEND.LBS    45 635 01 00:   TENSION FROM DENSITY LOG
 NPHI.DEC    42 890 03 00:   NEUTRON POROSITY SANDSTONE
 CALR.IN     07 280 01 00:   CALIPER FROM RESISTIVITY
 GRR .GAPI   07 310 01 00:   GAMMA RAY FROM RESISTIVITY
 RFOC.OHMM   07 220 04 00:   RESISTIVITY FOCUSED LOG RES.
 ILD .OHMM   07 120 46 00:   DEEP INDUCTION RESISTIVITY
 ILM .OHMM   07 120 44 00:   INDUCTION LOG MEDIUM RESISTIVITY
 TENR.LBS    07 635 01 00:   TENSION FROM RESISTIVITY
 SPR .MV     07 010 01 00:   SPONTANEOUS POTENTIAL
 CORR.G/C3   45 356 01 00:   DENSITY CORRECTION
 RHOB.G/C3   45 350 01 00:   BULK DENSITY
~PARAMETER INFORMATION
#MNEM.UNIT          VALUE    DESCRIPTION
#----------   ------------   ------------------------------
 EKB .F         5134.0000:   Kelly bushing
 EGL .F         5122.0000:   Ground level
 EDF .F            0.0000:   Drilling floor
 TD  .F         3404.0000:   Total depth
 DATE.        24-SEP-1984:   Date logged
 CLNT.            A2DTECH:   Client Code
 SL  . 2234' FEL & 2337' FNL:   Surface Location
 PD  .                 GL:   Permanent Datum
 EPD .F              5122:   Elevation Permanent Datum
 LMF .                 KB:   Log Measured From
 DMF .                 KB:   Drilling Measured From
 DAPD.F                12:   Feet Above Permanent Datum
 DD  .F              3404:   Depth driller
 DL  .F              3397:   Depth logger
 BLI .F              3395:   Bottom log interval
 TLI .F               780:   Top log interval
 CS1 .IN            8.625:   Casing size
 CBD1.      8.625" @ 726':   Casing driller 1
 CBL1.F               730:   Casing logger 1
 BS1 .IN            7.875:   Bit size
 BSD1.F              3404:   Depth drilled with bit1
 DFT .            GEL-KCL:   Type fluid in hole
 DFD .               9.14:   Density
 DFV .                 43:   Viscosity
 DFPH.                8.0:   pH
 DFL .               12.0:   Fluid loss
 MSS .           FLOWLINE:   Source of sample
 RMS .OHMM           0.42:   Rm
 MST .F                70:   Rm Meas. temp.
 RMF .OHMM           0.31:   Rmf
 MFST.F                60:   Rmf Meas. temp.
 RMC .OHMM           0.52:   Rmc
 MCST.F                60:   Rmc Meas. temp.
 MFSS.               CALC:   Source Rmf.
 MCSS.               CALC:   Source Rmc.
 RMB .OHMM           0.23:   Rm. at BHT
 BHT .F               125:   BHT.
 TCS .HRS               4:   Time Circ. stopped
 MRT .F               125:   Maximum recorded temp.
 LUN .               6274:   Logging unit number
 LUL .               GLTE:   Logging unit location
 ENGI.           M. HINDS:   Recorded By
 WITN.            JOHNSON:   Witnessed by
 ORIG.     2.5", 5" PRINT:   Origin of data
 UWI .     49025109920000:   Unique Well ID
 DICO. A2D TECHNOLOGIES, INC.:   Digitizing Company
~OTHER INFORMATION
~A   DEPT     TENS         DT         GRS      TEND       NPHI       CALR        GRR       RFOC        ILD        ILM       TENR        SPR       CORR       RHOB   
# ...
 1075.5000  -999.2500  -999.2500  -999.2500  -999.2500  -999.2500     8.7240    89.3250     8.1350     9.1590     9.3030   -51.7690   -14.3120  -999.2500  -999.2500
 1076.0000  -999.2500  -999.2500  -999.2500  -999.2500  -999.2500     8.7250    91.4100     8.1520     9.1560     9.3250   -51.6030   -14.1370  -999.2500  -999.2500
 1076.5000  -999.2500  -999.2500  -999.2500  -999.2500  -999.2500     8.7260    93.5030     8.1690     9.1390     9.3200   -51.4360   -14.3310  -999.2500  -999.2500
 1077.0000  -999.2500  -999.2500  -999.2500  -999.2500  -999.2500     8.7270    92.7620     8.1870     9.1240     9.3040   -51.2690   -14.4900  -999.2500  -999.2500
 1077.5000  -999.2500  -999.2500  -999.2500  -999.2500  -999.2500     8.7290    93.5300     8.2040     9.1080     9.2880   -51.1020   -14.6540  -999.2500  -999.2500
 1078.0000  -999.2500  -999.2500  -999.2500  -999.2500  -999.2500     8.7230    94.7990     8.2220     9.0920     9.2720   -50.9360   -14.8220  -999.2500  -999.2500
 1078.5000  -999.2500  -999.2500  -999.2500  -999.2500  -999.2500     8.7110    95.6650     8.2390     9.0760     9.2560   -50.7690   -14.9910  -999.2500  -999.2500
 1079.0000  -999.2500  -999.2500  -999.2500  -999.2500  -999.2500     8.7010    91.9980     8.2570     9.0610     9.2400   -50.6020   -15.1460  -999.2500  -999.2500
 1079.5000  -999.2500  -999.2500  -999.2500  -999.2500  -999.2500     8.6930    88.4380     8.2740     9.0450     9.2250   -50.4350   -15.3200  -999.2500  -999.2500
 1080.0000  -999.2500  -999.2500  -999.2500  -999.2500  -999.2500     8.6520    91.4560     8.2910     9.0290     9.2090   -50.2690   -15.1350  -999.2500  -999.2500
 1080.5000  -999.2500  -999.2500  -999.2500  -999.2500  -999.2500     8.5740    94.0230     8.3090     9.0130     9.1930   -50.1020   -14.9080  -999.2500  -999.2500
 1081.0000  -999.2500  -999.2500  -999.2500  -999.2500  -999.2500     8.5070    91.1870     8.3260     8.9970     9.1770   -49.9350   -14.6500  -999.2500  -999.2500
 1081.5000  -999.2500  -999.2500  -999.2500  -999.2500  -999.2500     8.4430    85.9640     8.3440     8.9810     9.1610   -49.7690   -14.5930  -999.2500  -999.2500
 1082.0000  -999.2500  -999.2500  -999.2500  -999.2500  -999.2500     8.3750    84.0600     8.3640     8.9650     9.1450   -49.6020   -14.7610  -999.2500  -999.2500
 1082.5000  -999.2500  -999.2500  -999.2500  -999.2500  -999.2500     8.3600    88.0200     8.3280     8.9490     9.1290   -49.4350   -14.9070  -999.2500  -999.2500
 1083.0000  -999.2500  -999.2500  -999.2500  -999.2500  -999.2500     8.3330    91.7450     8.2620     8.9330     9.1130   -49.2680   -15.0580  -999.2500  -999.2500
 1083.5000  -999.2500  -999.2500  -999.2500  -999.2500  -999.2500     8.3110    91.4440     8.1960     8.9170     9.0970   -49.1020   -15.2110  -999.2500  -999.2500
 1084.0000  -999.2500  -999.2500  -999.2500  -999.2500  -999.2500     8.2920    88.6930     8.1300     8.9010     9.0810   -48.9350   -15.3260  -999.2500  -999.2500
 1084.5000  -999.2500  -999.2500  -999.2500  -999.2500  -999.2500     8.2960    88.8090     8.0640     8.8860     9.0650   -48.7680   -15.4590  -999.2500  -999.2500
 1085.0000  -999.2500  -999.2500  -999.2500  -999.2500  -999.2500     8.3000    90.0580     8.0640     8.8700     9.0500   -48.6020   -15.8320  -999.2500  -999.2500
 1085.5000  -999.2500  -999.2500  -999.2500  -999.2500  -999.2500     8.3050    91.1850     8.2120     8.8540     9.0340   -48.4350   -16.1550  -999.2500  -999.2500
 1086.0000  -999.2500  -999.2500  -999.2500  -999.2500  -999.2500     8.3090    92.3830     8.1800     8.8390     9.0180   -48.2680   -16.4940  -999.2500  -999.2500
 1086.5000  -999.2500  -999.2500  -999.2500  -999.2500  -999.2500     8.3140    92.8700     8.0840     8.8080     9.0020   -48.1010   -16.0890  -999.2500  -999.2500
 1087.0000  -999.2500  -999.2500  -999.2500  -999.2500  -999.2500     8.3180    92.7560     7.9400     8.7620     8.9860   -47.9350   -15.6360  -999.2500  -999.2500
 1087.5000  -999.2500  -999.2500  -999.2500  -999.2500  -999.2500     8.3230    93.6490     8.0290     8.7180     8.9720   -47.7680   -15.1440  -999.2500  -999.2500
 1088.0000  -999.2500  -999.2500  -999.2500  -999.2500  -999.2500     8.3270    96.1990     8.2120     8.6740     8.9570   -47.6010   -14.9350  -999.2500  -999.2500
 1088.5000  -999.2500  -999.2500  -999.2500  -999.2500  -999.2500     8.3320    98.8890     8.0860     8.6300     8.9430   -47.4350   -15.1590  -999.2500  -999.2500
 1089.0000  -999.2500  -999.2500  -999.2500  -999.2500  -999.2500     8.3360    94.8260     7.9760     8.5860     8.9280   -47.2680   -15.3330  -999.2500  -999.2500
 1089.5000  -999.2500  -999.2500  -999.2500  -999.2500  -999.2500     8.3410    91.3100     7.9190     8.5420     8.9140   -47.1010   -15.5190  -999.2500  -999.2500
 1090.0000  -999.2500  -999.2500  -999.2500  -999.2500  -999.2500     8.3450    88.9610     7.9650     8.4980     8.8990   -46.9340   -15.7050  -999.2500  -999.2500
 1090.5000  -999.2500  -999.2500  -999.2500  -999.2500  -999.2500     8.3500    91.5350     8.0280     8.4540     8.8840   -46.7680   -15.8890  -999.2500  -999.2500
 1091.0000  -999.2500  -999.2500  -999.2500  -999.2500  -999.2500     8.3540    94.4450     8.0640     8.4110     8.8700   -46.6010   -16.0790  -999.2500  -999.2500
 1091.5000  -999.2500  -999.2500  -999.2500  -999.2500  -999.2500     8.3590    94.0160     8.0360     8.3640     8.8550   -46.4340   -16.1330  -999.2500  -999.2500
 1092.0000  -999.2500  -999.2500  -999.2500  -999.2500  -999.2500     8.3630    91.6810     8.0090     8.3570     8.8410   -46.2680   -16.2220  -999.2500  -999.2500
 1092.5000  -999.2500  -999.2500  -999.2500  -999.2500  -999.2500     8.3680    89.5830     7.9820     8.3440     8.8260   -46.1010   -16.4080  -999.2500  -999.2500
 1093.0000  -999.2500  -999.2500  -999.2500  -999.2500  -999.2500     8.3720    87.4170     7.9550     8.3320     8.8110   -45.9340   -16.5840  -999.2500  -999.2500
 1093.5000  -999.2500  -999.2500  -999.2500  -999.2500  -999.2500     8.3770    86.5260     7.9280     8.3200     8.7970   -45.7670   -16.7490  -999.2500  -999.2500
 1094.0000  -999.2500  -999.2500  -999.2500  -999.2500  -999.2500     8.3810    87.1110     7.9020     8.3080     8.7820   -45.6010   -16.9400  -999.2500  -999.2500
 1094.5000  -999.2500  -999.2500  -999.2500  -999.2500  -999.2500     8.3860    87.8520     7.8750     8.2960     8.7680   -45.4340   -16.7700  -999.2500  -999.2500
 1095.0000  -999.2500  -999.2500  -999.2500  -999.2500  -999.2500     8.3900    86.9270     7.8480     8.2840     8.7530   -45.2670   -16.4550  -999.2500  -999.2500
 1095.5000  -999.2500  -999.2500  -999.2500  -999.2500  -999.2500     8.3950    84.4210     7.8210     8.2720     8.7390   -45.1010   -16.1540  -999.2500  -999.2500
 1096.0000  -999.2500  -999.2500  -999.2500  -999.2500  -999.2500     8.3990    82.7420     7.7950     8.2600     8.7240   -44.9340   -15.8560  -999.2500  -999.2500
 1096.5000  -999.2500  -999.2500  -999.2500  -999.2500  -999.2500     8.4040    85.7590     7.7680     8.2480     8.7090   -44.7670   -15.5490  -999.2500  -999.2500
 1097.0000  -999.2500  -999.2500  -999.2500  -999.2500  -999.2500     8.4080    88.8650     7.7410     8.2360     8.6950   -44.6000   -15.3630  -999.2500  -999.2500
 1097.5000  -999.2500  -999.2500  -999.2500  -999.2500  -999.2500     8.4100    88.2930     7.7140     8.2240     8.6800   -44.4340   -15.4620  -999.2500  -999.2500
 1098.0000  -999.2500  -999.2500  -999.2500  -999.2500  -999.2500     8.4070    86.2480     7.6870     8.2120     8.6660   -44.2670   -15.5520  -999.2500  -999.2500
 1098.5000  -999.2500  -999.2500  -999.2500  -999.2500  -999.2500     8.4050    88.4750     7.6610     8.2000     8.6510   -44.1000   -15.6480  -999.2500  -999.2500
 1099.0000  -999.2500  -999.2500  -999.2500  -999.2500  -999.2500     8.4020    91.2910     7.6380     8.1880     8.6360   -43.9340   -15.7450  -999.2500  -999.2500
 1099.5000  -999.2500  -999.2500  -999.2500  -999.2500  -999.2500     8.4000    94.3370     7.6700     8.1760     8.6220   -43.7670   -15.8400  -999.2500  -999.2500
