~VERSION INFORMATION
 VERS.                2.0:   CWLS LOG ASCII STANDARD - VERSION 2.0
 WRAP.                 NO:   ONE LINE PER DEPTH STEP
~WELL INFORMATION
#MNEM.UNIT      DATA TYPE    INFORMATION
#----------   ------------   ------------------------------
 STRT.F           71.0000:   START DEPTH
 STOP.F         3406.0000:   STOP DEPTH
 STEP.F            0.5000:   STEP LENGTH
 NULL.          -999.2500:   NO VALUE
 COMP. LAWRENCE ALLIOSON AND ASSOCIATES:   COMPANY
 WELL. LAWRENCE "X" #44-34:   WELL
 FLD .             NPR #3:   FIELD
 LOC .      S34 T39N R78W:   LOCATION
 CNTY.            NATRONA:   COUNTY
 STAT.            WYOMING:   STATE
 CTRY. UNITED STATES OF AMERICA:   COUNTRY
 SRVC.      DRESSER ATLAS:   SERVICE COMPANY
 DATE.        24-SEP-1984:   LOGDATE
 API .     49025109920000:   API NUMBER
~CURVE INFORMATION
#MNEM.UNIT       API CODE    CURVE DESCRIPTION
#----------   ------------   ------------------------------
 DEPT.F                  :   
 TENS.LBS    60 635 01 00:   TENSION FROM SONIC
 DT  .US/F   60 520 00 00:   DELTA TIME
 GRS .GAPI   60 310 01 00:   GAMMA RAY FROM SONIC LOG
 TEND.LBS    45 635 01 00:   TENSION FROM DENSITY LOG
 NPHI.DEC    42 890 03 00:   NEUTRON POROSITY SANDSTONE
 CALR.IN     07 280 01 00:   CALIPER FROM RESISTIVITY
 GRR .GAPI   07 310 01 00:   GAMMA RAY FROM RESISTIVITY
 RFOC.OHMM   07 220 04 00:   RESISTIVITY FOCUSED LOG RES.
 ILD .OHMM   07 120 46 00:   DEEP INDUCTION RESISTIVITY
 ILM .OHMM   07 120 44 00:   INDUCTION LOG MEDIUM RESISTIVITY
 TENR.LBS    07 635 01 00:   TENSION FROM RESISTIVITY
 SPR .MV     07 010 01 00:   SPONTANEOUS POTENTIAL
 CORR.G/C3   45 356 01 00:   DENSITY CORRECTION
 RHOB.G/C3   45 350 01 00:   BULK DENSITY
~PARAMETER INFORMATION
#MNEM.UNIT          VALUE    DESCRIPTION
#----------   ------------   ------------------------------
 EKB .F         5134.0000:   Kelly bushing
 EGL .F         5122.0000:   Ground level
 EDF .F            0.0000:   Drilling floor
 TD  .F         3404.0000:   Total depth
 DATE.        24-SEP-1984:   Date logged
 CLNT.            A2DTECH:   Client Code
 SL  . 2234' FEL & 2337' FNL:   Surface Location
 PD  .                 GL:   Permanent Datum
 EPD .F              5122:   Elevation Permanent Datum
 LMF .                 KB:   Log Measured From
 DMF .                 KB:   Drilling Measured From
 DAPD.F                12:   Feet Above Permanent Datum
 DD  .F              3404:   Depth driller
 DL  .F              3397:   Depth logger
 BLI .F              3395:   Bottom log interval
 TLI .F               780:   Top log interval
 CS1 .IN            8.625:   Casing size
 CBD1.      8.625" @ 726':   Casing driller 1
 CBL1.F               730:   Casing logger 1
 BS1 .IN            7.875:   Bit size
 BSD1.F              3404:   Depth drilled with bit1
 DFT .            GEL-KCL:   Type fluid in hole
 DFD .               9.14:   Density
 DFV .                 43:   Viscosity
 DFPH.                8.0:   pH
 DFL .               12.0:   Fluid loss
 MSS .           FLOWLINE:   Source of sample
 RMS .OHMM           0.42:   Rm
 MST .F                70:   Rm Meas. temp.
 RMF .OHMM           0.31:   Rmf
 MFST.F                60:   Rmf Meas. temp.
 RMC .OHMM           0.52:   Rmc
 MCST.F                60:   Rmc Meas. temp.
 MFSS.               CALC:   Source Rmf.
 MCSS.               CALC:   Source Rmc.
 RMB .OHMM           0.23:   Rm. at BHT
 BHT .F               125:   BHT.
 TCS .HRS               4:   Time Circ. stopped
 MRT .F               125:   Maximum recorded temp.
 LUN .               6274:   Logging unit number
 LUL .               GLTE:   Logging unit location
 ENGI.           M. HINDS:   Recorded By
 WITN.            JOHNSON:   Witnessed by
 ORIG.     2.5", 5" PRINT:   Origin of data
 UWI .     49025109920000:   Unique Well ID
 DICO. A2D TECHNOLOGIES, INC.:   Digitizing Company
~OTHER INFORMATION
~A   DEPT     TENS         DT         GRS      TEND       NPHI       CALR        GRR       RFOC        ILD        ILM       TENR        SPR       CORR       RHOB   
# ...
 1443.0000  -999.2500  -999.2500  -999.2500  -999.2500  -999.2500     7.9000    92.6200     7.4750     7.6750     7.8380     5.0380   -21.7070  -999.2500  -999.2500
 1443.5000  -999.2500  -999.2500  -999.2500  -999.2500  -999.2500     7.9080    90.1260     7.5880     7.7670     7.9300     5.1630   -21.5880  -999.2500  -999.2500
 1444.0000  -999.2500  -999.2500  -999.2500  -999.2500  -999.2500     7.9160    88.3290     7.7010     7.8600     8.0230     5.2890   -21.4430  -999.2500  -999.2500
 1444.5000  -999.2500  -999.2500  -999.2500  -999.2500  -999.2500     7.9240    87.3160     7.8140     7.9520     8.1150     5.4140   -21.2900  -999.2500  -999.2500
 1445.0000  -999.2500  -999.2500  -999.2500  -999.2500  -999.2500     7.9330    86.0380     7.9190     8.0440     8.2070     5.5390   -21.1400  -999.2500  -999.2500
 1445.5000  -999.2500  -999.2500  -999.2500  -999.2500  -999.2500     7.9260    85.6010     7.9190     8.1360     8.2990     5.6640   -20.9810  -999.2500  -999.2500
 1446.0000  -999.2500  -999.2500  -999.2500  -999.2500  -999.2500     7.9140    85.7000     7.9190     8.2120     8.3920     5.7890   -20.9340  -999.2500  -999.2500
 1446.5000  -999.2500  -999.2500  -999.2500  -999.2500  -999.2500     7.9030    85.0200     7.9190     8.2210     8.4840     5.9140   -20.9930  -999.2500  -999.2500
 1447.0000  -999.2500  -999.2500  -999.2500  -999.2500  -999.2500     7.8920    83.2730     7.8970     8.2290     8.5160     6.0390   -21.0430  -999.2500  -999.2500
 1447.5000  -999.2500  -999.2500  -999.2500  -999.2500  -999.2500     7.8810    82.3820     7.8630     8.2370     8.5160     6.1640   -21.0910  -999.2500  -999.2500
 1448.0000  -999.2500  -999.2500  -999.2500  -999.2500  -999.2500     7.8680    85.7580     7.8290     8.2460     8.5160     6.2900   -21.1450  -999.2500  -999.2500
 1448.5000  -999.2500  -999.2500  -999.2500  -999.2500  -999.2500     7.8620    90.4560     7.7950     8.2540     8.5160     6.4150   -21.1930  -999.2500  -999.2500
 1449.0000  -999.2500  -999.2500  -999.2500  -999.2500  -999.2500     7.8190    94.3590     7.7620     8.2620     8.5160     6.5400   -21.2420  -999.2500  -999.2500
 1449.5000  -999.2500  -999.2500  -999.2500  -999.2500  -999.2500     7.8130    95.2710     7.7270     8.2700     8.3620     6.6650   -21.3050  -999.2500  -999.2500
 1450.0000  -999.2500  -999.2500  -999.2500  -999.2500  -999.2500     7.8110    93.7420     7.6940     8.2780     8.3770     6.7900   -21.2170  -999.2500  -999.2500
 1450.5000  -999.2500  -999.2500  -999.2500  -999.2500  -999.2500     7.8130    94.9040     7.6430     8.2860     8.4020     6.9150   -21.0170  -999.2500  -999.2500
 1451.0000  -999.2500  -999.2500  -999.2500  -999.2500  -999.2500     7.8130    96.2990     7.6580     8.2940     8.4300     7.0400   -20.8250  -999.2500  -999.2500
 1451.5000  -999.2500  -999.2500  -999.2500  -999.2500  -999.2500     7.8130    97.5060     7.7340     8.3020     8.4550     7.1650   -20.6240  -999.2500  -999.2500
 1452.0000  -999.2500  -999.2500  -999.2500  -999.2500  -999.2500     7.8130    95.9460     7.8110     8.3100     8.4790     7.2910   -20.5070  -999.2500  -999.2500
 1452.5000  -999.2500  -999.2500  -999.2500  -999.2500  -999.2500     7.8130    94.5820     7.8870     8.3190     8.5040     7.4160   -20.5190  -999.2500  -999.2500
 1453.0000  -999.2500  -999.2500  -999.2500  -999.2500  -999.2500     7.8130    94.7510     7.9630     8.3270     8.5300     7.5410   -20.5180  -999.2500  -999.2500
 1453.5000  -999.2500  -999.2500  -999.2500  -999.2500  -999.2500     7.8130    95.8030     8.0390     8.3350     8.5560     7.6660   -20.5160  -999.2500  -999.2500
 1454.0000  -999.2500  -999.2500  -999.2500  -999.2500  -999.2500     7.8130    94.5550     8.1150     8.3430     8.5810     7.7910   -20.5160  -999.2500  -999.2500
 1454.5000  -999.2500  -999.2500  -999.2500  -999.2500  -999.2500     7.8130    93.5640     8.1910     8.3510     8.6070     7.9160   -20.5180  -999.2500  -999.2500
 1455.0000  -999.2500  -999.2500  -999.2500  -999.2500  -999.2500     7.8130    92.4760     8.2120     8.3590     8.6320     8.0410   -20.5170  -999.2500  -999.2500
 1455.5000  -999.2500  -999.2500  -999.2500  -999.2500  -999.2500     7.8130    91.9900     8.2000     8.3630     8.6580     8.1660   -20.5090  -999.2500  -999.2500
 1456.0000  -999.2500  -999.2500  -999.2500  -999.2500  -999.2500     7.8130    92.0580     8.1450     8.3620     8.6710     8.2920   -20.6270  -999.2500  -999.2500
 1456.5000  -999.2500  -999.2500  -999.2500  -999.2500  -999.2500     7.8130    91.9240     8.0890     8.3620     8.6450     8.4170   -20.9200  -999.2500  -999.2500
 1457.0000  -999.2500  -999.2500  -999.2500  -999.2500  -999.2500     7.8130    93.1740     8.0640     8.3630     8.6210     8.5420   -21.2080  -999.2500  -999.2500
 1457.5000  -999.2500  -999.2500  -999.2500  -999.2500  -999.2500     7.8130    95.7690     7.9370     8.3630     8.5970     8.6670   -21.4920  -999.2500  -999.2500
 1458.0000  -999.2500  -999.2500  -999.2500  -999.2500  -999.2500     7.8130    97.2090     7.7760     8.3630     8.5720     8.7920   -21.7090  -999.2500  -999.2500
 1458.5000  -999.2500  -999.2500  -999.2500  -999.2500  -999.2500     7.8130    95.5240     7.8310     8.3630     8.5490     8.9170   -21.5770  -999.2500  -999.2500
 1459.0000  -999.2500  -999.2500  -999.2500  -999.2500  -999.2500     7.8130    93.9140     7.9350     8.3620     8.5250     9.0420   -21.4210  -999.2500  -999.2500
 1459.5000  -999.2500  -999.2500  -999.2500  -999.2500  -999.2500     7.8130    92.1400     8.0400     8.3620     8.4780     9.1670   -21.2560  -999.2500  -999.2500
 1460.0000  -999.2500  -999.2500  -999.2500  -999.2500  -999.2500     7.8130    91.1250     8.1450     8.3620     8.4170     9.2930   -21.0950  -999.2500  -999.2500
 1460.5000  -999.2500  -999.2500  -999.2500  -999.2500  -999.2500     7.8130    91.1680     8.2120     8.2840     8.3560     9.4180   -20.9330  -999.2500  -999.2500
 1461.0000  -999.2500  -999.2500  -999.2500  -999.2500  -999.2500     7.8130    89.3880     8.0430     8.1780     8.2960     9.5430   -20.7710  -999.2500  -999.2500
 1461.5000  -999.2500  -999.2500  -999.2500  -999.2500  -999.2500     7.8130    88.1670     7.8710     8.0710     8.2350     9.6680   -20.6100  -999.2500  -999.2500
 1462.0000  -999.2500  -999.2500  -999.2500  -999.2500  -999.2500     7.8130    89.9280     7.6980     7.9650     8.1750     9.7930   -20.4430  -999.2500  -999.2500
 1462.5000  -999.2500  -999.2500  -999.2500  -999.2500  -999.2500     7.8130    91.6200     7.5250     7.8580     8.1140     9.9180   -20.2920  -999.2500  -999.2500
 1463.0000  -999.2500  -999.2500  -999.2500  -999.2500  -999.2500     7.8130    93.5200     7.3530     7.7520     8.0530    10.0430   -20.1360  -999.2500  -999.2500
 1463.5000  -999.2500  -999.2500  -999.2500  -999.2500  -999.2500     7.8130    92.8410     7.2290     7.6360     7.9930    10.1690   -20.3360  -999.2500  -999.2500
 1464.0000  -999.2500  -999.2500  -999.2500  -999.2500  -999.2500     7.8130    93.1060     7.2190     7.6150     7.9320    10.2940   -20.5540  -999.2500  -999.2500
 1464.5000  -999.2500  -999.2500  -999.2500  -999.2500  -999.2500     7.8130    93.6640     7.2100     7.5920     7.9000    10.4190   -20.7840  -999.2500  -999.2500
 1465.0000  -999.2500  -999.2500  -999.2500  -999.2500  -999.2500     7.8130    94.3110     7.2010     7.5690     7.8760    10.5440   -21.0060  -999.2500  -999.2500
 1465.5000  -999.2500  -999.2500  -999.2500  -999.2500  -999.2500     7.8130    93.8150     7.1910     7.5460     7.8520    10.6690   -21.2360  -999.2500  -999.2500
 1466.0000  -999.2500  -999.2500  -999.2500  -999.2500  -999.2500     7.8130    94.5400     7.1820     7.5220     7.8280    10.7940   -21.3120  -999.2500  -999.2500
 1466.5000  -999.2500  -999.2500  -999.2500  -999.2500  -999.2500     7.8130    96.3610     7.1730     7.4990     7.8040    10.9190   -21.2700  -999.2500  -999.2500
 1467.0000  -999.2500  -999.2500  -999.2500  -999.2500  -999.2500     7.8130    96.0460     7.1640     7.4760     7.7800    11.0440   -21.2340  -999.2500  -999.2500
