~VERSION INFORMATION
 VERS.                2.0:   CWLS LOG ASCII STANDARD - VERSION 2.0
 WRAP.                 NO:   ONE LINE PER DEPTH STEP
~WELL INFORMATION
#MNEM.UNIT      DATA TYPE    INFORMATION
#----------   ------------   ------------------------------
 STRT.F           71.0000:   START DEPTH
 STOP.F         3406.0000:   STOP DEPTH
 STEP.F            0.5000:   STEP LENGTH
 NULL.          -999.2500:   NO VALUE
 COMP. LAWRENCE ALLIOSON AND ASSOCIATES:   COMPANY
 WELL. LAWRENCE "X" #44-34:   WELL
 FLD .             NPR #3:   FIELD
 LOC .      S34 T39N R78W:   LOCATION
 CNTY.            NATRONA:   COUNTY
 STAT.            WYOMING:   STATE
 CTRY. UNITED STATES OF AMERICA:   COUNTRY
 SRVC.      DRESSER ATLAS:   SERVICE COMPANY
 DATE.        24-SEP-1984:   LOGDATE
 API .     49025109920000:   API NUMBER
~CURVE INFORMATION
#MNEM.UNIT       API CODE    CURVE DESCRIPTION
#----------   ------------   ------------------------------
 DEPT.F                  :   
 TENS.LBS    60 635 01 00:   TENSION FROM SONIC
 DT  .US/F   60 520 00 00:   DELTA TIME
 GRS .GAPI   60 310 01 00:   GAMMA RAY FROM SONIC LOG
 TEND.LBS    45 635 01 00:   TENSION FROM DENSITY LOG
 NPHI.DEC    42 890 03 00:   NEUTRON POROSITY SANDSTONE
 CALR.IN     07 280 01 00:   CALIPER FROM RESISTIVITY
 GRR .GAPI   07 310 01 00:   GAMMA RAY FROM RESISTIVITY
 RFOC.OHMM   07 220 04 00:   RESISTIVITY FOCUSED LOG RES.
 ILD .OHMM   07 120 46 00:   DEEP INDUCTION RESISTIVITY
 ILM .OHMM   07 120 44 00:   INDUCTION LOG MEDIUM RESISTIVITY
 TENR.LBS    07 635 01 00:   TENSION FROM RESISTIVITY
 SPR .MV     07 010 01 00:   SPONTANEOUS POTENTIAL
 CORR.G/C3   45 356 01 00:   DENSITY CORRECTION
 RHOB.G/C3   45 350 01 00:   BULK DENSITY
~PARAMETER INFORMATION
#MNEM.UNIT          VALUE    DESCRIPTION
#----------   ------------   ------------------------------
 EKB .F         5134.0000:   Kelly bushing
 EGL .F         5122.0000:   Ground level
 EDF .F            0.0000:   Drilling floor
 TD  .F         3404.0000:   Total depth
 DATE.        24-SEP-1984:   Date logged
 CLNT.            A2DTECH:   Client Code
 SL  . 2234' FEL & 2337' FNL:   Surface Location
 PD  .                 GL:   Permanent Datum
 EPD .F              5122:   Elevation Permanent Datum
 LMF .                 KB:   Log Measured From
 DMF .                 KB:   Drilling Measured From
 DAPD.F                12:   Feet Above Permanent Datum
 DD  .F              3404:   Depth driller
 DL  .F              3397:   Depth logger
 BLI .F              3395:   Bottom log interval
 TLI .F               780:   Top log interval
 CS1 .IN            8.625:   Casing size
 CBD1.      8.625" @ 726':   Casing driller 1
 CBL1.F               730:   Casing logger 1
 BS1 .IN            7.875:   Bit size
 BSD1.F              3404:   Depth drilled with bit1
 DFT .            GEL-KCL:   Type fluid in hole
 DFD .               9.14:   Density
 DFV .                 43:   Viscosity
 DFPH.                8.0:   pH
 DFL .               12.0:   Fluid loss
 MSS .           FLOWLINE:   Source of sample
 RMS .OHMM           0.42:   Rm
 MST .F                70:   Rm Meas. temp.
 RMF .OHMM           0.31:   Rmf
 MFST.F                60:   Rmf Meas. temp.
 RMC .OHMM           0.52:   Rmc
 MCST.F                60:   Rmc Meas. temp.
 MFSS.               CALC:   Source Rmf.
 MCSS.               CALC:   Source Rmc.
 RMB .OHMM           0.23:   Rm. at BHT
 BHT .F               125:   BHT.
 TCS .HRS               4:   Time Circ. stopped
 MRT .F               125:   Maximum recorded temp.
 LUN .               6274:   Logging unit number
 LUL .               GLTE:   Logging unit location
 ENGI.           M. HINDS:   Recorded By
 WITN.            JOHNSON:   Witnessed by
 ORIG.     2.5", 5" PRINT:   Origin of data
 UWI .     49025109920000:   Unique Well ID
 DICO. A2D TECHNOLOGIES, INC.:   Digitizing Company
~OTHER INFORMATION
~A   DEPT     TENS         DT         GRS      TEND       NPHI       CALR        GRR       RFOC        ILD        ILM       TENR        SPR       CORR       RHOB   
# ...
 3035.5000    -3.9200    83.4740   106.1050   -63.3600     0.2180     7.5200   107.2740     4.9380     3.9110     4.4720   -48.4120   -26.6880    -0.0110     2.4320
 3036.0000    -7.9200    82.4180   106.6890   -63.3600     0.2140     7.5150   109.7100     5.2140     3.8830     4.4290   -48.3170   -26.8210    -0.0020     2.4340
 3036.5000   -11.9200    81.7640   112.1380   -63.3600     0.2140     7.5110   113.3090     5.0310     3.8550     4.3850   -48.2230   -26.9000     0.0070     2.4400
 3037.0000   -15.9360    81.7480   115.2240   -63.3600     0.2200     7.5060   115.4350     4.8660     3.8270     4.3420   -48.1290   -26.8920     0.0180     2.4500
 3037.5000   -13.7230    82.0820   113.2690   -63.3600     0.2270     7.5020   113.1300     4.5920     3.7990     4.2990   -48.0340   -26.8920     0.0310     2.4600
 3038.0000    -8.1670    82.4150   111.2960   -63.3600     0.2420     7.4980   111.8410     4.6070     3.7720     4.2700   -47.9400   -26.8940     0.0310     2.4650
 3038.5000    -5.9760    82.6970   111.8760   -63.3600     0.2360     7.4940   112.0400     4.6760     3.7560     4.2970   -47.8450   -26.8920     0.0250     2.4660
 3039.0000    -6.3420    82.7790   111.9530   -63.3600     0.2240     7.5050   111.2640     4.6160     3.7490     4.3250   -47.7510   -26.8900     0.0200     2.4630
 3039.5000    -7.2350    82.6520   109.6190   -63.3600     0.2160     7.5180   109.8180     4.4280     3.7410     4.3530   -47.6560   -26.9200     0.0140     2.4640
 3040.0000    -8.1280    82.3560   107.5010   -63.3600     0.2210     7.5310   108.1400     4.5430     3.7340     4.3810   -47.5620   -27.0090     0.0090     2.4710
 3040.5000    -9.0210    81.8200   108.0700   -63.3600     0.2250     7.5450   107.7660     4.7470     3.7270     4.4080   -47.4670   -27.0960     0.0070     2.4790
 3041.0000    -9.9140    81.2840   109.4740   -63.3600     0.2300     7.5580   110.1240     4.9510     3.7200     4.4220   -47.3730   -27.1840     0.0090     2.4870
 3041.5000   -10.8070    81.1910   114.1680   -63.3600     0.2320     7.5710   113.7960     5.1210     3.7120     4.4020   -47.2780   -27.2730     0.0120     2.4850
 3042.0000   -11.7000    81.6610   116.6800   -63.3600     0.2290     7.5700   117.2400     5.2140     3.7050     4.3820   -47.1840   -27.3610     0.0140     2.4750
 3042.5000   -12.5920    82.5280   114.5650   -63.3600     0.2310     7.5650   114.1270     4.8170     3.6980     4.3620   -47.0890   -27.4490     0.0110     2.4650
 3043.0000   -13.4850    83.3950   111.4300   -63.3600     0.2320     7.5600   111.1530     4.4350     3.6900     4.3420   -46.9950   -27.5370     0.0070     2.4580
 3043.5000   -14.3780    83.8750   108.3270   -63.3600     0.2320     7.5550   107.8960     4.3480     3.6830     4.3220   -46.9000   -27.6260     0.0020     2.4630
 3044.0000   -15.2710    83.2270   105.2460   -63.3600     0.2210     7.5500   105.1450     4.4140     3.6760     4.3020   -46.8060   -27.6900     0.0000     2.4680
 3044.5000   -15.9360    82.4640   102.8370   -63.3600     0.2110     7.5440   103.6270     4.4780     3.6690     4.2820   -46.7110   -27.6890     0.0050     2.4670
 3045.0000   -15.9360    81.7010   102.5790   -63.3600     0.2000     7.5400   103.1590     4.5430     3.6610     4.2700   -46.6170   -27.6900     0.0100     2.4670
 3045.5000   -15.9360    80.9860   103.4120   -63.3600     0.2040     7.5340   104.0570     4.6340     3.6540     4.2550   -46.5220   -27.6900     0.0140     2.4700
 3046.0000   -14.9520    80.9860   104.7710   -63.3600     0.2120     7.5340   104.9060     4.8080     3.6470     4.1940   -46.4280   -27.6890     0.0190     2.4750
 3046.5000   -14.0270    81.2920   107.2700   -63.2380     0.2200     7.5340   107.4380     4.7210     3.6400     4.1330   -46.3330   -27.6900     0.0240     2.4730
 3047.0000   -13.1020    81.9420   110.2920   -63.0320     0.2240     7.5350   109.7020     4.5470     3.6320     4.0720   -46.2390   -27.6890     0.0240     2.4650
 3047.5000   -12.1770    82.4480   112.3020   -62.8250     0.2240     7.5370   112.0750     4.3730     3.6260     3.9710   -46.1450   -27.6900     0.0170     2.4600
 3048.0000   -11.2520    82.7980   112.3630   -62.6190     0.2240     7.5400   112.7330     4.1930     3.6370     3.9980   -46.0500   -27.6900     0.0100     2.4580
 3048.5000   -10.3270    82.9170   111.7140   -62.4130     0.2220     7.5430   111.2040     4.2940     3.6680     4.0790   -45.9560   -27.6890     0.0100     2.4650
 3049.0000    -9.4020    82.3720   109.6810   -62.2060     0.2190     7.5460   109.6700     4.3980     3.7000     4.1590   -45.8610   -27.6910     0.0160     2.4730
 3049.5000    -8.4770    81.6380   107.9770   -62.0000     0.2180     7.5490   108.0850     4.5090     3.7310     4.2400   -45.7670   -27.6880     0.0210     2.4810
 3050.0000    -7.5520    80.9040   107.6360   -61.7930     0.2200     7.5520   108.0320     4.6870     3.7630     4.3210   -45.6720   -27.6800     0.0270     2.4850
 3050.5000    -6.6270    80.3880   107.3430   -61.5870     0.2170     7.5540   107.7600     4.9380     3.7950     4.4010   -45.5780   -27.5610     0.0320     2.4860
 3051.0000    -5.9760    80.6480   110.2920   -61.3810     0.2130     7.5570   110.0100     4.8180     3.8290     4.4280   -45.4830   -27.4600     0.0380     2.4840
 3051.5000    -5.9760    81.0210   113.9700   -61.1740     0.2130     7.5600   113.5140     4.6380     3.7680     4.3610   -45.3890   -27.3480     0.0380     2.4820
 3052.0000    -5.9760    81.3940   113.5720   -60.9680     0.2130     7.5630   113.4420     4.4580     3.7000     4.2880   -45.2940   -27.2890     0.0370     2.4750
 3052.5000    -5.9760    81.8500   108.3760   -60.7610     0.2150     7.5660   109.2320     4.2780     3.6320     4.2150   -45.2000   -27.3820     0.0180     2.4720
 3053.0000    -5.9760    82.3920   105.2550   -60.5550     0.2170     7.5690   105.0090     4.1180     3.5650     4.1420   -45.1050   -27.4670    -0.0070     2.4610
 3053.5000    -5.9760    82.9340   104.5750   -60.3490     0.2190     7.5710   104.8290     4.0710     3.4970     4.0690   -45.0110   -27.5550     0.0000     2.4580
 3054.0000    -5.9760    83.4760   106.6610   -60.1420     0.2200     7.5740   107.3340     4.0070     3.4300     3.9950   -44.9160   -27.6440     0.0100     2.4580
 3054.5000    -5.9760    83.9740   110.8030   -59.9360     0.2190     7.5720   109.4670     3.9440     3.3620     3.9220   -44.8220   -27.7310     0.0200     2.4600
 3055.0000    -5.9760    83.9960   109.8820   -59.7290     0.2180     7.5740   109.6440     3.8990     3.2950     3.8490   -44.7270   -27.8190     0.0300     2.4590
 3055.5000    -5.9760    84.0150   107.6230   -59.5230     0.2200     7.5810   108.2700     3.8990     3.2270     3.7760   -44.6330   -27.9090     0.0400     2.4560
 3056.0000    -5.9760    84.0350   106.0100   -59.3170     0.2240     7.6180   105.4530     3.8990     3.1350     3.7600   -44.5380   -27.9920     0.0490     2.4530
 3056.5000    -5.9760    84.0550   104.4510   -59.1100     0.2290     7.6120   103.9850     3.8990     3.1510     3.7600   -44.4440   -28.0810     0.0300     2.4540
 3057.0000    -5.9760    84.0740   105.1710   -58.9040     0.2330     7.6140   104.2710     3.8990     3.1740     3.7600   -44.3490   -28.0060     0.0110     2.4550
 3057.5000    -5.9760    83.8800   108.2080   -58.6970     0.2390     7.6140   107.7540     3.8990     3.1970     3.8290   -44.2550   -27.9220    -0.0110     2.4530
 3058.0000    -5.9760    83.6990   110.8280   -58.4910     0.2390     7.6110   111.6750     3.9080     3.2210     3.8290   -44.1600   -27.8310    -0.0110     2.4510
 3058.5000    -5.9760    83.5180   111.2380   -58.2850     0.2300     7.6080   111.4000     3.9450     3.2440     3.8290   -44.0660   -27.7470    -0.0100     2.4490
 3059.0000    -5.9760    83.3380   107.2750   -58.0780     0.2280     7.6050   108.4470     3.9830     3.3510     3.9660   -43.9720   -27.5910    -0.0070     2.4500
 3059.5000    -6.0920    83.0130   102.2930   -57.8720     0.2260     7.6010   104.7780     4.0210     3.4930     4.0930   -43.8770   -27.3180    -0.0040     2.4570
