~VERSION INFORMATION
 VERS.                2.0:   CWLS LOG ASCII STANDARD - VERSION 2.0
 WRAP.                 NO:   ONE LINE PER DEPTH STEP
~WELL INFORMATION
#MNEM.UNIT      DATA TYPE    INFORMATION
#----------   ------------   ------------------------------
 STRT.F           71.0000:   START DEPTH
 STOP.F         3406.0000:   STOP DEPTH
 STEP.F            0.5000:   STEP LENGTH
 NULL.          -999.2500:   NO VALUE
 COMP. LAWRENCE ALLIOSON AND ASSOCIATES:   COMPANY
 WELL. LAWRENCE "X" #44-34:   WELL
 FLD .             NPR #3:   FIELD
 LOC .      S34 T39N R78W:   LOCATION
 CNTY.            NATRONA:   COUNTY
 STAT.            WYOMING:   STATE
 CTRY. UNITED STATES OF AMERICA:   COUNTRY
 SRVC.      DRESSER ATLAS:   SERVICE COMPANY
 DATE.        24-SEP-1984:   LOGDATE
 API .     49025109920000:   API NUMBER
~CURVE INFORMATION
#MNEM.UNIT       API CODE    CURVE DESCRIPTION
#----------   ------------   ------------------------------
 DEPT.F                  :   
 TENS.LBS    60 635 01 00:   TENSION FROM SONIC
 DT  .US/F   60 520 00 00:   DELTA TIME
 GRS .GAPI   60 310 01 00:   GAMMA RAY FROM SONIC LOG
 TEND.LBS    45 635 01 00:   TENSION FROM DENSITY LOG
 NPHI.DEC    42 890 03 00:   NEUTRON POROSITY SANDSTONE
 CALR.IN     07 280 01 00:   CALIPER FROM RESISTIVITY
 GRR .GAPI   07 310 01 00:   GAMMA RAY FROM RESISTIVITY
 RFOC.OHMM   07 220 04 00:   RESISTIVITY FOCUSED LOG RES.
 ILD .OHMM   07 120 46 00:   DEEP INDUCTION RESISTIVITY
 ILM .OHMM   07 120 44 00:   INDUCTION LOG MEDIUM RESISTIVITY
 TENR.LBS    07 635 01 00:   TENSION FROM RESISTIVITY
 SPR .MV     07 010 01 00:   SPONTANEOUS POTENTIAL
 CORR.G/C3   45 356 01 00:   DENSITY CORRECTION
 RHOB.G/C3   45 350 01 00:   BULK DENSITY
~PARAMETER INFORMATION
#MNEM.UNIT          VALUE    DESCRIPTION
#----------   ------------   ------------------------------
 EKB .F         5134.0000:   Kelly bushing
 EGL .F         5122.0000:   Ground level
 EDF .F            0.0000:   Drilling floor
 TD  .F         3404.0000:   Total depth
 DATE.        24-SEP-1984:   Date logged
 CLNT.            A2DTECH:   Client Code
 SL  . 2234' FEL & 2337' FNL:   Surface Location
 PD  .                 GL:   Permanent Datum
 EPD .F              5122:   Elevation Permanent Datum
 LMF .                 KB:   Log Measured From
 DMF .                 KB:   Drilling Measured From
 DAPD.F                12:   Feet Above Permanent Datum
 DD  .F              3404:   Depth driller
 DL  .F              3397:   Depth logger
 BLI .F              3395:   Bottom log interval
 TLI .F               780:   Top log interval
 CS1 .IN            8.625:   Casing size
 CBD1.      8.625" @ 726':   Casing driller 1
 CBL1.F               730:   Casing logger 1
 BS1 .IN            7.875:   Bit size
 BSD1.F              3404:   Depth drilled with bit1
 DFT .            GEL-KCL:   Type fluid in hole
 DFD .               9.14:   Density
 DFV .                 43:   Viscosity
 DFPH.                8.0:   pH
 DFL .               12.0:   Fluid loss
 MSS .           FLOWLINE:   Source of sample
 RMS .OHMM           0.42:   Rm
 MST .F                70:   Rm Meas. temp.
 RMF .OHMM           0.31:   Rmf
 MFST.F                60:   Rmf Meas. temp.
 RMC .OHMM           0.52:   Rmc
 MCST.F                60:   Rmc Meas. temp.
 MFSS.               CALC:   Source Rmf.
 MCSS.               CALC:   Source Rmc.
 RMB .OHMM           0.23:   Rm. at BHT
 BHT .F               125:   BHT.
 TCS .HRS               4:   Time Circ. stopped
 MRT .F               125:   Maximum recorded temp.
 LUN .               6274:   Logging unit number
 LUL .               GLTE:   Logging unit location
 ENGI.           M. HINDS:   Recorded By
 WITN.            JOHNSON:   Witnessed by
 ORIG.     2.5", 5" PRINT:   Origin of data
 UWI .     49025109920000:   Unique Well ID
 DICO. A2D TECHNOLOGIES, INC.:   Digitizing Company
~OTHER INFORMATION
~A   DEPT     TENS         DT         GRS      TEND       NPHI       CALR        GRR       RFOC        ILD        ILM       TENR        SPR       CORR       RHOB   
# ...
 2496.5000    -8.8280    87.2160   114.0510   -54.1790     0.2500     7.5850   113.4150     6.7960     5.8150     6.3250   -41.6670   -25.6970     0.0280     2.5540
 2497.0000    -9.8910    87.5090   112.4160   -54.9490     0.2610     7.5790   111.2250     6.6520     5.7110     6.2050   -41.6670   -25.6970     0.0310     2.5490
 2497.5000   -10.9550    87.7160   111.1480   -55.7200     0.2710     7.5740   113.1160     6.5080     5.6050     6.0840   -41.6670   -25.6960     0.0340     2.5420
 2498.0000   -12.0190    87.8310   115.8930   -56.4900     0.2760     7.5820   118.4550     6.3640     5.4990     5.9640   -41.6670   -25.6970     0.0370     2.5400
 2498.5000   -13.0830    87.9460   121.5510   -57.2600     0.2710     7.5890   123.1840     6.2200     5.3930     5.8440   -41.6670   -25.7010     0.0410     2.5460
 2499.0000   -14.1460    88.5530   126.8700   -58.0300     0.2720     7.5970   127.3040     6.0760     5.2860     5.7240   -41.6670   -25.6910     0.0460     2.5490
 2499.5000   -15.2100    89.2190   128.3910   -58.8010     0.2740     7.6040   128.3140     5.9320     5.2140     5.6040   -41.6670   -25.7020     0.0540     2.5440
 2500.0000   -16.2740    89.9500   128.8970   -59.5710     0.2750     7.6120   126.2850     5.8150     5.2140     5.5060   -41.6670   -25.7340     0.0620     2.5460
 2500.5000   -17.3380    89.8510   124.7040   -60.3410     0.2730     7.6190   124.6490     6.0250     5.2390     5.6720   -41.6670   -26.1120     0.0690     2.5500
 2501.0000   -18.4010    89.1710   121.3760   -61.1110     0.2670     7.6270   120.8660     6.2840     5.2960     5.8110   -41.6670   -26.4540     0.0790     2.5550
 2501.5000   -19.4650    88.3510   119.2560   -61.8810     0.2610     7.6340   119.4470     6.5430     5.3540     5.9500   -41.6670   -26.1300     0.0740     2.5580
 2502.0000   -20.5290    87.7720   115.1600   -62.6520     0.2590     7.6420   116.2740     6.4850     5.4110     6.0890   -44.0630   -25.7710     0.0530     2.5530
 2502.5000   -21.5930    87.4640   111.1820   -63.4220     0.2640     7.6500   110.6310     6.4160     5.4690     6.1410   -46.1510   -25.3230     0.0350     2.5490
 2503.0000   -22.6560    87.4960   108.2150   -64.1920     0.2700     7.6550   107.6890     6.3490     5.5260     6.1410   -48.2380   -25.3250     0.0230     2.5470
 2503.5000   -23.7200    87.5270   109.9830   -64.9620     0.2680     7.6570   110.1060     6.2810     5.6070     6.1410   -50.3250   -25.3630     0.0250     2.5470
 2504.0000   -24.7840    87.5580   113.5710   -65.7330     0.2640     7.6600   113.4730     6.2530     5.5960     6.1410   -52.4130   -25.4170     0.0300     2.5470
 2504.5000   -25.8960    87.5890   114.8880   -66.5030     0.2620     7.6620   115.2580     6.3150     5.5400     6.1410   -54.5000   -25.4630     0.0250     2.5460
 2505.0000   -24.4480    87.6210   115.6190   -67.2730     0.2640     7.6650   115.3110     6.3680     5.4850     6.1410   -56.5870   -25.5090     0.0200     2.5440
 2505.5000   -22.9290    87.6520   117.2990   -68.0430     0.2660     7.6670   117.1120     6.3680     5.4290     6.1410   -58.6750   -25.5580     0.0150     2.5420
 2506.0000   -21.4110    87.8370   120.6270   -68.8130     0.2680     7.6700   119.6350     6.3680     5.3730     6.1410   -60.7620   -25.6080     0.0210     2.5390
 2506.5000   -19.8930    88.0680   121.1320   -69.5840     0.2590     7.6720   121.1950     6.2380     5.3180     6.0950   -59.7430   -25.6520     0.0270     2.5360
 2507.0000   -18.3750    88.2400   120.0840   -70.3540     0.2520     7.6750   119.9320     6.1110     5.2620     6.0510   -56.9970   -25.6890     0.0340     2.5420
 2507.5000   -16.8570    88.1460   120.0420   -71.1240     0.2540     7.6770   120.2130     6.0300     5.2060     6.0070   -54.2500   -25.5710     0.0410     2.5530
 2508.0000   -15.3390    88.0520   121.3500   -71.8940     0.2610     7.6800   122.0590     6.0590     5.1510     5.9620   -51.5040   -25.4600     0.0470     2.5510
 2508.5000   -13.8200    87.9580   124.1650   -72.6650     0.2680     7.6830   124.7740     6.1080     5.1210     5.9210   -48.7570   -25.3390     0.0540     2.5430
 2509.0000   -12.3020    88.4040   126.6200   -73.4350     0.2690     7.6850   127.4420     6.1410     5.3650     6.1010   -46.0110   -25.2950     0.0600     2.5290
 2509.5000   -10.7840    88.8550   128.3270   -74.2050     0.2630     7.6880   128.8460     5.9210     5.5920     6.3580   -43.2640   -25.2990     0.0650     2.5310
 2510.0000    -9.2660    88.7550   124.1970   -74.9750     0.2510     7.6900   125.7140     6.1380     5.8180     6.6150   -41.6670   -25.2990     0.0540     2.5290
 2510.5000    -7.7480    88.1570   118.6520   -75.7450     0.2390     7.6930   121.3640     6.6570     6.0450     6.8710   -41.6670   -25.2980     0.0400     2.5270
 2511.0000    -6.2300    86.9830   117.0600   -76.5160     0.2280     7.6880   117.7370     7.1750     6.2710     7.1280   -41.6670   -25.2990     0.0270     2.5270
 2511.5000    -7.0330    85.4200   114.3930   -77.2860     0.2220     7.6820   111.7930     7.6110     6.4970     7.3850   -41.6670   -25.2990     0.0300     2.5350
 2512.0000    -8.3010    83.6160   109.4260   -78.0560     0.2210     7.6760   106.6250     7.9080     6.7240     7.7760   -41.6670   -25.3000     0.0400     2.5380
 2512.5000    -9.5690    82.1360   104.1340   -78.8260     0.2260     7.6700   103.3320     8.2120     7.1010     7.7670   -41.6670   -25.2990     0.0310     2.5390
 2513.0000   -10.8380    81.4870   103.4540   -79.5970     0.2340     7.6640   104.1710     8.1420     7.0980     7.7460   -41.6670   -25.2980     0.0290     2.5380
 2513.5000   -12.1060    81.4670   106.5870   -80.3670     0.2430     7.6570   108.6150     7.9340     7.0900     7.7260   -41.6670   -25.3030     0.0270     2.5370
 2514.0000   -13.3740    81.9780   111.9350   -81.1370     0.2470     7.6530   113.0310     7.7250     7.0810     7.7060   -41.6670   -25.2960     0.0300     2.5370
 2514.5000   -14.6430    82.5510   116.2910   -81.9070     0.2430     7.6530   116.8360     7.4990     7.0730     7.6860   -41.6670   -25.2800     0.0310     2.5360
 2515.0000   -15.9110    83.1230   117.9530   -82.6780     0.2410     7.6530   118.6370     7.1010     7.0650     7.6650   -41.6670   -25.0160     0.0430     2.5420
 2515.5000   -17.1790    83.6960   116.7000   -82.4570     0.2400     7.6530   116.9250     7.1880     7.0560     7.6450   -41.6670   -24.7990     0.0530     2.5510
 2516.0000   -18.4480    84.2680   115.0190   -81.5010     0.2400     7.6530   116.4890     7.4100     7.0480     7.6250   -41.6670   -24.5600     0.0650     2.5600
 2516.5000   -19.7160    84.8710   116.0380   -80.5450     0.2410     7.6530   116.0420     7.7760     7.0390     7.6050   -41.6670   -24.4950     0.0750     2.5660
 2517.0000   -20.9840    84.9700   118.7080   -79.5880     0.2420     7.6530   119.7390     7.7070     7.0310     7.5840   -41.6670   -24.4460     0.0850     2.5610
 2517.5000   -22.2530    84.9700   119.9270   -78.6320     0.2420     7.6530   120.5150     7.5100     7.0230     7.5640   -41.6670   -24.3930     0.0850     2.5560
 2518.0000   -23.5210    84.9700   118.6270   -77.6750     0.2420     7.6530   119.2310     7.3130     7.0140     7.5440   -41.6670   -24.3360     0.0840     2.5470
 2518.5000   -24.7890    84.8030   115.9510   -76.7190     0.2350     7.6530   117.1710     7.1010     7.0060     7.5230   -41.6670   -24.2810     0.0830     2.5480
 2519.0000   -25.8530    84.6210   114.7530   -75.7630     0.2250     7.6550   115.2590     7.2230     6.9980     7.5030   -41.6670   -24.2250     0.0820     2.5580
 2519.5000   -25.5100    84.1630   112.7390   -74.8060     0.2240     7.6560   112.2270     7.4450     6.9900     7.4450   -41.6670   -24.1760     0.0820     2.5660
 2520.0000   -25.1660    83.6030   109.7330   -73.8500     0.2290     7.6570   108.8040     7.6670     6.9800     7.3770   -41.6670   -24.1170     0.0810     2.5750
 2520.5000   -24.8230    83.0430   105.2270   -72.8940     0.2370     7.6590   105.7450     7.7760     6.9730     7.3080   -41.6670   -24.3260     0.0820     2.5850
