~VERSION INFORMATION
 VERS.                2.0:   CWLS LOG ASCII STANDARD - VERSION 2.0
 WRAP.                 NO:   ONE LINE PER DEPTH STEP
~WELL INFORMATION
#MNEM.UNIT      DATA TYPE    INFORMATION
#----------   ------------   ------------------------------
 STRT.F           71.0000:   START DEPTH
 STOP.F         3406.0000:   STOP DEPTH
 STEP.F            0.5000:   STEP LENGTH
 NULL.          -999.2500:   NO VALUE
 COMP. LAWRENCE ALLIOSON AND ASSOCIATES:   COMPANY
 WELL. LAWRENCE "X" #44-34:   WELL
 FLD .             NPR #3:   FIELD
 LOC .      S34 T39N R78W:   LOCATION
 CNTY.            NATRONA:   COUNTY
 STAT.            WYOMING:   STATE
 CTRY. UNITED STATES OF AMERICA:   COUNTRY
 SRVC.      DRESSER ATLAS:   SERVICE COMPANY
 DATE.        24-SEP-1984:   LOGDATE
 API .     49025109920000:   API NUMBER
~CURVE INFORMATION
#MNEM.UNIT       API CODE    CURVE DESCRIPTION
#----------   ------------   ------------------------------
 DEPT.F                  :   
 TENS.LBS    60 635 01 00:   TENSION FROM SONIC
 DT  .US/F   60 520 00 00:   DELTA TIME
 GRS .GAPI   60 310 01 00:   GAMMA RAY FROM SONIC LOG
 TEND.LBS    45 635 01 00:   TENSION FROM DENSITY LOG
 NPHI.DEC    42 890 03 00:   NEUTRON POROSITY SANDSTONE
 CALR.IN     07 280 01 00:   CALIPER FROM RESISTIVITY
 GRR .GAPI   07 310 01 00:   GAMMA RAY FROM RESISTIVITY
 RFOC.OHMM   07 220 04 00:   RESISTIVITY FOCUSED LOG RES.
 ILD .OHMM   07 120 46 00:   DEEP INDUCTION RESISTIVITY
 ILM .OHMM   07 120 44 00:   INDUCTION LOG MEDIUM RESISTIVITY
 TENR.LBS    07 635 01 00:   TENSION FROM RESISTIVITY
 SPR .MV     07 010 01 00:   SPONTANEOUS POTENTIAL
 CORR.G/C3   45 356 01 00:   DENSITY CORRECTION
 RHOB.G/C3   45 350 01 00:   BULK DENSITY
~PARAMETER INFORMATION
#MNEM.UNIT          VALUE    DESCRIPTION
#----------   ------------   ------------------------------
 EKB .F         5134.0000:   Kelly bushing
 EGL .F         5122.0000:   Ground level
 EDF .F            0.0000:   Drilling floor
 TD  .F         3404.0000:   Total depth
 DATE.        24-SEP-1984:   Date logged
 CLNT.            A2DTECH:   Client Code
 SL  . 2234' FEL & 2337' FNL:   Surface Location
 PD  .                 GL:   Permanent Datum
 EPD .F              5122:   Elevation Permanent Datum
 LMF .                 KB:   Log Measured From
 DMF .                 KB:   Drilling Measured From
 DAPD.F                12:   Feet Above Permanent Datum
 DD  .F              3404:   Depth driller
 DL  .F              3397:   Depth logger
 BLI .F              3395:   Bottom log interval
 TLI .F               780:   Top log interval
 CS1 .IN            8.625:   Casing size
 CBD1.      8.625" @ 726':   Casing driller 1
 CBL1.F               730:   Casing logger 1
 BS1 .IN            7.875:   Bit size
 BSD1.F              3404:   Depth drilled with bit1
 DFT .            GEL-KCL:   Type fluid in hole
 DFD .               9.14:   Density
 DFV .                 43:   Viscosity
 DFPH.                8.0:   pH
 DFL .               12.0:   Fluid loss
 MSS .           FLOWLINE:   Source of sample
 RMS .OHMM           0.42:   Rm
 MST .F                70:   Rm Meas. temp.
 RMF .OHMM           0.31:   Rmf
 MFST.F                60:   Rmf Meas. temp.
 RMC .OHMM           0.52:   Rmc
 MCST.F                60:   Rmc Meas. temp.
 MFSS.               CALC:   Source Rmf.
 MCSS.               CALC:   Source Rmc.
 RMB .OHMM           0.23:   Rm. at BHT
 BHT .F               125:   BHT.
 TCS .HRS               4:   Time Circ. stopped
 MRT .F               125:   Maximum recorded temp.
 LUN .               6274:   Logging unit number
 LUL .               GLTE:   Logging unit location
 ENGI.           M. HINDS:   Recorded By
 WITN.            JOHNSON:   Witnessed by
 ORIG.     2.5", 5" PRINT:   Origin of data
 UWI .     49025109920000:   Unique Well ID
 DICO. A2D TECHNOLOGIES, INC.:   Digitizing Company
~OTHER INFORMATION
~A   DEPT     TENS         DT         GRS      TEND       NPHI       CALR        GRR       RFOC        ILD        ILM       TENR        SPR       CORR       RHOB   
# ...
 3378.5000     3.9840  -999.2500  -999.2500    19.2860  -999.2500     7.6430  -999.2500     3.8990     3.0060     3.5070   -32.5750   -29.3430    -0.0080     2.4470
 3379.0000     3.9840  -999.2500  -999.2500    19.9280  -999.2500     7.6440  -999.2500     3.8510     3.0220     3.5360   -32.3020   -29.1160    -0.0020     2.4570
 3379.5000     3.9840  -999.2500  -999.2500    20.5700  -999.2500     7.6450  -999.2500     3.7730     3.0380     3.5650   -32.0290   -28.8910     0.0020     2.4680
 3380.0000     3.9840  -999.2500  -999.2500    21.2120  -999.2500     7.6460  -999.2500     3.6920     3.0550     3.5940   -31.7560   -28.6620     0.0040     2.4720
 3380.5000     3.9840  -999.2500  -999.2500    21.8540  -999.2500     7.6480  -999.2500     3.7800     3.0710     3.6230   -31.4840   -28.4990     0.0060     2.4660
 3381.0000     3.9840  -999.2500  -999.2500    22.4960  -999.2500     7.6490  -999.2500     3.8710     3.0870     3.6520   -31.2110   -28.5480     0.0100     2.4610
 3381.5000     3.9840  -999.2500  -999.2500    23.1380  -999.2500     7.6500  -999.2500     3.8990     3.1040     3.6810   -30.9380   -28.5940     0.0160     2.4560
 3382.0000     3.9840  -999.2500  -999.2500    23.7800  -999.2500     7.6510  -999.2500     3.8990     3.1200     3.7100   -30.6650   -28.6460     0.0220     2.4520
 3382.5000     3.9840  -999.2500  -999.2500    24.4220  -999.2500     7.6530  -999.2500     4.5090     3.1350     3.7390   -30.3920   -28.6970     0.0250     2.4550
 3383.0000     3.9840  -999.2500  -999.2500    25.0640  -999.2500     7.6530  -999.2500     4.3320     3.1140     3.7600   -30.1190   -28.7460     0.0030     2.4580
 3383.5000     3.9840  -999.2500  -999.2500    25.7070  -999.2500     7.6530  -999.2500     4.0640     3.0920     3.7000   -29.8470   -28.7980    -0.0150     2.4500
 3384.0000     3.9840  -999.2500  -999.2500    26.3490  -999.2500     7.6530  -999.2500     3.8990     3.0710     3.6340   -29.5740   -28.8510    -0.0350     2.4410
 3384.5000     3.9840  -999.2500  -999.2500    26.9910  -999.2500     7.6530  -999.2500     3.9230     3.0500     3.5680   -29.3010   -28.8190    -0.0390     2.4410
 3385.0000     3.9840  -999.2500  -999.2500    27.6330  -999.2500     7.6530  -999.2500     3.9610     3.0240     3.5010   -29.0280   -28.5510    -0.0180     2.4450
 3385.5000     3.9840  -999.2500  -999.2500    28.2750  -999.2500     7.6530  -999.2500     3.8420     3.0250     3.4340   -28.7550   -28.2900     0.0050     2.4710
 3386.0000     3.9840  -999.2500  -999.2500    28.9170  -999.2500     7.6530  -999.2500     3.6660     3.0280     3.4410   -28.4830   -28.1080     0.0290     2.4930
 3386.5000     3.9840  -999.2500  -999.2500    29.5590  -999.2500     7.6530  -999.2500     3.4900     3.0310     3.4480   -28.2100   -28.1890     0.0520     2.5040
 3387.0000     3.9840  -999.2500  -999.2500    30.2010  -999.2500     7.6530  -999.2500     3.3720     3.0340     3.4550   -27.9370   -28.2660     0.0650     2.4710
 3387.5000     3.9840  -999.2500  -999.2500    30.8430  -999.2500     7.6530  -999.2500     3.4240     3.0370     3.4630   -27.6640   -28.3460     0.0770     2.4300
 3388.0000     3.9840  -999.2500  -999.2500    31.4850  -999.2500     7.6530  -999.2500     3.4790     3.0400     3.4700   -27.3910   -28.4330     0.0870     2.3960
 3388.5000     3.9840  -999.2500  -999.2500    32.1270  -999.2500     7.6530  -999.2500     3.8410     3.0430     3.4770   -27.1180   -28.5240     0.1200     2.4020
 3389.0000     3.9840  -999.2500  -999.2500    32.7700  -999.2500     7.6530  -999.2500     4.2700     3.0460     3.4840   -26.8460   -28.6450     0.1150     2.4110
 3389.5000     3.9840  -999.2500  -999.2500    33.4120  -999.2500     7.6530  -999.2500     3.9580     3.0490     3.4920   -26.5730   -28.8300     0.1050     2.3880
 3390.0000     3.9840  -999.2500  -999.2500    34.0540  -999.2500     7.6530  -999.2500     3.6890     3.0520     3.4990   -26.3000   -28.5490     0.1040     2.3940
 3390.5000     3.9840  -999.2500  -999.2500    34.6960  -999.2500     7.6530  -999.2500     3.2510     3.0550     3.5060   -26.0270   -28.2530     0.1090     2.6130
 3391.0000     3.9840  -999.2500  -999.2500    26.5950  -999.2500     7.6530  -999.2500     3.3130     3.0580     3.5140   -25.7540   -27.9880     0.1090  -999.2500
 3391.5000     3.9840  -999.2500  -999.2500    15.1800  -999.2500     7.6530  -999.2500     3.4770     3.0610     3.5210   -25.4820   -27.7060     0.1090  -999.2500
 3392.0000     3.9840  -999.2500  -999.2500     3.7660  -999.2500     7.6530  -999.2500     3.6260     3.0640     3.5280   -25.2090   -27.7780     0.1090  -999.2500
 3392.5000     3.9840  -999.2500  -999.2500   -13.1390  -999.2500     7.6530  -999.2500     3.0320     3.0670     3.5360   -24.9360   -27.9750     0.1090  -999.2500
 3393.0000     3.9840  -999.2500  -999.2500   -43.9590  -999.2500     7.6530  -999.2500     2.2980     3.0700     3.5430   -24.6630   -28.1810     0.1090  -999.2500
 3393.5000     3.9840  -999.2500  -999.2500   -74.7790  -999.2500     7.6530  -999.2500     1.5630     3.0730     3.5500   -24.3900   -28.3720     0.1090  -999.2500
 3394.0000     3.9840  -999.2500  -999.2500  -105.5990  -999.2500     7.6530  -999.2500     1.2870     3.0750     3.5580   -24.1170   -28.5710     0.1090  -999.2500
 3394.5000     3.9840  -999.2500  -999.2500  -122.2990  -999.2500     7.6530  -999.2500     1.2190     3.0780     3.5610   -23.8450   -28.7810     0.1090  -999.2500
 3395.0000     3.9840  -999.2500  -999.2500  -122.2990  -999.2500     7.6530  -999.2500  -999.2500     3.0790     3.5610   -23.5720   -28.8950     0.1090  -999.2500
 3395.5000     3.9840  -999.2500  -999.2500  -122.2990  -999.2500  -999.2500  -999.2500  -999.2500  -999.2500  -999.2500   -23.2990  -999.2500     0.1090  -999.2500
 3396.0000     3.9840  -999.2500  -999.2500  -122.2990  -999.2500  -999.2500  -999.2500  -999.2500  -999.2500  -999.2500   -23.0260  -999.2500     0.1090  -999.2500
 3396.5000     3.9840  -999.2500  -999.2500  -122.2990  -999.2500  -999.2500  -999.2500  -999.2500  -999.2500  -999.2500   -22.7530  -999.2500     0.1090  -999.2500
 3397.0000     3.9840  -999.2500  -999.2500  -122.2990  -999.2500  -999.2500  -999.2500  -999.2500  -999.2500  -999.2500   -22.4810  -999.2500     0.1090  -999.2500
 3397.5000     3.9840  -999.2500  -999.2500  -122.2990  -999.2500  -999.2500  -999.2500  -999.2500  -999.2500  -999.2500   -22.2080  -999.2500     0.1090  -999.2500
 3398.0000     3.9840  -999.2500  -999.2500  -122.2990  -999.2500  -999.2500  -999.2500  -999.2500  -999.2500  -999.2500   -21.9350  -999.2500     0.1090  -999.2500
 3398.5000     3.9840  -999.2500  -999.2500  -999.2500  -999.2500  -999.2500  -999.2500  -999.2500  -999.2500  -999.2500   -21.8250  -999.2500  -999.2500  -999.2500
 3399.0000     3.9840  -999.2500  -999.2500  -999.2500  -999.2500  -999.2500  -999.2500  -999.2500  -999.2500  -999.2500   -21.8250  -999.2500  -999.2500  -999.2500
 3399.5000     3.9840  -999.2500  -999.2500  -999.2500  -999.2500  -999.2500  -999.2500  -999.2500  -999.2500  -999.2500   -23.3360  -999.2500  -999.2500  -999.2500
 3400.0000     3.9840  -999.2500  -999.2500  -999.2500  -999.2500  -999.2500  -999.2500  -999.2500  -999.2500  -999.2500   -25.4800  -999.2500  -999.2500  -999.2500
 3400.5000     3.9840  -999.2500  -999.2500  -999.2500  -999.2500  -999.2500  -999.2500  -999.2500  -999.2500  -999.2500   -27.6250  -999.2500  -999.2500  -999.2500
 3401.0000     3.9840  -999.2500  -999.2500  -999.2500  -999.2500  -999.2500  -999.2500  -999.2500  -999.2500  -999.2500   -29.7690  -999.2500  -999.2500  -999.2500
 3401.5000     3.9840  -999.2500  -999.2500  -999.2500  -999.2500  -999.2500  -999.2500  -999.2500  -999.2500  -999.2500   -31.9130  -999.2500  -999.2500  -999.2500
 3402.0000     3.9840  -999.2500  -999.2500  -999.2500  -999.2500  -999.2500  -999.2500  -999.2500  -999.2500  -999.2500   -34.0580  -999.2500  -999.2500  -999.2500
 3402.5000     3.9840  -999.2500  -999.2500  -999.2500  -999.2500  -999.2500  -999.2500  -999.2500  -999.2500  -999.2500   -36.2020  -999.2500  -999.2500  -999.2500
