~VERSION INFORMATION
 VERS.                2.0:   CWLS LOG ASCII STANDARD - VERSION 2.0
 WRAP.                 NO:   ONE LINE PER DEPTH STEP
~WELL INFORMATION
#MNEM.UNIT      DATA TYPE    INFORMATION
#----------   ------------   ------------------------------
 STRT.F           71.0000:   START DEPTH
 STOP.F         3406.0000:   STOP DEPTH
 STEP.F            0.5000:   STEP LENGTH
 NULL.          -999.2500:   NO VALUE
 COMP. LAWRENCE ALLIOSON AND ASSOCIATES:   COMPANY
 WELL. LAWRENCE "X" #44-34:   WELL
 FLD .             NPR #3:   FIELD
 LOC .      S34 T39N R78W:   LOCATION
 CNTY.            NATRONA:   COUNTY
 STAT.            WYOMING:   STATE
 CTRY. UNITED STATES OF AMERICA:   COUNTRY
 SRVC.      DRESSER ATLAS:   SERVICE COMPANY
 DATE.        24-SEP-1984:   LOGDATE
 API .     49025109920000:   API NUMBER
~CURVE INFORMATION
#MNEM.UNIT       API CODE    CURVE DESCRIPTION
#----------   ------------   ------------------------------
 DEPT.F                  :   
 TENS.LBS    60 635 01 00:   TENSION FROM SONIC
 DT  .US/F   60 520 00 00:   DELTA TIME
 GRS .GAPI   60 310 01 00:   GAMMA RAY FROM SONIC LOG
 TEND.LBS    45 635 01 00:   TENSION FROM DENSITY LOG
 NPHI.DEC    42 890 03 00:   NEUTRON POROSITY SANDSTONE
 CALR.IN     07 280 01 00:   CALIPER FROM RESISTIVITY
 GRR .GAPI   07 310 01 00:   GAMMA RAY FROM RESISTIVITY
 RFOC.OHMM   07 220 04 00:   RESISTIVITY FOCUSED LOG RES.
 ILD .OHMM   07 120 46 00:   DEEP INDUCTION RESISTIVITY
 ILM .OHMM   07 120 44 00:   INDUCTION LOG MEDIUM RESISTIVITY
 TENR.LBS    07 635 01 00:   TENSION FROM RESISTIVITY
 SPR .MV     07 010 01 00:   SPONTANEOUS POTENTIAL
 CORR.G/C3   45 356 01 00:   DENSITY CORRECTION
 RHOB.G/C3   45 350 01 00:   BULK DENSITY
~PARAMETER INFORMATION
#MNEM.UNIT          VALUE    DESCRIPTION
#----------   ------------   ------------------------------
 EKB .F         5134.0000:   Kelly bushing
 EGL .F         5122.0000:   Ground level
 EDF .F            0.0000:   Drilling floor
 TD  .F         3404.0000:   Total depth
 DATE.        24-SEP-1984:   Date logged
 CLNT.            A2DTECH:   Client Code
 SL  . 2234' FEL & 2337' FNL:   Surface Location
 PD  .                 GL:   Permanent Datum
 EPD .F              5122:   Elevation Permanent Datum
 LMF .                 KB:   Log Measured From
 DMF .                 KB:   Drilling Measured From
 DAPD.F                12:   Feet Above Permanent Datum
 DD  .F              3404:   Depth driller
 DL  .F              3397:   Depth logger
 BLI .F              3395:   Bottom log interval
 TLI .F               780:   Top log interval
 CS1 .IN            8.625:   Casing size
 CBD1.      8.625" @ 726':   Casing driller 1
 CBL1.F               730:   Casing logger 1
 BS1 .IN            7.875:   Bit size
 BSD1.F              3404:   Depth drilled with bit1
 DFT .            GEL-KCL:   Type fluid in hole
 DFD .               9.14:   Density
 DFV .                 43:   Viscosity
 DFPH.                8.0:   pH
 DFL .               12.0:   Fluid loss
 MSS .           FLOWLINE:   Source of sample
 RMS .OHMM           0.42:   Rm
 MST .F                70:   Rm Meas. temp.
 RMF .OHMM           0.31:   Rmf
 MFST.F                60:   Rmf Meas. temp.
 RMC .OHMM           0.52:   Rmc
 MCST.F                60:   Rmc Meas. temp.
 MFSS.               CALC:   Source Rmf.
 MCSS.               CALC:   Source Rmc.
 RMB .OHMM           0.23:   Rm. at BHT
 BHT .F               125:   BHT.
 TCS .HRS               4:   Time Circ. stopped
 MRT .F               125:   Maximum recorded temp.
 LUN .               6274:   Logging unit number
 LUL .               GLTE:   Logging unit location
 ENGI.           M. HINDS:   Recorded By
 WITN.            JOHNSON:   Witnessed by
 ORIG.     2.5", 5" PRINT:   Origin of data
 UWI .     49025109920000:   Unique Well ID
 DICO. A2D TECHNOLOGIES, INC.:   Digitizing Company
~OTHER INFORMATION
~A   DEPT     TENS         DT         GRS      TEND       NPHI       CALR        GRR       RFOC        ILD        ILM       TENR        SPR       CORR       RHOB   
# ...
 3207.0000     0.6300    93.6140   142.8130   -63.3600     0.2940     7.5740   141.2740     2.8370     1.9540     2.3650   -41.6670   -28.3000    -0.0150     2.3920
 3207.5000    -0.3860    94.7650   144.5070   -63.3600     0.3000     7.5740   142.5970     2.7080     1.8710     2.2740   -41.6670   -28.2470     0.0100     2.3980
 3208.0000    -1.4030    95.9170   147.9340   -63.3600     0.3000     7.5740   149.0350     2.5790     1.7880     2.1800   -41.6670   -28.1900     0.0330     2.4020
 3208.5000    -2.4190    96.8970   156.7050   -63.3600     0.3070     7.5740   155.9040     2.5020     1.7220     2.1800   -41.6670   -28.1400     0.0490     2.4050
 3209.0000    -3.4350    97.4200   156.3310   -63.3600     0.3010     7.5740   156.8110     2.6270     1.7220     2.1800   -41.6670   -28.0980     0.0260     2.4060
 3209.5000    -4.4520    97.5770   153.9360   -63.3600     0.2820     7.5740   154.9720     2.7110     1.8370     2.2610   -41.6670   -28.2030    -0.0030     2.4060
 3210.0000    -5.4680    97.7190   157.9210   -63.3600     0.2570     7.5740   154.9470     2.6160     2.0020     2.4990   -41.6670   -28.3050     0.0070     2.4150
 3210.5000    -5.9760    97.7690   161.2480   -63.3600     0.2000     7.5730   161.7040     2.5210     2.1670     2.7520   -41.6670   -28.4250     0.0280     2.4390
 3211.0000    -5.9760    96.8040   150.8480   -63.3600     0.1870     7.5670   159.2620     2.5850     2.3450     3.0240   -41.6670   -28.3490     0.0490     2.4640
 3211.5000    -5.9760    95.6270   128.6610   -63.3600     0.1720     7.5610   134.0290     2.7610     2.5780     3.6760   -41.6670   -27.8600     0.0460     2.4980
 3212.0000    -5.9760    89.0540   102.3210   -63.3600     0.1730     7.5540   109.8550     4.0330     2.8300     4.3810   -41.6670   -27.4200     0.0400     2.5210
 3212.5000    -6.0970    83.0780    80.1480   -63.3600     0.1790     7.5480    88.5700     6.7260     3.5620     5.0870   -41.6670   -26.9290     0.0310     2.5230
 3213.0000    -6.4980    77.6990    80.0560   -63.0980     0.1850     7.5410    78.5900     9.7870     4.5400     5.7920   -41.6670   -27.0960     0.0300     2.5270
 3213.5000    -6.9000    76.1060    80.6270   -62.8790     0.1830     7.5350    80.7860     9.3450     5.8160     6.4850   -41.6670   -27.3010     0.0340     2.5270
 3214.0000    -7.3010    76.9020    78.5950   -62.6610     0.1700     7.5290    79.2420     8.3620     7.1790     7.3990   -41.6670   -27.5320     0.0420     2.5250
 3214.5000    -7.7030    77.7590    75.2340   -62.4420     0.1530     7.5220    75.5240     8.7380     8.3620     8.2980   -41.6670   -27.7500     0.0490     2.5210
 3215.0000    -8.1050    77.7490    73.5730   -62.2230     0.1520     7.5160    73.3930     9.4760     9.6990     9.1960   -41.6670   -27.9690     0.0560     2.5120
 3215.5000    -8.5060    76.7030    72.3660   -62.0050     0.1560     7.5090    70.8300    10.2140    10.6750    10.2120   -41.6670   -28.1910     0.0450     2.5040
 3216.0000    -8.9080    75.0450    64.0290   -61.7860     0.1640     7.5030    65.1570    12.9550    10.9820    10.2120   -41.6670   -28.4110     0.0310     2.4960
 3216.5000    -9.3100    72.5050    60.2870   -61.5670     0.1910     7.4960    59.3830    17.7770    10.6320    10.0280   -41.6670   -28.6310     0.0280     2.5060
 3217.0000    -9.7110    70.3980    65.6300   -61.3490     0.2210     7.4970    64.9750    21.5070     9.6550     9.5530   -41.6670   -28.8510     0.0250     2.5200
 3217.5000   -10.1130    69.6310    81.8330   -61.1300     0.2410     7.5100    81.7820    18.5070     8.6780     8.7650   -41.6670   -29.0710     0.0220     2.5280
 3218.0000   -10.5140    71.9390   102.2540   -60.9110     0.2590     7.5230    98.3890    12.9660     7.7020     7.9770   -41.6670   -29.2910     0.0180     2.5220
 3218.5000   -10.9160    75.3590   114.1800   -60.6930     0.2690     7.5340   112.4320     6.4850     6.7250     7.1890   -41.6670   -29.5110     0.0200     2.5260
 3219.0000   -11.3180    78.7780   114.4300   -60.4740     0.2660     7.5360   114.0250     6.1410     5.7490     6.4010   -41.6670   -29.7320     0.0350     2.5310
 3219.5000   -11.7190    81.3600   115.2250   -60.2550     0.2590     7.5780   115.0580     5.8340     4.7720     5.6130   -41.6670   -29.9510     0.0480     2.5350
 3220.0000   -12.1210    83.1030   119.5350   -60.0370     0.2510     7.6150   116.2460     5.6070     4.1930     4.6760   -41.6670   -30.1720     0.0600     2.5250
 3220.5000   -12.5220    84.8460   126.6770   -59.8180     0.2440     7.6500   123.0880     5.6070     4.0430     4.5090   -41.6670   -30.3930     0.0490     2.5120
 3221.0000   -12.9240    86.5890   133.7680   -59.5990     0.2430     7.6220   131.0040     5.3910     3.9710     4.5220   -41.6670   -30.6110     0.0360     2.4990
 3221.5000   -13.3260    88.1570   133.1210   -59.3810     0.2440     7.5950   134.1510     5.1210     3.8990     4.5670   -41.6670   -30.8330     0.0230     2.5000
 3222.0000   -13.7270    89.0540   127.4620   -59.1620     0.2470     7.5660   128.8930     5.2500     3.8290     4.6110   -41.6670   -30.8760     0.0120     2.5080
 3222.5000   -14.1290    88.5560   123.4940   -58.9430     0.2550     7.5360   124.2500     5.5630     3.7600     4.6550   -41.6670   -30.8860     0.0310     2.5150
 3223.0000   -14.5310    87.8220   123.1080   -58.7250     0.2580     7.5350   123.9840     5.7100     3.8470     4.7120   -41.6670   -30.8850     0.0390     2.5230
 3223.5000   -14.9320    87.0070   121.4870   -58.5060     0.2510     7.5440   122.3020     5.4680     3.9430     4.7810   -41.6670   -30.8050     0.0400     2.5250
 3224.0000   -15.3340    86.7980   119.6570   -58.2870     0.2420     7.5530   120.6920     5.1210     4.0400     4.8500   -41.6670   -30.3640     0.0420     2.5230
 3224.5000   -15.7350    86.8480   118.9330   -58.0690     0.2340     7.5620   120.0380     5.1630     4.1360     4.9190   -41.6670   -30.0510     0.0450     2.5220
 3225.0000   -14.8990    86.3980   118.1390   -57.8500     0.2260     7.5700   118.4220     5.3030     4.2320     4.9870   -41.6670   -29.8260     0.0460     2.5210
 3225.5000   -12.8240    85.4280   115.2690   -57.6310     0.2240     7.5740   115.8410     5.5370     4.3280     5.0560   -40.0730   -29.4390     0.0460     2.5170
 3226.0000   -10.7490    84.1520   111.1850   -57.4130     0.2250     7.5610   112.8120     5.9210     4.4240     5.1250   -38.4800   -29.0750     0.0400     2.5120
 3226.5000    -8.6740    82.8750   108.6820   -57.1940     0.2260     7.5460   109.8260     5.8650     4.5200     5.1940   -36.8870   -28.7160     0.0370     2.5060
 3227.0000    -6.5990    81.9390   107.7870   -56.9750     0.2280     7.5300   108.6480     5.7080     4.6170     5.2620   -35.2930   -28.3480     0.0330     2.5040
 3227.5000    -4.5240    81.7830   108.9650   -56.7570     0.2230     7.5150   109.2220     5.5060     4.7130     5.3310   -33.7000   -27.9830     0.0300     2.5100
 3228.0000    -2.4490    81.4660   110.1630   -56.5380     0.2170     7.5000   110.8840     5.5850     4.8090     5.4000   -32.1070   -27.6210     0.0270     2.5130
 3228.5000    -0.3740    81.1150   112.5040   -56.3190     0.2170     7.4970   112.7830     5.8160     4.8490     5.4690   -30.5130   -27.2570     0.0230     2.5080
 3229.0000     1.7020    80.7630   114.7820   -56.1010     0.2240     7.5050   114.7290     6.0300     4.8490     5.5060   -28.9200   -26.8870     0.0240     2.5050
 3229.5000     3.9840    80.7120   116.3430   -55.8820     0.2310     7.5120   116.6910     6.0300     4.8490     5.5540   -27.3270   -26.5370     0.0280     2.5000
 3230.0000     1.5830    80.9610   115.5990   -55.6630     0.2290     7.5190   116.5860     5.9220     4.8490     5.6070   -25.7340   -26.1200     0.0320     2.5020
 3230.5000    -1.0850    81.2100   114.0650   -55.4450     0.2240     7.5260   115.2120     5.8150     4.8490     5.6170   -24.1400   -25.9050     0.0350     2.5090
 3231.0000    -3.7530    81.4460   114.0740   -55.2260     0.2260     7.5330   114.1400     5.8150     4.8490     5.6280   -22.5470   -25.6490     0.0370     2.5100
