~VERSION INFORMATION
 VERS.                2.0:   CWLS LOG ASCII STANDARD - VERSION 2.0
 WRAP.                 NO:   ONE LINE PER DEPTH STEP
~WELL INFORMATION
#MNEM.UNIT      DATA TYPE    INFORMATION
#----------   ------------   ------------------------------
 STRT.F           71.0000:   START DEPTH
 STOP.F         3406.0000:   STOP DEPTH
 STEP.F            0.5000:   STEP LENGTH
 NULL.          -999.2500:   NO VALUE
 COMP. LAWRENCE ALLIOSON AND ASSOCIATES:   COMPANY
 WELL. LAWRENCE "X" #44-34:   WELL
 FLD .             NPR #3:   FIELD
 LOC .      S34 T39N R78W:   LOCATION
 CNTY.            NATRONA:   COUNTY
 STAT.            WYOMING:   STATE
 CTRY. UNITED STATES OF AMERICA:   COUNTRY
 SRVC.      DRESSER ATLAS:   SERVICE COMPANY
 DATE.        24-SEP-1984:   LOGDATE
 API .     49025109920000:   API NUMBER
~CURVE INFORMATION
#MNEM.UNIT       API CODE    CURVE DESCRIPTION
#----------   ------------   ------------------------------
 DEPT.F                  :   
 TENS.LBS    60 635 01 00:   TENSION FROM SONIC
 DT  .US/F   60 520 00 00:   DELTA TIME
 GRS .GAPI   60 310 01 00:   GAMMA RAY FROM SONIC LOG
 TEND.LBS    45 635 01 00:   TENSION FROM DENSITY LOG
 NPHI.DEC    42 890 03 00:   NEUTRON POROSITY SANDSTONE
 CALR.IN     07 280 01 00:   CALIPER FROM RESISTIVITY
 GRR .GAPI   07 310 01 00:   GAMMA RAY FROM RESISTIVITY
 RFOC.OHMM   07 220 04 00:   RESISTIVITY FOCUSED LOG RES.
 ILD .OHMM   07 120 46 00:   DEEP INDUCTION RESISTIVITY
 ILM .OHMM   07 120 44 00:   INDUCTION LOG MEDIUM RESISTIVITY
 TENR.LBS    07 635 01 00:   TENSION FROM RESISTIVITY
 SPR .MV     07 010 01 00:   SPONTANEOUS POTENTIAL
 CORR.G/C3   45 356 01 00:   DENSITY CORRECTION
 RHOB.G/C3   45 350 01 00:   BULK DENSITY
~PARAMETER INFORMATION
#MNEM.UNIT          VALUE    DESCRIPTION
#----------   ------------   ------------------------------
 EKB .F         5134.0000:   Kelly bushing
 EGL .F         5122.0000:   Ground level
 EDF .F            0.0000:   Drilling floor
 TD  .F         3404.0000:   Total depth
 DATE.        24-SEP-1984:   Date logged
 CLNT.            A2DTECH:   Client Code
 SL  . 2234' FEL & 2337' FNL:   Surface Location
 PD  .                 GL:   Permanent Datum
 EPD .F              5122:   Elevation Permanent Datum
 LMF .                 KB:   Log Measured From
 DMF .                 KB:   Drilling Measured From
 DAPD.F                12:   Feet Above Permanent Datum
 DD  .F              3404:   Depth driller
 DL  .F              3397:   Depth logger
 BLI .F              3395:   Bottom log interval
 TLI .F               780:   Top log interval
 CS1 .IN            8.625:   Casing size
 CBD1.      8.625" @ 726':   Casing driller 1
 CBL1.F               730:   Casing logger 1
 BS1 .IN            7.875:   Bit size
 BSD1.F              3404:   Depth drilled with bit1
 DFT .            GEL-KCL:   Type fluid in hole
 DFD .               9.14:   Density
 DFV .                 43:   Viscosity
 DFPH.                8.0:   pH
 DFL .               12.0:   Fluid loss
 MSS .           FLOWLINE:   Source of sample
 RMS .OHMM           0.42:   Rm
 MST .F                70:   Rm Meas. temp.
 RMF .OHMM           0.31:   Rmf
 MFST.F                60:   Rmf Meas. temp.
 RMC .OHMM           0.52:   Rmc
 MCST.F                60:   Rmc Meas. temp.
 MFSS.               CALC:   Source Rmf.
 MCSS.               CALC:   Source Rmc.
 RMB .OHMM           0.23:   Rm. at BHT
 BHT .F               125:   BHT.
 TCS .HRS               4:   Time Circ. stopped
 MRT .F               125:   Maximum recorded temp.
 LUN .               6274:   Logging unit number
 LUL .               GLTE:   Logging unit location
 ENGI.           M. HINDS:   Recorded By
 WITN.            JOHNSON:   Witnessed by
 ORIG.     2.5", 5" PRINT:   Origin of data
 UWI .     49025109920000:   Unique Well ID
 DICO. A2D TECHNOLOGIES, INC.:   Digitizing Company
~OTHER INFORMATION
~A   DEPT     TENS         DT         GRS      TEND       NPHI       CALR        GRR       RFOC        ILD        ILM       TENR        SPR       CORR       RHOB   
# ...
 2325.0000   -11.4110    89.2530   115.6280   -52.5730     0.2910     7.6320   115.6140    10.6160     7.4010     8.5930   -41.6670   -25.3860     0.0690     2.4300
 2325.5000   -11.1040    88.8950   118.0880   -52.3670     0.2900     7.6340   117.0980    12.8490     8.0640     9.2010   -41.6670   -25.3050     0.0550     2.4360
 2326.0000   -10.7980    89.0630   120.5130   -52.1620     0.2870     7.6360   118.5620    13.4110     8.7270     9.8100   -41.6670   -25.2990     0.0410     2.4430
 2326.5000   -10.4920    89.2530   129.5420   -51.9570     0.2840     7.6380   124.1940    11.8670     9.6700    10.2120   -41.6670   -25.2960     0.0310     2.4500
 2327.0000   -10.1860    89.0970   141.6590   -51.7510     0.2720     7.6400   138.0140     9.6700     9.5790    10.2120   -41.6670   -25.3030     0.0340     2.4520
 2327.5000    -9.8800    88.8090   144.0940   -51.5460     0.2600     7.6410   145.4970     9.9350     9.1150    10.2120   -41.6670   -25.2370     0.0360     2.4470
 2328.0000    -9.5740    88.5210   145.1160   -51.3410     0.2580     7.6430   145.2900    10.5900     8.6510    10.2120   -41.6670   -25.0770     0.0380     2.4400
 2328.5000    -9.2680    88.3910   146.2740   -51.1350     0.2600     7.6450   146.0860     9.2410     8.1870     9.6040   -41.6670   -24.9380     0.0330     2.4340
 2329.0000    -8.9620    88.5540   142.9180   -50.9300     0.2620     7.6470   142.3170     7.2310     7.7230     8.9390   -41.6670   -24.9170     0.0270     2.4350
 2329.5000    -8.6560    88.8900   136.5610   -50.7240     0.2640     7.6490   136.6100     7.9100     7.2590     8.2750   -41.6670   -25.3040     0.0390     2.4410
 2330.0000    -8.3500    89.6010   134.0370   -50.5190     0.2660     7.6510   135.7730     8.9790     6.8480     7.6110   -41.6670   -25.6860     0.0720     2.4630
 2330.5000    -8.0440    90.3990   140.3370   -50.3140     0.2750     7.6520   141.0730     9.6700     5.7210     6.9470   -41.6670   -26.0840     0.1040     2.4970
 2331.0000    -7.7380    91.2000   143.5670   -50.1080     0.2860     7.6550   144.0550     8.6760     5.0810     6.2830   -41.6670   -26.4840     0.1000     2.5330
 2331.5000    -7.4320    91.7850   141.4990   -49.9030     0.2780     7.6590   141.1990     7.0010     4.6940     5.6190   -41.6670   -26.8610     0.0930     2.5400
 2332.0000    -7.1260    92.1000   136.7590   -49.6970     0.2810     7.6620   136.4230     5.7810     4.3070     4.9550   -41.6670   -27.2700     0.0840     2.5320
 2332.5000    -6.8200    92.6890   131.3180   -49.4920     0.2860     7.6660   131.3200     4.9380     3.9200     4.2910   -41.6670   -27.2940     0.0780     2.5200
 2333.0000    -6.5140    93.3190   128.6280   -49.2870     0.2830     7.6690   127.9260     4.4810     3.6260     3.8990   -41.6670   -27.4030     0.0810     2.5220
 2333.5000    -6.2080    93.9490   125.0440   -49.0810     0.2780     7.6720   124.1800     3.8990     3.4890     3.9170   -41.6670   -27.4790     0.0850     2.5270
 2334.0000    -5.9020    93.8240   121.4760   -48.8760     0.2740     7.6760   120.5580     4.2140     3.3110     3.9440   -41.6670   -27.5690     0.0770     2.5230
 2334.5000    -5.5960    93.3880   117.8500   -48.6710     0.2740     7.6790   116.8900     4.8330     3.3450     3.9710   -41.6670   -27.6600     0.0650     2.5160
 2335.0000    -5.2900    92.9510   118.4230   -48.4650     0.2720     7.6820   117.4410     5.2380     3.4360     3.9980   -41.6670   -27.6920     0.0550     2.5150
 2335.5000    -4.9840    93.3070   120.4180   -48.2600     0.2690     7.6860   120.5790     4.9220     3.5270     4.0250   -41.6670   -27.6890     0.0500     2.5170
 2336.0000    -4.6770    93.9370   120.1760   -48.0540     0.2660     7.6890   119.0030     4.6050     3.6180     4.1050   -41.6670   -27.6950     0.0450     2.5190
 2336.5000    -4.3710    94.3330   113.8310   -47.8490     0.2630     7.6930   115.1250     4.3480     3.7090     4.2940   -41.6670   -27.6340     0.0420     2.5210
 2337.0000    -4.0650    93.6550   109.5220   -47.6440     0.2630     7.6900   111.3530     4.6770     3.8000     4.4830   -41.6670   -27.5170     0.0350     2.5240
 2337.5000    -3.7590    92.9120   109.6020   -47.4380     0.2630     7.6870   108.8470     4.9540     3.8990     4.6720   -41.6670   -27.4060     0.0370     2.5290
 2338.0000    -3.4530    92.1690   111.3960   -47.2330     0.2710     7.6830   110.8840     5.2310     3.9720     4.7930   -41.6670   -27.2960     0.0410     2.5340
 2338.5000    -3.1470    91.4440   113.8510   -47.0280     0.2790     7.6790   113.1690     5.5060     4.0520     4.8520   -41.6670   -27.1870     0.0450     2.5440
 2339.0000    -2.8410    91.3300   115.9850   -46.8220     0.2790     7.6760   115.6110     5.3790     4.1320     4.9110   -41.6670   -27.0760     0.0490     2.5540
 2339.5000    -2.5350    91.2180   115.8960   -46.6170     0.2690     7.6720   116.7280     5.2520     4.2120     4.9700   -41.6670   -26.9570     0.0530     2.5590
 2340.0000    -2.2290    91.1060   114.9980   -46.4110     0.2600     7.6690   114.9100     5.1210     4.2930     5.0290   -41.6670   -26.8910     0.0570     2.5560
 2340.5000    -1.9230    90.8440   111.2810   -46.2060     0.2550     7.6650   113.4820     5.2270     4.3730     5.0880   -41.6670   -26.8890     0.0610     2.5500
 2341.0000    -1.6170    90.4120   113.5990   -46.0010     0.2580     7.6610   112.0400     5.4100     4.4530     5.1210   -41.6670   -26.8760     0.0660     2.5440
 2341.5000    -1.3110    89.9800   115.8660   -45.7950     0.2600     7.6580   114.4320     5.6070     4.5920     5.1210   -41.6670   -26.5830     0.0700     2.5400
 2342.0000    -1.0050    89.8510   117.1900   -45.5900     0.2660     7.6540   116.5890     5.4600     4.5920     5.0380   -41.6670   -26.3020     0.0690     2.5310
 2342.5000    -0.6990    90.0140   115.5680   -45.3840     0.2760     7.6740   115.6720     5.3000     4.5160     4.9490   -41.6670   -26.0220     0.0700     2.5230
 2343.0000    -0.3930    90.2430   114.4120   -45.1790     0.2890     7.7000   114.7210     5.1210     4.4510     4.8600   -41.6670   -25.7170     0.0660     2.5170
 2343.5000    -0.0870    90.8900   115.3250   -44.9740     0.2910     7.7260   114.9880     5.1930     4.3860     4.7700   -41.6670   -25.7000     0.0610     2.5150
 2344.0000     0.2190    91.8980   116.9190   -44.7680     0.2940     7.7310   116.6750     5.0130     4.3210     4.6810   -41.6670   -25.8580     0.0530     2.5120
 2344.5000     0.5250    92.7040   116.1510   -44.5630     0.2980     7.7280   116.2400     4.7400     4.1930     4.5920   -41.6670   -26.1000     0.0460     2.5130
 2345.0000     0.8310    93.3370   114.8390   -44.3580     0.3010     7.7250   115.3630     4.5920     4.1930     4.5090   -41.6670   -26.3360     0.0390     2.5160
 2345.5000     1.1370    93.1890   113.9160   -44.1520     0.2890     7.7220   114.1510     4.5410     4.0430     4.3600   -41.6670   -26.5610     0.0390     2.5220
 2346.0000     1.4430    93.0380   117.9050   -43.9470     0.2770     7.7190   116.8250     4.5090     3.9330     4.2210   -41.6670   -26.8060     0.0430     2.5270
 2346.5000     1.7500    93.0380   122.6010   -43.7130     0.2960     7.7150   122.0380     4.4720     3.7350     4.0300   -41.6670   -27.0390     0.0470     2.5260
 2347.0000     2.0560    93.4220   124.9990   -45.3780     0.2980     7.7120   126.1090     4.3820     3.5370     3.8250   -41.6670   -27.2350     0.0510     2.5230
 2347.5000     2.3620    93.8000   126.0540   -47.3070     0.2990     7.7090   127.7530     4.2920     3.3380     3.6200   -41.6670   -27.6360     0.0540     2.5060
 2348.0000     2.6680    94.8070   124.8900   -49.2360     0.3090     7.7060   126.3970     4.1280     3.1400     3.4150   -41.6670   -27.9300     0.0540     2.4810
 2348.5000     2.9740    96.1610   123.5750   -51.1660     0.2980     7.7030   124.1310     3.7480     2.9410     3.2100   -41.6670   -28.0810     0.0520     2.4680
 2349.0000     3.2800    97.5160   124.1970   -53.0950     0.2880     7.7000   123.8880     3.3680     2.7610     3.0240   -41.6670   -27.7340     0.0510     2.4790
