~VERSION INFORMATION
 VERS.                2.0:   CWLS LOG ASCII STANDARD - VERSION 2.0
 WRAP.                 NO:   ONE LINE PER DEPTH STEP
~WELL INFORMATION
#MNEM.UNIT      DATA TYPE    INFORMATION
#----------   ------------   ------------------------------
 STRT.F           71.0000:   START DEPTH
 STOP.F         3406.0000:   STOP DEPTH
 STEP.F            0.5000:   STEP LENGTH
 NULL.          -999.2500:   NO VALUE
 COMP. LAWRENCE ALLIOSON AND ASSOCIATES:   COMPANY
 WELL. LAWRENCE "X" #44-34:   WELL
 FLD .             NPR #3:   FIELD
 LOC .      S34 T39N R78W:   LOCATION
 CNTY.            NATRONA:   COUNTY
 STAT.            WYOMING:   STATE
 CTRY. UNITED STATES OF AMERICA:   COUNTRY
 SRVC.      DRESSER ATLAS:   SERVICE COMPANY
 DATE.        24-SEP-1984:   LOGDATE
 API .     49025109920000:   API NUMBER
~CURVE INFORMATION
#MNEM.UNIT       API CODE    CURVE DESCRIPTION
#----------   ------------   ------------------------------
 DEPT.F                  :   
 TENS.LBS    60 635 01 00:   TENSION FROM SONIC
 DT  .US/F   60 520 00 00:   DELTA TIME
 GRS .GAPI   60 310 01 00:   GAMMA RAY FROM SONIC LOG
 TEND.LBS    45 635 01 00:   TENSION FROM DENSITY LOG
 NPHI.DEC    42 890 03 00:   NEUTRON POROSITY SANDSTONE
 CALR.IN     07 280 01 00:   CALIPER FROM RESISTIVITY
 GRR .GAPI   07 310 01 00:   GAMMA RAY FROM RESISTIVITY
 RFOC.OHMM   07 220 04 00:   RESISTIVITY FOCUSED LOG RES.
 ILD .OHMM   07 120 46 00:   DEEP INDUCTION RESISTIVITY
 ILM .OHMM   07 120 44 00:   INDUCTION LOG MEDIUM RESISTIVITY
 TENR.LBS    07 635 01 00:   TENSION FROM RESISTIVITY
 SPR .MV     07 010 01 00:   SPONTANEOUS POTENTIAL
 CORR.G/C3   45 356 01 00:   DENSITY CORRECTION
 RHOB.G/C3   45 350 01 00:   BULK DENSITY
~PARAMETER INFORMATION
#MNEM.UNIT          VALUE    DESCRIPTION
#----------   ------------   ------------------------------
 EKB .F         5134.0000:   Kelly bushing
 EGL .F         5122.0000:   Ground level
 EDF .F            0.0000:   Drilling floor
 TD  .F         3404.0000:   Total depth
 DATE.        24-SEP-1984:   Date logged
 CLNT.            A2DTECH:   Client Code
 SL  . 2234' FEL & 2337' FNL:   Surface Location
 PD  .                 GL:   Permanent Datum
 EPD .F              5122:   Elevation Permanent Datum
 LMF .                 KB:   Log Measured From
 DMF .                 KB:   Drilling Measured From
 DAPD.F                12:   Feet Above Permanent Datum
 DD  .F              3404:   Depth driller
 DL  .F              3397:   Depth logger
 BLI .F              3395:   Bottom log interval
 TLI .F               780:   Top log interval
 CS1 .IN            8.625:   Casing size
 CBD1.      8.625" @ 726':   Casing driller 1
 CBL1.F               730:   Casing logger 1
 BS1 .IN            7.875:   Bit size
 BSD1.F              3404:   Depth drilled with bit1
 DFT .            GEL-KCL:   Type fluid in hole
 DFD .               9.14:   Density
 DFV .                 43:   Viscosity
 DFPH.                8.0:   pH
 DFL .               12.0:   Fluid loss
 MSS .           FLOWLINE:   Source of sample
 RMS .OHMM           0.42:   Rm
 MST .F                70:   Rm Meas. temp.
 RMF .OHMM           0.31:   Rmf
 MFST.F                60:   Rmf Meas. temp.
 RMC .OHMM           0.52:   Rmc
 MCST.F                60:   Rmc Meas. temp.
 MFSS.               CALC:   Source Rmf.
 MCSS.               CALC:   Source Rmc.
 RMB .OHMM           0.23:   Rm. at BHT
 BHT .F               125:   BHT.
 TCS .HRS               4:   Time Circ. stopped
 MRT .F               125:   Maximum recorded temp.
 LUN .               6274:   Logging unit number
 LUL .               GLTE:   Logging unit location
 ENGI.           M. HINDS:   Recorded By
 WITN.            JOHNSON:   Witnessed by
 ORIG.     2.5", 5" PRINT:   Origin of data
 UWI .     49025109920000:   Unique Well ID
 DICO. A2D TECHNOLOGIES, INC.:   Digitizing Company
~OTHER INFORMATION
~A   DEPT     TENS         DT         GRS      TEND       NPHI       CALR        GRR       RFOC        ILD        ILM       TENR        SPR       CORR       RHOB   
# ...
 1614.5000  -999.2500  -999.2500  -999.2500  -999.2500  -999.2500     7.6800    90.5670     5.9210     6.1410     6.6640   -61.5080   -21.4240  -999.2500  -999.2500
 1615.0000  -999.2500  -999.2500  -999.2500  -999.2500  -999.2500     7.6810    91.9900     5.9210     6.1450     6.3680   -61.5080   -21.6060  -999.2500  -999.2500
 1615.5000  -999.2500  -999.2500  -999.2500  -999.2500  -999.2500     7.6810    94.6220     5.9210     6.1540     6.3710   -61.5080   -21.7920  -999.2500  -999.2500
 1616.0000  -999.2500  -999.2500  -999.2500  -999.2500  -999.2500     7.6820    97.4050     5.9210     6.1620     6.3800   -61.5080   -21.9800  -999.2500  -999.2500
 1616.5000  -999.2500  -999.2500  -999.2500  -999.2500  -999.2500     7.6830    98.7420     5.9210     6.1700     6.3890   -61.5080   -22.0350  -999.2500  -999.2500
 1617.0000  -999.2500  -999.2500  -999.2500  -999.2500  -999.2500     7.6840    99.6990     6.0300     6.1790     6.3980   -61.5080   -21.7060  -999.2500  -999.2500
 1617.5000  -999.2500  -999.2500  -999.2500  -999.2500  -999.2500     7.6850    99.9300     6.0150     6.1870     6.4070   -61.5080   -21.3950  -999.2500  -999.2500
 1618.0000  -999.2500  -999.2500  -999.2500  -999.2500  -999.2500     7.6860    98.4710     5.9440     6.1960     6.4160   -61.5080   -21.0670  -999.2500  -999.2500
 1618.5000  -999.2500  -999.2500  -999.2500  -999.2500  -999.2500     7.6870    96.9910     5.9210     6.2040     6.4260   -61.5080   -20.7170  -999.2500  -999.2500
 1619.0000  -999.2500  -999.2500  -999.2500  -999.2500  -999.2500     7.6880    95.1820     5.9210     6.2130     6.4350   -61.5080   -20.5010  -999.2500  -999.2500
 1619.5000  -999.2500  -999.2500  -999.2500  -999.2500  -999.2500     7.6880    96.6530     5.9210     6.2210     6.4440   -61.5080   -20.5200  -999.2500  -999.2500
 1620.0000  -999.2500  -999.2500  -999.2500  -999.2500  -999.2500     7.6890    99.6590     5.9750     6.2290     6.4530   -61.5080   -20.5170  -999.2500  -999.2500
 1620.5000  -999.2500  -999.2500  -999.2500  -999.2500  -999.2500     7.6900   101.5890     6.0280     6.2370     6.4620   -61.5080   -20.5300  -999.2500  -999.2500
 1621.0000  -999.2500  -999.2500  -999.2500  -999.2500  -999.2500     7.6900   101.3720     6.0800     6.2460     6.4710   -61.5080   -20.3310  -999.2500  -999.2500
 1621.5000  -999.2500  -999.2500  -999.2500  -999.2500  -999.2500     7.6910    98.6360     6.1410     6.2620     6.4800   -61.5080   -19.9170  -999.2500  -999.2500
 1622.0000  -999.2500  -999.2500  -999.2500  -999.2500  -999.2500     7.6940    95.8980     6.0600     6.2990     6.5480   -61.5080   -19.5060  -999.2500  -999.2500
 1622.5000  -999.2500  -999.2500  -999.2500  -999.2500  -999.2500     7.7390    92.7980     5.9210     6.3370     6.6840   -61.5080   -19.2830  -999.2500  -999.2500
 1623.0000  -999.2500  -999.2500  -999.2500  -999.2500  -999.2500     7.7860    91.5490     6.0840     6.3680     6.8210   -61.5080   -19.2410  -999.2500  -999.2500
 1623.5000  -999.2500  -999.2500  -999.2500  -999.2500  -999.2500     7.8460    93.2000     6.4780     6.6280     6.6280   -61.5080   -19.1850  -999.2500  -999.2500
 1624.0000  -999.2500  -999.2500  -999.2500  -999.2500  -999.2500     7.9060    94.5050     6.8990     6.9520     6.3530   -61.5080   -19.1270  -999.2500  -999.2500
 1624.5000  -999.2500  -999.2500  -999.2500  -999.2500  -999.2500     8.1960    95.9370     7.1010     7.2310     6.0790   -61.5080   -19.0740  -999.2500  -999.2500
 1625.0000  -999.2500  -999.2500  -999.2500  -999.2500  -999.2500     8.4650    96.0470     6.5800     6.8360     5.8050   -61.5080   -19.0180  -999.2500  -999.2500
 1625.5000  -999.2500  -999.2500  -999.2500  -999.2500  -999.2500     8.7480    97.4280     6.1220     6.4890     5.5300   -61.5080   -18.9630  -999.2500  -999.2500
 1626.0000  -999.2500  -999.2500  -999.2500  -999.2500  -999.2500     9.0470    99.2310     5.7100     6.1420     5.2560   -61.5080   -18.9080  -999.2500  -999.2500
 1626.5000  -999.2500  -999.2500  -999.2500  -999.2500  -999.2500     9.4990   100.2060     5.5240     5.7950     4.9820   -61.5080   -18.8530  -999.2500  -999.2500
 1627.0000  -999.2500  -999.2500  -999.2500  -999.2500  -999.2500     9.9920    98.5080     5.3550     5.4480     4.6760   -61.5080   -18.7970  -999.2500  -999.2500
 1627.5000  -999.2500  -999.2500  -999.2500  -999.2500  -999.2500    10.4800    94.3540     5.1860     5.1210     5.0530   -61.5080   -18.7420  -999.2500  -999.2500
 1628.0000  -999.2500  -999.2500  -999.2500  -999.2500  -999.2500    10.9980    90.5150     5.0160     4.8490     5.5130   -61.5080   -18.6870  -999.2500  -999.2500
 1628.5000  -999.2500  -999.2500  -999.2500  -999.2500  -999.2500    11.3430    86.6140     4.8490     4.9770     5.9740   -61.5080   -18.6310  -999.2500  -999.2500
 1629.0000  -999.2500  -999.2500  -999.2500  -999.2500  -999.2500    10.9520    86.0220     5.1380     5.2160     6.4350   -61.5080   -18.5770  -999.2500  -999.2500
 1629.5000  -999.2500  -999.2500  -999.2500  -999.2500  -999.2500    10.3140    85.5060     5.3890     5.4550     6.6450   -61.5080   -18.5310  -999.2500  -999.2500
 1630.0000  -999.2500  -999.2500  -999.2500  -999.2500  -999.2500     9.5710    84.9080     5.6390     5.6940     6.8110   -61.5080   -18.4890  -999.2500  -999.2500
 1630.5000  -999.2500  -999.2500  -999.2500  -999.2500  -999.2500     8.5980    86.1880     5.8890     5.9330     6.9760   -61.5080   -18.3700  -999.2500  -999.2500
 1631.0000  -999.2500  -999.2500  -999.2500  -999.2500  -999.2500     8.3410    88.7050     6.1400     6.1720     7.2310   -61.5080   -18.2520  -999.2500  -999.2500
 1631.5000  -999.2500  -999.2500  -999.2500  -999.2500  -999.2500     8.0580    91.6670     6.3900     6.4110     7.1710   -61.5080   -18.1250  -999.2500  -999.2500
 1632.0000  -999.2500  -999.2500  -999.2500  -999.2500  -999.2500     7.9870    93.1120     6.6400     6.6500     7.0370   -61.5080   -17.8590  -999.2500  -999.2500
 1632.5000  -999.2500  -999.2500  -999.2500  -999.2500  -999.2500     8.0380    93.5220     6.8480     6.8480     6.9040   -61.5080   -17.5720  -999.2500  -999.2500
 1633.0000  -999.2500  -999.2500  -999.2500  -999.2500  -999.2500     8.0800    93.1730     6.4100     6.7090     6.7700   -61.5080   -17.2870  -999.2500  -999.2500
 1633.5000  -999.2500  -999.2500  -999.2500  -999.2500  -999.2500     8.1230    92.3590     6.0360     6.5330     6.6360   -61.5080   -16.9960  -999.2500  -999.2500
 1634.0000  -999.2500  -999.2500  -999.2500  -999.2500  -999.2500     8.1690    91.4460     5.7100     6.3570     6.5030   -61.5080   -16.9270  -999.2500  -999.2500
 1634.5000  -999.2500  -999.2500  -999.2500  -999.2500  -999.2500     8.2120    91.9330     5.4570     6.1810     6.2530   -61.5080   -16.9280  -999.2500  -999.2500
 1635.0000  -999.2500  -999.2500  -999.2500  -999.2500  -999.2500     8.2480    94.4820     5.2330     6.0050     6.2770   -61.5080   -16.9120  -999.2500  -999.2500
 1635.5000  -999.2500  -999.2500  -999.2500  -999.2500  -999.2500     8.2260    95.9370     5.0280     5.7100     6.3150   -61.5080   -17.1600  -999.2500  -999.2500
 1636.0000  -999.2500  -999.2500  -999.2500  -999.2500  -999.2500     8.2060    93.3550     5.2610     5.7250     6.3530   -61.5080   -17.8520  -999.2500  -999.2500
 1636.5000  -999.2500  -999.2500  -999.2500  -999.2500  -999.2500     8.1830    89.7980     5.4740     5.7690     6.3920   -61.5080   -18.5220  -999.2500  -999.2500
 1637.0000  -999.2500  -999.2500  -999.2500  -999.2500  -999.2500     8.1610    89.1530     5.6880     5.8130     6.4300   -61.5080   -19.2070  -999.2500  -999.2500
 1637.5000  -999.2500  -999.2500  -999.2500  -999.2500  -999.2500     8.1390    89.9220     5.9210     5.8570     6.4680   -61.5080   -19.8750  -999.2500  -999.2500
 1638.0000  -999.2500  -999.2500  -999.2500  -999.2500  -999.2500     8.1170    90.5660     5.9930     5.9020     6.5070   -61.5080   -20.4930  -999.2500  -999.2500
 1638.5000  -999.2500  -999.2500  -999.2500  -999.2500  -999.2500     8.0950    93.5730     6.0730     5.9460     6.5450   -61.5080   -20.5110  -999.2500  -999.2500
