~VERSION INFORMATION
 VERS.                2.0:   CWLS LOG ASCII STANDARD - VERSION 2.0
 WRAP.                 NO:   ONE LINE PER DEPTH STEP
~WELL INFORMATION
#MNEM.UNIT      DATA TYPE    INFORMATION
#----------   ------------   ------------------------------
 STRT.F           71.0000:   START DEPTH
 STOP.F         3406.0000:   STOP DEPTH
 STEP.F            0.5000:   STEP LENGTH
 NULL.          -999.2500:   NO VALUE
 COMP. LAWRENCE ALLIOSON AND ASSOCIATES:   COMPANY
 WELL. LAWRENCE "X" #44-34:   WELL
 FLD .             NPR #3:   FIELD
 LOC .      S34 T39N R78W:   LOCATION
 CNTY.            NATRONA:   COUNTY
 STAT.            WYOMING:   STATE
 CTRY. UNITED STATES OF AMERICA:   COUNTRY
 SRVC.      DRESSER ATLAS:   SERVICE COMPANY
 DATE.        24-SEP-1984:   LOGDATE
 API .     49025109920000:   API NUMBER
~CURVE INFORMATION
#MNEM.UNIT       API CODE    CURVE DESCRIPTION
#----------   ------------   ------------------------------
 DEPT.F                  :   
 TENS.LBS    60 635 01 00:   TENSION FROM SONIC
 DT  .US/F   60 520 00 00:   DELTA TIME
 GRS .GAPI   60 310 01 00:   GAMMA RAY FROM SONIC LOG
 TEND.LBS    45 635 01 00:   TENSION FROM DENSITY LOG
 NPHI.DEC    42 890 03 00:   NEUTRON POROSITY SANDSTONE
 CALR.IN     07 280 01 00:   CALIPER FROM RESISTIVITY
 GRR .GAPI   07 310 01 00:   GAMMA RAY FROM RESISTIVITY
 RFOC.OHMM   07 220 04 00:   RESISTIVITY FOCUSED LOG RES.
 ILD .OHMM   07 120 46 00:   DEEP INDUCTION RESISTIVITY
 ILM .OHMM   07 120 44 00:   INDUCTION LOG MEDIUM RESISTIVITY
 TENR.LBS    07 635 01 00:   TENSION FROM RESISTIVITY
 SPR .MV     07 010 01 00:   SPONTANEOUS POTENTIAL
 CORR.G/C3   45 356 01 00:   DENSITY CORRECTION
 RHOB.G/C3   45 350 01 00:   BULK DENSITY
~PARAMETER INFORMATION
#MNEM.UNIT          VALUE    DESCRIPTION
#----------   ------------   ------------------------------
 EKB .F         5134.0000:   Kelly bushing
 EGL .F         5122.0000:   Ground level
 EDF .F            0.0000:   Drilling floor
 TD  .F         3404.0000:   Total depth
 DATE.        24-SEP-1984:   Date logged
 CLNT.            A2DTECH:   Client Code
 SL  . 2234' FEL & 2337' FNL:   Surface Location
 PD  .                 GL:   Permanent Datum
 EPD .F              5122:   Elevation Permanent Datum
 LMF .                 KB:   Log Measured From
 DMF .                 KB:   Drilling Measured From
 DAPD.F                12:   Feet Above Permanent Datum
 DD  .F              3404:   Depth driller
 DL  .F              3397:   Depth logger
 BLI .F              3395:   Bottom log interval
 TLI .F               780:   Top log interval
 CS1 .IN            8.625:   Casing size
 CBD1.      8.625" @ 726':   Casing driller 1
 CBL1.F               730:   Casing logger 1
 BS1 .IN            7.875:   Bit size
 BSD1.F              3404:   Depth drilled with bit1
 DFT .            GEL-KCL:   Type fluid in hole
 DFD .               9.14:   Density
 DFV .                 43:   Viscosity
 DFPH.                8.0:   pH
 DFL .               12.0:   Fluid loss
 MSS .           FLOWLINE:   Source of sample
 RMS .OHMM           0.42:   Rm
 MST .F                70:   Rm Meas. temp.
 RMF .OHMM           0.31:   Rmf
 MFST.F                60:   Rmf Meas. temp.
 RMC .OHMM           0.52:   Rmc
 MCST.F                60:   Rmc Meas. temp.
 MFSS.               CALC:   Source Rmf.
 MCSS.               CALC:   Source Rmc.
 RMB .OHMM           0.23:   Rm. at BHT
 BHT .F               125:   BHT.
 TCS .HRS               4:   Time Circ. stopped
 MRT .F               125:   Maximum recorded temp.
 LUN .               6274:   Logging unit number
 LUL .               GLTE:   Logging unit location
 ENGI.           M. HINDS:   Recorded By
 WITN.            JOHNSON:   Witnessed by
 ORIG.     2.5", 5" PRINT:   Origin of data
 UWI .     49025109920000:   Unique Well ID
 DICO. A2D TECHNOLOGIES, INC.:   Digitizing Company
~OTHER INFORMATION
~A   DEPT     TENS         DT         GRS      TEND       NPHI       CALR        GRR       RFOC        ILD        ILM       TENR        SPR       CORR       RHOB   
# ...
 1786.0000  -999.2500  -999.2500  -999.2500  -999.2500  -999.2500     7.7920   105.3350     6.9580     7.3660     7.8380   -61.5080   -23.2110  -999.2500  -999.2500
 1786.5000  -999.2500  -999.2500  -999.2500  -999.2500  -999.2500     7.7770   101.5040     6.9730     7.3840     7.8300   -61.5080   -23.3070  -999.2500  -999.2500
 1787.0000  -999.2500  -999.2500  -999.2500  -999.2500  -999.2500     7.7760    96.3180     7.0180     7.4030     7.8230   -61.5080   -23.3950  -999.2500  -999.2500
 1787.5000  -999.2500  -999.2500  -999.2500  -999.2500  -999.2500     7.7890    95.9630     7.1020     7.4210     7.8150   -61.5080   -23.7410  -999.2500  -999.2500
 1788.0000  -999.2500  -999.2500  -999.2500  -999.2500  -999.2500     7.8000    99.8160     7.1870     7.4400     7.8070   -61.5080   -23.6800  -999.2500  -999.2500
 1788.5000  -999.2500  -999.2500  -999.2500  -999.2500  -999.2500     7.8120   103.3800     7.2310     7.4580     7.7990   -61.5080   -23.6600  -999.2500  -999.2500
 1789.0000  -999.2500  -999.2500  -999.2500  -999.2500  -999.2500     7.8130   104.2070     7.2310     7.4760     7.7910   -61.5080   -23.6300  -999.2500  -999.2500
 1789.5000  -999.2500  -999.2500  -999.2500  -999.2500  -999.2500     7.8130   100.2260     7.3640     7.4950     7.7840   -61.5080   -23.5910  -999.2500  -999.2500
 1790.0000  -999.2500  -999.2500  -999.2500  -999.2500  -999.2500     7.8120    94.8190     7.3350     7.4810     7.7770   -61.5080   -23.5600  -999.2500  -999.2500
 1790.5000  -999.2500  -999.2500  -999.2500  -999.2500  -999.2500     7.8120    96.3890     7.2660     7.4580     7.7760   -61.5080   -23.5270  -999.2500  -999.2500
 1791.0000  -999.2500  -999.2500  -999.2500  -999.2500  -999.2500     7.8110    98.9310     7.1970     7.4350     7.7760   -61.5080   -23.4940  -999.2500  -999.2500
 1791.5000  -999.2500  -999.2500  -999.2500  -999.2500  -999.2500     7.8100   102.4400     7.1280     7.4130     7.7760   -61.5080   -23.4610  -999.2500  -999.2500
 1792.0000  -999.2500  -999.2500  -999.2500  -999.2500  -999.2500     7.8100   105.4200     7.1010     7.3900     7.7760   -61.5080   -23.4270  -999.2500  -999.2500
 1792.5000  -999.2500  -999.2500  -999.2500  -999.2500  -999.2500     7.8090   105.0460     7.1010     7.3680     7.7760   -61.5080   -23.3950  -999.2500  -999.2500
 1793.0000  -999.2500  -999.2500  -999.2500  -999.2500  -999.2500     7.8090   103.5140     7.1010     7.3450     7.7760   -61.5080   -23.3610  -999.2500  -999.2500
 1793.5000  -999.2500  -999.2500  -999.2500  -999.2500  -999.2500     7.8080   100.8840     7.1010     7.3220     7.7760   -61.5080   -23.3280  -999.2500  -999.2500
 1794.0000  -999.2500  -999.2500  -999.2500  -999.2500  -999.2500     7.8070    98.4050     7.1010     7.3000     7.7770   -61.5080   -23.3080  -999.2500  -999.2500
 1794.5000  -999.2500  -999.2500  -999.2500  -999.2500  -999.2500     7.8070    96.0200     7.1010     7.2770     7.7770   -61.5080   -23.3830  -999.2500  -999.2500
 1795.0000  -999.2500  -999.2500  -999.2500  -999.2500  -999.2500     7.8060    93.6890     7.1010     7.2550     7.7760   -61.5080   -23.4630  -999.2500  -999.2500
 1795.5000  -999.2500  -999.2500  -999.2500  -999.2500  -999.2500     7.8060    94.0170     7.1010     7.2310     7.7780   -61.5080   -23.5450  -999.2500  -999.2500
 1796.0000  -999.2500  -999.2500  -999.2500  -999.2500  -999.2500     7.8050    95.3290     7.1880     7.2120     7.7750   -61.5080   -23.6230  -999.2500  -999.2500
 1796.5000  -999.2500  -999.2500  -999.2500  -999.2500  -999.2500     7.8040    96.7020     7.3350     7.1920     7.7780   -61.5080   -23.7070  -999.2500  -999.2500
 1797.0000  -999.2500  -999.2500  -999.2500  -999.2500  -999.2500     7.8040    98.0530     7.4830     7.1720     7.6980   -61.5080   -23.6380  -999.2500  -999.2500
 1797.5000  -999.2500  -999.2500  -999.2500  -999.2500  -999.2500     7.8030    99.4090     7.6300     7.1520     7.6270   -61.5080   -23.5140  -999.2500  -999.2500
 1798.0000  -999.2500  -999.2500  -999.2500  -999.2500  -999.2500     7.8020   100.8400     7.7760     7.1320     7.5550   -61.5080   -23.3940  -999.2500  -999.2500
 1798.5000  -999.2500  -999.2500  -999.2500  -999.2500  -999.2500     7.8020   102.8770     7.6140     7.1130     7.4830   -61.5080   -23.3090  -999.2500  -999.2500
 1799.0000  -999.2500  -999.2500  -999.2500  -999.2500  -999.2500     7.8010   104.6950     7.4530     7.0440     7.4100   -61.5080   -23.3060  -999.2500  -999.2500
 1799.5000  -999.2500  -999.2500  -999.2500  -999.2500  -999.2500     7.8010   104.7020     7.2930     6.9220     7.3210   -61.5080   -23.4650  -999.2500  -999.2500
 1800.0000  -999.2500  -999.2500  -999.2500  -999.2500  -999.2500     7.8000   103.0890     7.1010     6.7990     7.1950   -61.5080   -23.7050  -999.2500  -999.2500
 1800.5000  -999.2500  -999.2500  -999.2500  -999.2500  -999.2500     7.7990   101.2820     7.0740     6.6770     7.0690   -61.5080   -23.9380  -999.2500  -999.2500
 1801.0000  -999.2500  -999.2500  -999.2500  -999.2500  -999.2500     7.7990    99.6750     7.0400     6.5550     6.9420   -61.5080   -24.1700  -999.2500  -999.2500
 1801.5000  -999.2500  -999.2500  -999.2500  -999.2500  -999.2500     7.7980    98.6590     7.0070     6.4330     6.8160   -61.5080   -24.4110  -999.2500  -999.2500
 1802.0000  -999.2500  -999.2500  -999.2500  -999.2500  -999.2500     7.7980    97.6180     6.9730     6.3120     6.6890   -61.5080   -24.6280  -999.2500  -999.2500
 1802.5000  -999.2500  -999.2500  -999.2500  -999.2500  -999.2500     7.7970    96.4490     6.8400     6.1900     6.5630   -61.5080   -24.8770  -999.2500  -999.2500
 1803.0000  -999.2500  -999.2500  -999.2500  -999.2500  -999.2500     7.7960    96.4330     6.7070     6.0680     6.4370   -61.5080   -24.5940  -999.2500  -999.2500
 1803.5000  -999.2500  -999.2500  -999.2500  -999.2500  -999.2500     7.7960    98.5330     6.5740     5.9460     6.3100   -61.5080   -24.2570  -999.2500  -999.2500
 1804.0000  -999.2500  -999.2500  -999.2500  -999.2500  -999.2500     7.7950   102.4020     6.4410     5.8240     6.1840   -61.5080   -23.8960  -999.2500  -999.2500
 1804.5000  -999.2500  -999.2500  -999.2500  -999.2500  -999.2500     7.7950   106.0870     6.3680     5.7100     6.0570   -61.5080   -23.5400  -999.2500  -999.2500
 1805.0000  -999.2500  -999.2500  -999.2500  -999.2500  -999.2500     7.7940   104.0770     6.3130     5.7710     5.9210   -61.5080   -23.3570  -999.2500  -999.2500
 1805.5000  -999.2500  -999.2500  -999.2500  -999.2500  -999.2500     7.7930   101.9990     6.2320     5.8600     6.1090   -61.5080   -23.5380  -999.2500  -999.2500
 1806.0000  -999.2500  -999.2500  -999.2500  -999.2500  -999.2500     7.7930   100.6540     6.1510     5.9490     6.3110   -61.5080   -23.7080  -999.2500  -999.2500
 1806.5000  -999.2500  -999.2500  -999.2500  -999.2500  -999.2500     7.7920   100.3780     6.0300     6.0380     6.5140   -61.5080   -23.8800  -999.2500  -999.2500
 1807.0000  -999.2500  -999.2500  -999.2500  -999.2500  -999.2500     7.7920   100.0360     6.1870     6.1270     6.7170   -61.5080   -24.0590  -999.2500  -999.2500
 1807.5000  -999.2500  -999.2500  -999.2500  -999.2500  -999.2500     7.7910   100.0110     6.5000     6.2160     6.9190   -61.5080   -24.0920  -999.2500  -999.2500
 1808.0000  -999.2500  -999.2500  -999.2500  -999.2500  -999.2500     7.7900    99.8520     6.8130     6.3050     7.1220   -61.5080   -24.0490  -999.2500  -999.2500
 1808.5000  -999.2500  -999.2500  -999.2500  -999.2500  -999.2500     7.7900    99.5710     7.1010     6.3930     7.2470   -61.5080   -24.0090  -999.2500  -999.2500
 1809.0000  -999.2500  -999.2500  -999.2500  -999.2500  -999.2500     7.7890    99.3390     7.1010     6.4820     7.2830   -61.5080   -23.9700  -999.2500  -999.2500
 1809.5000  -999.2500  -999.2500  -999.2500  -999.2500  -999.2500     7.7890    99.1690     7.1010     6.5710     7.3180   -61.5080   -23.9290  -999.2500  -999.2500
 1810.0000  -999.2500  -999.2500  -999.2500  -999.2500  -999.2500     7.7880   100.8040     7.1010     6.6600     7.3530   -61.5080   -23.8880  -999.2500  -999.2500
