~VERSION INFORMATION
 VERS.                2.0:   CWLS LOG ASCII STANDARD - VERSION 2.0
 WRAP.                 NO:   ONE LINE PER DEPTH STEP
~WELL INFORMATION
#MNEM.UNIT      DATA TYPE    INFORMATION
#----------   ------------   ------------------------------
 STRT.F           71.0000:   START DEPTH
 STOP.F         3406.0000:   STOP DEPTH
 STEP.F            0.5000:   STEP LENGTH
 NULL.          -999.2500:   NO VALUE
 COMP. LAWRENCE ALLIOSON AND ASSOCIATES:   COMPANY
 WELL. LAWRENCE "X" #44-34:   WELL
 FLD .             NPR #3:   FIELD
 LOC .      S34 T39N R78W:   LOCATION
 CNTY.            NATRONA:   COUNTY
 STAT.            WYOMING:   STATE
 CTRY. UNITED STATES OF AMERICA:   COUNTRY
 SRVC.      DRESSER ATLAS:   SERVICE COMPANY
 DATE.        24-SEP-1984:   LOGDATE
 API .     49025109920000:   API NUMBER
~CURVE INFORMATION
#MNEM.UNIT       API CODE    CURVE DESCRIPTION
#----------   ------------   ------------------------------
 DEPT.F                  :   
 TENS.LBS    60 635 01 00:   TENSION FROM SONIC
 DT  .US/F   60 520 00 00:   DELTA TIME
 GRS .GAPI   60 310 01 00:   GAMMA RAY FROM SONIC LOG
 TEND.LBS    45 635 01 00:   TENSION FROM DENSITY LOG
 NPHI.DEC    42 890 03 00:   NEUTRON POROSITY SANDSTONE
 CALR.IN     07 280 01 00:   CALIPER FROM RESISTIVITY
 GRR .GAPI   07 310 01 00:   GAMMA RAY FROM RESISTIVITY
 RFOC.OHMM   07 220 04 00:   RESISTIVITY FOCUSED LOG RES.
 ILD .OHMM   07 120 46 00:   DEEP INDUCTION RESISTIVITY
 ILM .OHMM   07 120 44 00:   INDUCTION LOG MEDIUM RESISTIVITY
 TENR.LBS    07 635 01 00:   TENSION FROM RESISTIVITY
 SPR .MV     07 010 01 00:   SPONTANEOUS POTENTIAL
 CORR.G/C3   45 356 01 00:   DENSITY CORRECTION
 RHOB.G/C3   45 350 01 00:   BULK DENSITY
~PARAMETER INFORMATION
#MNEM.UNIT          VALUE    DESCRIPTION
#----------   ------------   ------------------------------
 EKB .F         5134.0000:   Kelly bushing
 EGL .F         5122.0000:   Ground level
 EDF .F            0.0000:   Drilling floor
 TD  .F         3404.0000:   Total depth
 DATE.        24-SEP-1984:   Date logged
 CLNT.            A2DTECH:   Client Code
 SL  . 2234' FEL & 2337' FNL:   Surface Location
 PD  .                 GL:   Permanent Datum
 EPD .F              5122:   Elevation Permanent Datum
 LMF .                 KB:   Log Measured From
 DMF .                 KB:   Drilling Measured From
 DAPD.F                12:   Feet Above Permanent Datum
 DD  .F              3404:   Depth driller
 DL  .F              3397:   Depth logger
 BLI .F              3395:   Bottom log interval
 TLI .F               780:   Top log interval
 CS1 .IN            8.625:   Casing size
 CBD1.      8.625" @ 726':   Casing driller 1
 CBL1.F               730:   Casing logger 1
 BS1 .IN            7.875:   Bit size
 BSD1.F              3404:   Depth drilled with bit1
 DFT .            GEL-KCL:   Type fluid in hole
 DFD .               9.14:   Density
 DFV .                 43:   Viscosity
 DFPH.                8.0:   pH
 DFL .               12.0:   Fluid loss
 MSS .           FLOWLINE:   Source of sample
 RMS .OHMM           0.42:   Rm
 MST .F                70:   Rm Meas. temp.
 RMF .OHMM           0.31:   Rmf
 MFST.F                60:   Rmf Meas. temp.
 RMC .OHMM           0.52:   Rmc
 MCST.F                60:   Rmc Meas. temp.
 MFSS.               CALC:   Source Rmf.
 MCSS.               CALC:   Source Rmc.
 RMB .OHMM           0.23:   Rm. at BHT
 BHT .F               125:   BHT.
 TCS .HRS               4:   Time Circ. stopped
 MRT .F               125:   Maximum recorded temp.
 LUN .               6274:   Logging unit number
 LUL .               GLTE:   Logging unit location
 ENGI.           M. HINDS:   Recorded By
 WITN.            JOHNSON:   Witnessed by
 ORIG.     2.5", 5" PRINT:   Origin of data
 UWI .     49025109920000:   Unique Well ID
 DICO. A2D TECHNOLOGIES, INC.:   Digitizing Company
~OTHER INFORMATION
~A   DEPT     TENS         DT         GRS      TEND       NPHI       CALR        GRR       RFOC        ILD        ILM       TENR        SPR       CORR       RHOB   
# ...
 2839.5000     9.7970    89.3500   126.4000   -43.7130     0.2800     7.5640   127.0760     5.5290     4.5830     5.2620   -42.3570   -28.5260     0.0340     2.5330
 2840.0000     9.5080    89.6370   125.9890   -43.7130     0.2740     7.5660   126.3830     5.6070     4.5580     5.2370   -42.4320   -28.3320     0.0160     2.5240
 2840.5000     9.2190    89.9250   126.8100   -43.7130     0.2680     7.5670   127.0260     5.5500     4.5340     5.2140   -42.5080   -28.1370    -0.0010     2.5030
 2841.0000     8.9300    90.2120   126.5900   -43.7130     0.2620     7.5680   126.1380     5.4380     4.5090     5.2400   -42.5840   -27.9420    -0.0200     2.4910
 2841.5000     8.6410    90.3490   122.3060   -43.7130     0.2600     7.5700   122.2690     5.3100     4.5260     5.2630   -42.6590   -27.7480    -0.0290     2.4900
 2842.0000     8.3520    90.3490   119.6130   -43.7130     0.2630     7.5710   120.0530     5.4370     4.5550     5.2870   -42.7350   -27.5550    -0.0270     2.4950
 2842.5000     8.0630    90.1000   119.9410   -43.7130     0.2690     7.5720   119.9000     5.5850     4.5830     5.3100   -42.8110   -27.3550    -0.0130     2.5000
 2843.0000     7.7740    89.6420   118.9390   -43.7130     0.2680     7.5740   119.4070     5.8150     4.6110     5.3330   -42.8860   -27.2840    -0.0010     2.5000
 2843.5000     7.4840    89.4750   117.2970   -43.7130     0.2660     7.5750   117.9820     5.7840     4.6400     5.3560   -42.9620   -27.2900     0.0140     2.5010
 2844.0000     7.1950    89.8110   118.8690   -43.7130     0.2660     7.5760   119.8010     5.7160     4.6680     5.3790   -43.0380   -27.2850     0.0190     2.5010
 2844.5000     6.9060    90.1460   121.0280   -43.7130     0.2710     7.5780   121.3860     5.6470     4.6960     5.4020   -43.1130   -27.2920     0.0120     2.5020
 2845.0000     6.6170    90.4480   120.0510   -43.7130     0.2650     7.5790   120.2300     5.6070     4.7250     5.4250   -43.1890   -27.3070     0.0050     2.5050
 2845.5000     6.3280    90.5480   119.8510   -43.7130     0.2560     7.5800   120.7340     5.6420     4.7530     5.4480   -43.2650   -27.6180    -0.0030     2.5100
 2846.0000     6.0390    90.5480   121.6870   -43.7130     0.2540     7.5820   123.5400     5.6930     4.7810     5.4710   -43.3410   -27.9070     0.0050     2.5140
 2846.5000     5.7500    90.3970   125.7220   -43.7130     0.2670     7.5830   126.1400     5.7450     4.8090     5.4940   -43.4160   -28.2120     0.0180     2.5250
 2847.0000     5.4610    90.2490   125.3610   -43.7130     0.2800     7.5850   126.6850     5.7970     4.8380     5.5170   -43.4920   -28.5110     0.0310     2.5270
 2847.5000     5.1720    90.1010   121.7200   -43.7130     0.2900     7.5860   122.2090     5.8490     4.8660     5.5400   -43.5680   -28.8090     0.0450     2.5230
 2848.0000     4.8830    90.1050   120.5830   -43.7130     0.2850     7.5870   121.1120     5.9210     4.8940     5.5630   -43.6430   -29.1120     0.0410     2.5190
 2848.5000     4.5940    90.3540   124.2670   -43.7130     0.2750     7.5890   124.4670     5.8930     4.9380     5.5860   -43.7190   -29.4100     0.0360     2.5170
 2849.0000     4.3050    90.7940   127.2190   -43.7130     0.2810     7.5900   127.5580     5.8450     4.9120     5.6070   -43.7950   -29.6780     0.0300     2.5160
 2849.5000     4.0160    91.0150   125.4990   -43.7130     0.2920     7.5920   125.5160     5.7970     4.8580     5.5600   -43.8700   -29.7630     0.0260     2.5180
 2850.0000     3.8460    91.2050   122.4480   -43.7130     0.3010     7.5930   123.5610     5.7500     4.8030     5.5060   -43.9460   -29.8410     0.0260     2.5200
 2850.5000     3.6470    91.3960   120.4210   -43.7130     0.2930     7.5940   121.3380     5.7020     4.7480     5.4320   -44.0220   -29.9130     0.0220     2.5230
 2851.0000     3.4480    91.5860   121.8440   -43.7130     0.2850     7.5960   119.7120     5.6540     4.6930     5.3690   -44.0980   -29.9880     0.0220     2.5230
 2851.5000     3.2480    91.8480   125.5310   -43.7130     0.2840     7.5970   122.2880     5.6060     4.6390     5.3060   -44.1730   -30.0650     0.0190     2.5190
 2852.0000     3.0490    92.1410   128.4110   -43.7130     0.2810     7.5980   126.9850     5.5590     4.5840     5.2430   -44.2490   -30.0740     0.0110     2.5090
 2852.5000     2.8500    92.4340   129.3150   -43.7130     0.2730     7.6000   128.5400     5.5060     4.5290     5.1800   -44.3250   -30.0850    -0.0060     2.4980
 2853.0000     2.6510    92.7030   130.8150   -43.7130     0.2640     7.6010   129.9580     5.4820     4.4740     5.1170   -44.4000   -30.1050    -0.0230     2.4870
 2853.5000     2.4510    92.9170   132.8790   -43.7130     0.2730     7.6030   131.3360     5.4350     4.4190     5.0540   -44.4760   -30.4960    -0.0380     2.4780
 2854.0000     2.2520    93.1300   134.1220   -43.7130     0.2830     7.6040   132.5350     5.3880     4.3650     4.9920   -44.5520   -30.8330    -0.0550     2.4780
 2854.5000     2.0530    93.2370   133.3540   -43.7130     0.2920     7.6050   133.3960     5.3410     4.3100     4.9290   -44.6270   -31.1880    -0.0380     2.4910
 2855.0000     1.8540    93.2370   132.4160   -43.7130     0.2980     7.6070   132.5950     5.2940     4.2550     4.8660   -44.7030   -31.5490    -0.0050     2.5070
 2855.5000     1.6540    93.2370   131.4110   -43.7130     0.3060     7.6080   132.1790     5.2470     4.1930     4.8030   -44.7790   -31.6970     0.0320     2.5240
 2856.0000     1.4550    93.2370   133.6330   -43.7130     0.3040     7.6100   131.1870     5.2000     4.1620     4.7400   -44.8540   -31.5370     0.0390     2.5290
 2856.5000     1.2560    93.4990   136.6790   -43.7130     0.3060     7.6110   136.0690     5.1530     4.1260     4.6760   -44.9300   -31.2270     0.0450     2.5220
 2857.0000     1.0570    93.8720   137.8950   -43.7130     0.3080     7.6120   137.3260     5.1060     4.0900     4.6830   -45.0060   -30.9240     0.0460     2.5180
 2857.5000     0.8580    94.1180   135.0270   -43.7130     0.3090     7.6140   136.0790     5.0280     4.0490     4.7160   -45.0820   -30.6070     0.0500     2.5160
 2858.0000     0.6580    94.0650   130.4150   -43.7130     0.3090     7.6140   132.5380     5.0490     4.0630     4.7480   -45.1570   -30.3580     0.0530     2.5130
 2858.5000     0.4590    94.0130   125.0820   -43.7130     0.3030     7.6140   128.9570     5.1110     4.0900     4.7690   -45.2330   -29.7550     0.0500     2.5070
 2859.0000     0.2600    93.9600   124.8340   -43.7130     0.2970     7.6140   125.0780     5.1730     4.1180     4.8060   -45.3090   -29.6900     0.0360     2.5010
 2859.5000     0.0610    93.9080   124.4450   -43.7130     0.2920     7.6140   124.1510     5.2140     4.1450     4.8420   -45.3840   -29.6660     0.0230     2.4950
 2860.0000    -0.1390    93.8560   123.2820   -43.7130     0.2860     7.6140   124.5540     5.2140     4.1720     4.8790   -45.4600   -29.6870     0.0080     2.4910
 2860.5000    -0.3380    93.8030   122.6150   -43.7130     0.2860     7.6130   122.5940     5.2140     4.1990     4.9160   -45.5360   -29.6820     0.0150     2.4980
 2861.0000    -0.5370    93.7510   123.6620   -43.7130     0.2880     7.6130   121.8190     5.2140     4.2270     4.9520   -45.6110   -29.6770     0.0250     2.5030
 2861.5000    -0.7360    93.3860   124.3630   -43.7130     0.2940     7.5960   122.9030     5.2610     4.2540     4.9890   -45.6870   -29.6780     0.0310     2.5100
 2862.0000    -0.9360    92.8880   123.8480   -43.7130     0.2920     7.5770   123.1940     5.3470     4.3060     5.0250   -45.7630   -29.4900     0.0260     2.5080
 2862.5000    -1.1350    92.3900   123.8320   -43.7130     0.2850     7.5570   123.4700     5.4330     4.3940     5.0620   -45.8380   -29.2460     0.0230     2.5020
 2863.0000    -1.3340    91.8920   124.2020   -43.7130     0.2790     7.5380   123.8940     5.5060     4.4810     5.0980   -45.9140   -28.9950     0.0190     2.5020
 2863.5000    -1.5330    91.5210   121.7750   -43.7130     0.2730     7.5340   122.4490     5.4560     4.5680     5.1210   -45.9900   -28.7640     0.0190     2.5050
