~VERSION INFORMATION
 VERS.                2.0:   CWLS LOG ASCII STANDARD - VERSION 2.0
 WRAP.                 NO:   ONE LINE PER DEPTH STEP
~WELL INFORMATION
#MNEM.UNIT      DATA TYPE    INFORMATION
#----------   ------------   ------------------------------
 STRT.F           71.0000:   START DEPTH
 STOP.F         3406.0000:   STOP DEPTH
 STEP.F            0.5000:   STEP LENGTH
 NULL.          -999.2500:   NO VALUE
 COMP. LAWRENCE ALLIOSON AND ASSOCIATES:   COMPANY
 WELL. LAWRENCE "X" #44-34:   WELL
 FLD .             NPR #3:   FIELD
 LOC .      S34 T39N R78W:   LOCATION
 CNTY.            NATRONA:   COUNTY
 STAT.            WYOMING:   STATE
 CTRY. UNITED STATES OF AMERICA:   COUNTRY
 SRVC.      DRESSER ATLAS:   SERVICE COMPANY
 DATE.        24-SEP-1984:   LOGDATE
 API .     49025109920000:   API NUMBER
~CURVE INFORMATION
#MNEM.UNIT       API CODE    CURVE DESCRIPTION
#----------   ------------   ------------------------------
 DEPT.F                  :   
 TENS.LBS    60 635 01 00:   TENSION FROM SONIC
 DT  .US/F   60 520 00 00:   DELTA TIME
 GRS .GAPI   60 310 01 00:   GAMMA RAY FROM SONIC LOG
 TEND.LBS    45 635 01 00:   TENSION FROM DENSITY LOG
 NPHI.DEC    42 890 03 00:   NEUTRON POROSITY SANDSTONE
 CALR.IN     07 280 01 00:   CALIPER FROM RESISTIVITY
 GRR .GAPI   07 310 01 00:   GAMMA RAY FROM RESISTIVITY
 RFOC.OHMM   07 220 04 00:   RESISTIVITY FOCUSED LOG RES.
 ILD .OHMM   07 120 46 00:   DEEP INDUCTION RESISTIVITY
 ILM .OHMM   07 120 44 00:   INDUCTION LOG MEDIUM RESISTIVITY
 TENR.LBS    07 635 01 00:   TENSION FROM RESISTIVITY
 SPR .MV     07 010 01 00:   SPONTANEOUS POTENTIAL
 CORR.G/C3   45 356 01 00:   DENSITY CORRECTION
 RHOB.G/C3   45 350 01 00:   BULK DENSITY
~PARAMETER INFORMATION
#MNEM.UNIT          VALUE    DESCRIPTION
#----------   ------------   ------------------------------
 EKB .F         5134.0000:   Kelly bushing
 EGL .F         5122.0000:   Ground level
 EDF .F            0.0000:   Drilling floor
 TD  .F         3404.0000:   Total depth
 DATE.        24-SEP-1984:   Date logged
 CLNT.            A2DTECH:   Client Code
 SL  . 2234' FEL & 2337' FNL:   Surface Location
 PD  .                 GL:   Permanent Datum
 EPD .F              5122:   Elevation Permanent Datum
 LMF .                 KB:   Log Measured From
 DMF .                 KB:   Drilling Measured From
 DAPD.F                12:   Feet Above Permanent Datum
 DD  .F              3404:   Depth driller
 DL  .F              3397:   Depth logger
 BLI .F              3395:   Bottom log interval
 TLI .F               780:   Top log interval
 CS1 .IN            8.625:   Casing size
 CBD1.      8.625" @ 726':   Casing driller 1
 CBL1.F               730:   Casing logger 1
 BS1 .IN            7.875:   Bit size
 BSD1.F              3404:   Depth drilled with bit1
 DFT .            GEL-KCL:   Type fluid in hole
 DFD .               9.14:   Density
 DFV .                 43:   Viscosity
 DFPH.                8.0:   pH
 DFL .               12.0:   Fluid loss
 MSS .           FLOWLINE:   Source of sample
 RMS .OHMM           0.42:   Rm
 MST .F                70:   Rm Meas. temp.
 RMF .OHMM           0.31:   Rmf
 MFST.F                60:   Rmf Meas. temp.
 RMC .OHMM           0.52:   Rmc
 MCST.F                60:   Rmc Meas. temp.
 MFSS.               CALC:   Source Rmf.
 MCSS.               CALC:   Source Rmc.
 RMB .OHMM           0.23:   Rm. at BHT
 BHT .F               125:   BHT.
 TCS .HRS               4:   Time Circ. stopped
 MRT .F               125:   Maximum recorded temp.
 LUN .               6274:   Logging unit number
 LUL .               GLTE:   Logging unit location
 ENGI.           M. HINDS:   Recorded By
 WITN.            JOHNSON:   Witnessed by
 ORIG.     2.5", 5" PRINT:   Origin of data
 UWI .     49025109920000:   Unique Well ID
 DICO. A2D TECHNOLOGIES, INC.:   Digitizing Company
~OTHER INFORMATION
~A   DEPT     TENS         DT         GRS      TEND       NPHI       CALR        GRR       RFOC        ILD        ILM       TENR        SPR       CORR       RHOB   
# ...
  732.5000  -999.2500  -999.2500    85.7980  -999.2500  -999.2500    10.8490    81.7480     5.5250    16.0830     4.6190   -60.5700    -9.1780  -999.2500  -999.2500
  733.0000  -999.2500  -999.2500    88.3330  -999.2500  -999.2500    11.3430    82.0470     5.5510    12.7280     5.1620   -60.4150    -8.9100  -999.2500  -999.2500
  733.5000  -999.2500  -999.2500    86.1630  -999.2500  -999.2500    11.8860    82.1180     5.5780     7.9000     5.7040   -60.2600    -8.6660  -999.2500  -999.2500
  734.0000  -999.2500  -999.2500    84.0990  -999.2500  -999.2500    11.9880    83.4780     5.6070     7.9160     6.2530   -60.1040    -8.8110  -999.2500  -999.2500
  734.5000  -999.2500  -999.2500    82.0520  -999.2500  -999.2500    11.9890    87.6400     5.2300     4.9380     5.8100   -59.9490    -9.3690  -999.2500  -999.2500
  735.0000  -999.2500  -999.2500    80.0110  -999.2500  -999.2500    11.9600    88.1490     4.7960     5.0020     5.2140   -59.7930    -9.9060  -999.2500  -999.2500
  735.5000  -999.2500  -999.2500    78.2560  -999.2500  -999.2500    11.9400    85.2850     4.3630     5.1880     5.8090   -59.6380   -10.1460  -999.2500  -999.2500
  736.0000  -999.2500  -999.2500    78.0010  -999.2500  -999.2500    11.9190    81.8790     4.1180     5.3740     6.4270   -59.4820    -9.9030  -999.2500  -999.2500
  736.5000  -999.2500  -999.2500    79.1300  -999.2500  -999.2500    11.8970    81.8440     4.9970     5.7350     7.1010   -59.3270    -9.4330  -999.2500  -999.2500
  737.0000  -999.2500  -999.2500    78.4300  -999.2500  -999.2500    11.8780    82.8170     5.8320     6.5240     7.3170   -59.1710    -9.3560  -999.2500  -999.2500
  737.5000  -999.2500  -999.2500    77.7690  -999.2500  -999.2500    11.8770    83.4490     6.2570     7.3120     7.5550   -59.0160    -9.5880  -999.2500  -999.2500
  738.0000  -999.2500  -999.2500    77.2800  -999.2500  -999.2500    11.8760    83.9950     6.5350     8.1000     7.7930   -58.8600   -10.0230  -999.2500  -999.2500
  738.5000  -999.2500  -999.2500    77.9210  -999.2500  -999.2500    11.8760    83.0800     6.7480     8.5160     7.9190   -58.7050   -10.3990  -999.2500  -999.2500
  739.0000  -999.2500  -999.2500    80.8300  -999.2500  -999.2500    11.8760    82.0700     6.9730     7.9190     7.9710   -58.5500   -10.7730  -999.2500  -999.2500
  739.5000  -999.2500  -999.2500    83.7720  -999.2500  -999.2500    11.8760    80.3670     7.0260     8.2520     8.0180   -58.3940   -11.0090  -999.2500  -999.2500
  740.0000  -999.2500  -999.2500    82.9300  -999.2500  -999.2500    11.8760    78.7120     7.1190     8.8430     8.0640   -58.2390    -9.4550  -999.2500  -999.2500
  740.5000  -999.2500  -999.2500    81.0760  -999.2500  -999.2500    11.8760    77.0100     7.2120     9.4960     8.2120   -58.0830    -7.0550  -999.2500  -999.2500
  741.0000  -999.2500  -999.2500    79.3980  -999.2500  -999.2500    11.8760    75.4860     7.3050     9.4960     8.2120   -57.9280    -1.7670  -999.2500  -999.2500
  741.5000  -999.2500  -999.2500    79.7040  -999.2500  -999.2500    11.8760    76.0890     7.3640     9.4960     8.2140   -57.7720     2.9610  -999.2500  -999.2500
  742.0000  -999.2500  -999.2500    80.3000  -999.2500  -999.2500    11.8760    78.1970     7.3600     9.4960     8.2110   -57.6170     6.6330  -999.2500  -999.2500
  742.5000  -999.2500  -999.2500    80.4430  -999.2500  -999.2500    11.8860    80.7690     7.3430     9.4960     8.2120   -57.4610     9.9850  -999.2500  -999.2500
  743.0000  -999.2500  -999.2500    79.9210  -999.2500  -999.2500    11.9110    80.5320     7.3250     9.4960     8.2130   -57.3060    10.4220  -999.2500  -999.2500
  743.5000  -999.2500  -999.2500    79.2490  -999.2500  -999.2500    11.9360    80.2640     7.3080     9.4480     8.2120   -57.1500    11.0780  -999.2500  -999.2500
  744.0000  -999.2500  -999.2500    78.5770  -999.2500  -999.2500    11.9610    80.3240     7.2910     9.3590     8.2120   -56.9950    11.5650  -999.2500  -999.2500
  744.5000  -999.2500  -999.2500    78.0500  -999.2500  -999.2500    11.9860    81.0060     7.2730     9.2700     8.2120   -56.8400    11.7760  -999.2500  -999.2500
  745.0000  -999.2500  -999.2500  -999.2500  -999.2500  -999.2500    12.0100    81.6070     7.2560     9.1810     8.2100   -56.6840    11.7690  -999.2500  -999.2500
  745.5000  -999.2500  -999.2500  -999.2500  -999.2500  -999.2500    12.0400    80.2470     7.2390     8.9480     8.2120   -56.5290    11.7560  -999.2500  -999.2500
  746.0000  -999.2500  -999.2500    78.0640  -999.2500  -999.2500    12.0030    79.1150     7.2310     8.6610     8.1330   -56.3730    11.7550  -999.2500  -999.2500
  746.5000  -999.2500  -999.2500    78.0630  -999.2500  -999.2500    11.9780    76.1810     7.2300     8.3750     8.0510   -56.2180    11.7570  -999.2500  -999.2500
  747.0000  -999.2500  -999.2500    78.0630  -999.2500  -999.2500    11.9190    74.8170     7.2330     8.0640     7.9700   -56.0620    11.7630  -999.2500  -999.2500
  747.5000  -999.2500  -999.2500    78.0630  -999.2500  -999.2500    11.8410    75.8630     7.2360     8.2510     7.8880   -55.9070    12.0230  -999.2500  -999.2500
  748.0000  -999.2500  -999.2500    78.0630  -999.2500  -999.2500    11.5620    77.6150     7.2240     8.4560     7.7760   -55.7510    12.3200  -999.2500  -999.2500
  748.5000  -999.2500  -999.2500    78.0630  -999.2500  -999.2500    11.1340    79.7490     7.2310     8.6610     8.1290   -55.5960    12.6240  -999.2500  -999.2500
  749.0000  -999.2500  -999.2500    78.0630  -999.2500  -999.2500    10.5040    81.9110     6.8310     8.8650     8.6920   -55.4400    12.9270  -999.2500  -999.2500
  749.5000  -999.2500  -999.2500    78.0630  -999.2500  -999.2500     9.7520    84.4520     6.6030     9.0700     9.4960   -55.2850    13.2250  -999.2500  -999.2500
  750.0000  -999.2500  -999.2500    78.0630  -999.2500  -999.2500     9.2780    87.7790     6.6030     9.1580     9.2480   -55.1300    13.3520  -999.2500  -999.2500
  750.5000  -999.2500  -999.2500  -999.2500  -999.2500  -999.2500     8.9430    88.3590     7.3640     9.1580     8.8140   -54.9740    12.6980  -999.2500  -999.2500
  751.0000  -999.2500  -999.2500  -999.2500  -999.2500  -999.2500     8.7690    89.0640     7.3640     8.9090     8.3800   -54.8190    11.8770  -999.2500  -999.2500
  751.5000  -999.2500  -999.2500  -999.2500  -999.2500  -999.2500     8.7250    92.2740     7.0010     8.5420     7.9450   -54.6630    11.0460  -999.2500  -999.2500
  752.0000  -999.2500  -999.2500  -999.2500  -999.2500  -999.2500     8.6810    95.6590     6.6080     8.1760     7.5110   -54.5080    10.0070  -999.2500  -999.2500
  752.5000  -999.2500  -999.2500  -999.2500  -999.2500  -999.2500     8.6280    93.1860     6.2150     7.8090     7.2310   -54.3520     8.6480  -999.2500  -999.2500
  753.0000  -999.2500  -999.2500  -999.2500  -999.2500  -999.2500     8.6040    92.2820     5.9210     7.4470     7.1010   -54.1970     7.2930  -999.2500  -999.2500
  753.5000  -999.2500  -999.2500  -999.2500  -999.2500  -999.2500     8.5850    95.9440     5.7520     6.8610     6.4520   -54.0410     5.9310  -999.2500  -999.2500
  754.0000  -999.2500  -999.2500  -999.2500  -999.2500  -999.2500     8.5640    98.2200     5.5340     5.9260     5.7770   -53.8860     4.5440  -999.2500  -999.2500
  754.5000  -999.2500  -999.2500  -999.2500  -999.2500  -999.2500     8.5400    96.3230     5.3150     4.9910     5.1030   -53.7300     3.2220  -999.2500  -999.2500
  755.0000  -999.2500  -999.2500  -999.2500  -999.2500  -999.2500     8.5540    93.8880     5.0960     4.2610     4.4020   -53.5750     1.8750  -999.2500  -999.2500
  755.5000  -999.2500  -999.2500  -999.2500  -999.2500  -999.2500     8.6360    95.9870     4.8490     3.5990     3.6930   -53.4200     1.6660  -999.2500  -999.2500
  756.0000  -999.2500  -999.2500  -999.2500  -999.2500  -999.2500     8.7190    98.4630     4.3250     2.9360     2.9840   -53.2640     1.3580  -999.2500  -999.2500
  756.5000  -999.2500  -999.2500  -999.2500  -999.2500  -999.2500     8.8170   100.1560     3.7220     2.2610     2.2610   -53.1090     1.1130  -999.2500  -999.2500
