~VERSION INFORMATION
 VERS.                2.0:   CWLS LOG ASCII STANDARD - VERSION 2.0
 WRAP.                 NO:   ONE LINE PER DEPTH STEP
~WELL INFORMATION
#MNEM.UNIT      DATA TYPE    INFORMATION
#----------   ------------   ------------------------------
 STRT.F          198.0000:   START DEPTH
 STOP.F         3034.0000:   STOP DEPTH
 STEP.F            0.5000:   STEP LENGTH
 NULL.          -999.2500:   NO VALUE
 COMP.    FENIX & SCISSON:   COMPANY
 WELL.   FENIX "A" #44-29:   WELL
 FLD .              NPR-3:   FIELD
 LOC .      S29 T39N R78W:   LOCATION
 CNTY.            NATRONA:   COUNTY
 STAT.            WYOMING:   STATE
 CTRY. UNITED STATES OF AMERICA:   COUNTRY
 SRVC.              WELEX:   SERVICE COMPANY
 DATE.        26-MAY-1977:   LOGDATE
 API .     49025103690000:   API NUMBER
~CURVE INFORMATION
#MNEM.UNIT       API CODE    CURVE DESCRIPTION
#----------   ------------   ------------------------------
 DEPT.F                  :   
 SPR .MV     07 010 01 00:   SPONTANEOUS POTENTIAL
 ILD .OHMM   07 120 46 00:   DEEP INDUCTION RESISTIVITY
 ILM .OHMM   07 120 44 00:   INDUCTION LOG MEDIUM RESISTIVITY
 SGRD.OHMM   07 220 05 00:   SHALLOW SHORT GUARD RESISTIVITY
 CALD.IN     45 280 60 00:   CALIPER FROM DENSITY LOG
 GRD .GAPI   45 310 01 00:   GAMMA RAY FROM DENSITY LOG
 RHOB.G/C3   45 350 01 00:   BULK DENSITY
 CORR.G/C3   45 356 01 00:   DENSITY CORRECTION
~PARAMETER INFORMATION
#MNEM.UNIT          VALUE    DESCRIPTION
#----------   ------------   ------------------------------
 EKB .F         5010.0000:   Kelly bushing
 EGL .F         5000.0000:   Ground level
 EDF .F            0.0000:   Drilling floor
 TD  .F         3036.0000:   Total depth
 DATE.        26-MAY-1977:   Date logged
 CLNT.            A2DTECH:   Client Code
 SL  . 2310' FNL & 2310' FWL:   Surface Location
 PD  .                 GL:   Permanent Datum
 EPD .F              5000:   Elevation Permanent Datum
 LMF .                 KB:   Log Measured From
 DMF .                 KB:   Drilling Measured From
 DD  .F              3035:   Depth driller
 DL  .F              3036:   Depth logger
 BLI .F              3034:   Bottom log interval
 TLI .F               210:   Top log interval
 CS1 .IN            8.625:   Casing size
 CBD1.      8.625" @ 245':   Casing driller 1
 CBL1.F               220:   Casing logger 1
 BS1 .IN            7.875:   Bit size
 BSD1.F              3035:   Depth drilled with bit1
 DFT .            KCL MUD:   Type fluid in hole
 DFD .                8.8:   Density
 DFV .                 34:   Viscosity
 DFPH.                7.5:   pH
 DFL .                6.6:   Fluid loss
 MSS .           FLOWLINE:   Source of sample
 RMS .OHMM           0.20:   Rm
 MST .F                89:   Rm Meas. temp.
 RMF .OHMM           0.17:   Rmf
 MFST.F                89:   Rmf Meas. temp.
 RMC .OHMM           0.30:   Rmc
 MCST.F                89:   Rmc Meas. temp.
 MFSS.               FANN:   Source Rmf.
 MCSS.                KIT:   Source Rmc.
 RMB .OHMM           0.16:   Rm. at BHT
 BHT .F               110:   BHT.
 TCS .HRS             2.5:   Time Circ. stopped
 MRT .F               110:   Maximum recorded temp.
 LUN .               8611:   Logging unit number
 LUL .             CASPER:   Logging unit location
 ENGI.            C. DOAK:   Recorded By
 WITN.      B. HARRINGTON:   Witnessed by
 ORIG.           5" PRINT:   Origin of data
 UWI .     49025103690000:   Unique Well ID
 DICO. A2D TECHNOLOGIES, INC.:   Digitizing Company
~OTHER INFORMATION
~A   DEPT      SPR        ILD        ILM       SGRD       CALD         GRD      RHOB       CORR   
# ...
 2263.5000   -37.8370     4.7980     5.7120     9.5100     8.4120   162.3100     2.3780     0.0230
 2264.0000   -37.9960     4.4190     5.4560     6.5240     8.4320   166.3790     2.3880     0.0190
 2264.5000   -38.1570     4.1930     5.1850     7.3510     8.4510   164.6580     2.4030     0.0160
 2265.0000   -38.1520     4.0220     4.8650     7.1730     8.4710   160.3140     2.4180     0.0140
 2265.5000   -38.1150     3.8430     4.5220     6.8300     8.4900   154.9100     2.4340     0.0160
 2266.0000   -38.0770     3.6580     4.3950     5.6550     8.5330   144.8620     2.4480     0.0170
 2266.5000   -38.0400     3.5590     4.6880     4.8180     8.5820   136.0050     2.4480     0.0190
 2267.0000   -38.0020     3.5760     4.9980     6.8150     8.6320   137.4180     2.4440     0.0200
 2267.5000   -37.9640     3.5950     4.9980     7.9110     8.6480   139.4140     2.4490     0.0220
 2268.0000   -37.9270     3.6130     4.9980     7.6790     8.6640   141.3210     2.4520     0.0200
 2268.5000   -37.8890     3.6500     4.9980     7.0760     8.6790   140.0620     2.4410     0.0170
 2269.0000   -37.8510     3.7130     4.9980     6.4740     8.6920   138.6110     2.4290     0.0140
 2269.5000   -37.8130     3.7770     5.1440     6.1170     8.6890   137.0760     2.4200     0.0120
 2270.0000   -37.7760     3.8410     5.2880     6.6790     8.6860   133.6890     2.4250     0.0110
 2270.5000   -37.7380     3.8950     5.4330     7.3690     8.6830   130.0830     2.4360     0.0140
 2271.0000   -37.7000     3.9430     5.5770     7.4870     8.6800   127.9470     2.4480     0.0160
 2271.5000   -37.6620     3.9910     5.7220     7.2970     8.6770   127.0690     2.4600     0.0190
 2272.0000   -37.6250     4.0390     5.8660     7.4760     8.6740   126.1950     2.4700     0.0220
 2272.5000   -37.6070     4.0840     6.0110     7.6960     8.6760   125.2290     2.4740     0.0220
 2273.0000   -37.6460     4.0890     6.1550     7.5130     8.6830   121.8080     2.4720     0.0230
 2273.5000   -37.6840     4.0940     6.3460     7.3390     8.6900   118.5930     2.4680     0.0240
 2274.0000   -37.7210     4.0980     6.2900     7.2170     8.6970   121.2540     2.4630     0.0250
 2274.5000   -37.7590     4.1030     6.2070     7.3470     8.7040   130.0720     2.4590     0.0260
 2275.0000   -37.7970     4.1080     6.1240     7.5560     8.7110   131.1940     2.4620     0.0290
 2275.5000   -37.8340     4.1120     6.0410     7.5560     8.7180   126.5600     2.4730     0.0320
 2276.0000   -37.8720     4.1170     5.9510     6.6580     8.7250   122.8910     2.4750     0.0350
 2276.5000   -37.9100     4.1210     6.0150     6.4050     8.7320   124.7780     2.4700     0.0350
 2277.0000   -37.9480     4.1730     6.1050     7.0550     8.7390   125.9000     2.4640     0.0320
 2277.5000   -37.9860     4.2440     6.1940     7.6960     8.7460   125.3280     2.4590     0.0300
 2278.0000   -37.9480     4.3290     6.2880     7.6960     8.7520   129.4520     2.4610     0.0270
 2278.5000   -37.9030     4.4250     6.2880     7.3260     8.7520   130.7220     2.4650     0.0250
 2279.0000   -37.8590     4.5220     6.2880     6.7680     8.7530   127.5110     2.4580     0.0220
 2279.5000   -37.8140     4.6020     6.2880     7.5440     8.7540   126.8310     2.4490     0.0200
 2280.0000   -37.8480     4.6020     6.2310     8.4360     8.7550   127.5580     2.4430     0.0200
 2280.5000   -37.9470     4.6020     6.1560     7.9130     8.7560   126.8440     2.4480     0.0210
 2281.0000   -38.0460     4.5190     6.0620     7.4870     8.7560   124.3200     2.4550     0.0210
 2281.5000   -38.1460     4.4360     5.9510     7.4870     8.7570   121.7810     2.4540     0.0220
 2282.0000   -38.2450     4.3040     5.6900     8.1320     8.7580   120.9110     2.4450     0.0200
 2282.5000   -38.3450     4.1720     5.5010     7.8800     8.7590   123.6130     2.4370     0.0190
 2283.0000   -38.4450     4.0030     5.2810     7.0630     8.7590   128.8680     2.4300     0.0170
 2283.5000   -38.5450     3.8130     5.0430     6.2460     8.7600   130.9660     2.4300     0.0150
 2284.0000   -38.6440     3.6230     4.7980     5.7370     8.7610   129.8300     2.4270     0.0140
 2284.5000   -38.7440     3.4330     4.5310     5.9340     8.7620   133.3140     2.4230     0.0120
 2285.0000   -38.8440     3.2430     4.2630     6.1170     8.7630   136.6520     2.4180     0.0150
 2285.5000   -38.9450     3.1240     3.9960     5.8130     8.7630   138.6600     2.4250     0.0180
 2286.0000   -38.9490     3.0170     3.7280     5.2660     8.7640   136.2330     2.4350     0.0210
 2286.5000   -38.9300     2.9370     3.4610     4.6710     8.7650   133.0440     2.4400     0.0250
 2287.0000   -38.9110     2.8850     3.4300     4.0760     8.7660   133.8220     2.4340     0.0260
 2287.5000   -38.8910     2.8290     3.4630     3.6580     8.7670   135.5020     2.4270     0.0270
 2288.0000   -38.8720     2.8640     3.5730     4.6090     8.7670   134.3640     2.4270     0.0270
 2288.5000   -38.8520     2.9040     3.6920     5.5300     8.7680   132.9350     2.4360     0.0280
 2289.0000   -38.8330     2.9430     3.7030     5.0910     8.7690   132.6090     2.4460     0.0290
 2289.5000   -38.8130     2.9710     3.7150     5.1920     8.7700   134.0170     2.4550     0.0300
 2290.0000   -38.7940     3.0000     3.7260     5.2820     8.7700   135.4050     2.4630     0.0270
 2290.5000   -38.7740     3.0280     3.7260     4.9800     8.7710   135.9600     2.4540     0.0240
 2291.0000   -38.7550     3.0570     3.6920     4.6020     8.7750   133.9910     2.4440     0.0210
 2291.5000   -38.7350     3.0850     4.0000     4.9620     8.7830   132.5190     2.4350     0.0180
 2292.0000   -38.7160     3.1140     4.0470     5.7900     8.7900   134.0570     2.4250     0.0150
 2292.5000   -38.6960     3.1430     3.9010     5.3260     8.7970   132.6600     2.4200     0.0120
 2293.0000   -38.6770     3.1710     3.8300     4.9030     8.8040   130.4830     2.4270     0.0140
 2293.5000   -38.6570     3.2000     3.8680     4.7310     8.8110   130.8430     2.4380     0.0180
 2294.0000   -38.6380     3.2290     3.9160     5.1820     8.8180   132.2670     2.4500     0.0220
 2294.5000   -38.6180     3.2570     3.9640     5.4290     8.8260   131.1250     2.4620     0.0290
 2295.0000   -38.5990     3.2860     3.9730     5.2470     8.8300   130.1590     2.4740     0.0370
 2295.5000   -38.5790     3.3150     3.9730     4.8630     8.8290   131.1680     2.4740     0.0400
 2296.0000   -38.5600     3.3430     3.9730     5.2820     8.8270   127.9270     2.4660     0.0350
 2296.5000   -38.5410     3.3720     3.9880     5.1760     8.8260   129.6860     2.4580     0.0300
 2297.0000   -38.5210     3.3990     4.0060     4.9980     8.8240   132.3390     2.4510     0.0290
 2297.5000   -38.5020     3.3990     4.0240     5.7900     8.8230   129.3670     2.4430     0.0280
 2298.0000   -38.4820     3.3990     4.0420     5.4070     8.8220   124.4480     2.4380     0.0270
 2298.5000   -38.4630     3.3990     4.0600     4.8300     8.8200   122.2170     2.4340     0.0260
 2299.0000   -38.4430     3.3800     4.0840     4.6440     8.8190   130.2260     2.4280     0.0250
 2299.5000   -38.4240     3.3110     4.0400     5.4790     8.8170   139.7000     2.4180     0.0230
 2300.0000   -38.4040     3.2430     3.9510     5.3410     8.8160   137.7500     2.4210     0.0200
 2300.5000   -38.3830     3.1740     3.8610     5.1850     8.8150   133.2710     2.4220     0.0170
 2301.0000   -38.4110     3.1060     3.7710     4.5750     8.8130   133.3190     2.4130     0.0140
 2301.5000   -38.4550     3.0380     3.7260     3.9730     8.8120   135.7320     2.4090     0.0130
 2302.0000   -38.4990     2.9690     3.8000     4.5700     8.8110   134.6710     2.4180     0.0150
 2302.5000   -38.5440     2.9080     3.8300     5.1380     8.8170   133.8460     2.4290     0.0180
 2303.0000   -38.5830     2.8810     3.6440     5.4290     8.8240   134.2970     2.4340     0.0210
 2303.5000   -38.6110     2.8890     3.5910     5.1310     8.8310   131.1520     2.4410     0.0230
