~VERSION INFORMATION
 VERS.                2.0:   CWLS LOG ASCII STANDARD - VERSION 2.0
 WRAP.                 NO:   ONE LINE PER DEPTH STEP
~WELL INFORMATION
#MNEM.UNIT      DATA TYPE    INFORMATION
#----------   ------------   ------------------------------
 STRT.F          594.5000:   START DEPTH
 STOP.F         3015.5000:   STOP DEPTH
 STEP.F            0.5000:   STEP LENGTH
 NULL.          -999.2500:   NO VALUE
 COMP.    FENIX & SCISSON:   COMPANY
 WELL.  FENIX "AX" #35-34:   WELL
 FLD .             NPR #3:   FIELD
 LOC .      S34 T39N R78W:   LOCATION
 CNTY.            NATRONA:   COUNTY
 STAT.            WYOMING:   STATE
 CTRY. UNITED STATES OF AMERICA:   COUNTRY
 SRVC.       SCHLUMBERGER:   SERVICE COMPANY
 DATE.        14-APR-1977:   LOGDATE
 API .     49025103390000:   API NUMBER
~CURVE INFORMATION
#MNEM.UNIT       API CODE    CURVE DESCRIPTION
#----------   ------------   ------------------------------
 DEPT.F                  :   
 CALD.IN     45 280 60 00:   CALIPER FROM DENSITY LOG
 RHOB.G/C3   45 350 01 00:   BULK DENSITY
 DRHO.G/C3   45 356 01 00:   DENSITY CORRECTION
 SPR .MV     07 010 01 00:   SPONTANEOUS POTENTIAL
 RILM.OHMM   07 120 44 00:   INDUCTION LOG MEDIUM RESISTIVITY
 RILD.OHMM   07 120 46 00:   DEEP INDUCTION RESISTIVITY
 LL8 .OHMM   07 220 08 00:   LATEROLOG-8 RES.
 GRD .GAPI   45 310 01 00:   GAMMA RAY FROM DENSITY LOG
~PARAMETER INFORMATION
#MNEM.UNIT          VALUE    DESCRIPTION
#----------   ------------   ------------------------------
 EKB .F         5116.0000:   Kelly bushing
 EGL .F         5104.0000:   Ground level
 EDF .F            0.0000:   Drilling floor
 TD  .F         3017.0000:   Total depth
 DATE.        14-APR-1977:   Date logged
 CLNT.            A2DTECH:   Client Code
 SL  . 2311' FSL & 1550' FWL:   Surface Location
 PD  .                 GL:   Permanent Datum
 EPD .F              5104:   Elevation Permanent Datum
 LMF .                 KB:   Log Measured From
 DMF .                 KB:   Drilling Measured From
 DAPD.F                12:   Feet Above Permanent Datum
 DD  .F              3012:   Depth driller
 DL  .F              3017:   Depth logger
 BLI .F              3011:   Bottom log interval
 TLI .F               600:   Top log interval
 CS1 .IN            8.625:   Casing size
 CBD1.      8.625" @ 601':   Casing driller 1
 CBL1.F               600:   Casing logger 1
 BS1 .IN            7.875:   Bit size
 BSD1.F              3012:   Depth drilled with bit1
 DFT .                FGM:   Type fluid in hole
 DFD .                9.2:   Density
 DFV .                 29:   Viscosity
 MSS .           FLOWLINE:   Source of sample
 RMS .OHMM          0.206:   Rm
 MST .F                60:   Rm Meas. temp.
 RMF .OHMM          0.192:   Rmf
 MFST.F                60:   Rmf Meas. temp.
 MFSS.               MEAS:   Source Rmf.
 RMB .OHMM          0.109:   Rm. at BHT
 BHT .F               113:   BHT.
 TLAB.HRS            0200:   Time logger at bottom
 MRT .F               113:   Maximum recorded temp.
 LUN .               7711:   Logging unit number
 LUL .               CSPR:   Logging unit location
 ENGI.             GEIGER:   Recorded By
 WITN.         PETTINGILL:   Witnessed by
 ORIG.           5" PRINT:   Origin of data
 UWI .     49025103390000:   Unique Well ID
 DICO. A2D TECHNOLOGIES, INC.:   Digitizing Company
~OTHER INFORMATION
~A   DEPT     CALD       RHOB       DRHO        SPR       RILM       RILD        LL8         GRD  
  594.5000  -999.2500  -999.2500  -999.2500  -999.2500  -999.2500  -999.2500  -999.2500    61.0100
  595.0000  -999.2500  -999.2500  -999.2500  -999.2500  -999.2500  -999.2500  -999.2500    60.5730
  595.5000  -999.2500  -999.2500  -999.2500  -999.2500  -999.2500  -999.2500  -999.2500    61.2340
  596.0000  -999.2500  -999.2500  -999.2500  -999.2500  -999.2500  -999.2500  -999.2500    60.6040
  596.5000  -999.2500  -999.2500  -999.2500  -999.2500  -999.2500  -999.2500  -999.2500    58.8480
  597.0000  -999.2500  -999.2500  -999.2500  -999.2500  -999.2500  -999.2500  -999.2500    57.8090
  597.5000  -999.2500  -999.2500  -999.2500  -999.2500  -999.2500  -999.2500  -999.2500    59.1510
  598.0000  -999.2500  -999.2500  -999.2500  -999.2500  -999.2500  -999.2500  -999.2500    64.1370
  598.5000  -999.2500  -999.2500  -999.2500  -999.2500  -999.2500  -999.2500  -999.2500    70.4560
  599.0000  -999.2500  -999.2500  -999.2500  -999.2500  -999.2500  -999.2500  -999.2500    75.0770
  599.5000  -999.2500     2.4230     0.0820  -999.2500  -999.2500  -999.2500  -999.2500    77.5500
  600.0000  -999.2500     2.4020     0.0720   -23.4650    12.5210  -999.2500    12.1810    78.1510
  600.5000     9.8860     2.4080     0.0570   -23.4650    39.8230     8.5930    12.1810    78.8680
  601.0000     9.9500     2.4050     0.0520   -28.0950    39.8230    29.8110    11.2100    79.6490
  601.5000     9.9380     2.3890     0.0750   -32.0120    43.1450    62.4520    10.0440    80.7110
  602.0000     9.9680     2.3790     0.1090   -33.9810    35.7170    25.8640    11.1860    83.6890
  602.5000    10.0100     2.3700     0.1700   -36.6140    26.8390    12.9280    12.2300    86.6980
  603.0000    10.0510     2.3660     0.1820   -39.1660    15.1840     9.7720    13.2740    89.4280
  603.5000    10.1120     2.3860     0.0630   -41.5850    16.3550    10.0550    13.7940    91.8110
  604.0000    10.2170     2.4440     0.0260   -43.9850    18.0580    10.4680    14.0760    92.6380
  604.5000    10.1520     2.4950     0.0260   -46.2630    19.7610    14.9850    13.4860    91.4430
  605.0000    10.0440     2.4860     0.0260   -47.8840    21.3280    20.0420    12.7820    89.8600
  605.5000     9.9350     2.4790     0.0210   -49.4380    23.7630    24.7030    12.0770    89.2310
  606.0000     9.8270     2.5070     0.0420   -50.9870    25.3930    12.8710    11.5610    88.0350
  606.5000     9.7230     2.4980     0.0380   -52.4920    15.7160    12.2930    10.9100    85.9600
  607.0000     9.6490     2.4870     0.0430   -54.0360    12.7830    11.9590    10.9580    83.8790
  607.5000     9.5870     2.4720     0.0270   -55.5210    11.9750    11.8500    11.0590    83.1370
  608.0000     9.5030     2.4550     0.0190   -55.2540    11.4790    11.9590    11.1610    84.3340
  608.5000     9.4190     2.4620     0.0150   -53.9900    10.9830    12.3980    11.3810    86.3390
  609.0000     9.3360     2.4720     0.0220   -51.8250    10.4880    12.7530    11.7360    88.2880
  609.5000     9.3180     2.4560     0.0190   -50.8260     9.9390    12.6360    12.0690    89.6080
  610.0000     9.3120     2.4620     0.0200   -53.0980     9.3810    12.5260    11.8680    88.2590
  610.5000     9.3050     2.4750     0.0250   -55.8450     8.9650    12.4170    11.6780    87.1100
  611.0000     9.3010     2.4920     0.0360   -58.5550     8.7160    12.3070    11.4880    88.6580
  611.5000     9.2920     2.4800     0.0300   -60.7050     8.4680    12.1970    11.2460    91.8050
  612.0000     9.2830     2.4690     0.0230   -62.6610     8.2190    11.9840    10.9770    92.6770
  612.5000     9.2740     2.4800     0.0260   -64.6780     8.0380    11.6830    10.7080    92.4710
  613.0000     9.2640     2.4970     0.0340   -66.7870     7.8950    11.3830    10.5440    92.1160
  613.5000     9.2030     2.4840     0.0380   -68.1280     7.7510    11.0820    10.4370    91.7070
  614.0000     9.1360     2.4930     0.0310   -68.9730     7.5640    10.7810    10.3290    90.9400
  614.5000     9.0680     2.5090     0.0420   -69.8220     7.5940    10.4670    10.2220    90.4050
  615.0000     9.0720     2.4760     0.0230   -70.1910     7.6520    10.1360    10.1150    90.4220
  615.5000     9.0810     2.4640     0.0120   -70.4430     7.7110     9.8050    10.0080    90.4260
  616.0000     9.0890     2.4730     0.0160   -70.6910     7.7670     9.4740     9.9010    91.1260
  616.5000     9.0970     2.4800     0.0150   -71.2720     7.5400     9.1440     9.6630    92.2560
  617.0000     9.1040     2.4670     0.0160   -72.0800     7.3200     8.8130     9.3510    92.4410
  617.5000     9.0810     2.4740     0.0260   -72.7710     7.0210     8.4820     9.0380    94.2820
  618.0000     9.0560     2.4890     0.0370   -72.5820     6.1500     7.8570     8.7260    93.8850
  618.5000     9.0460     2.5010     0.0340   -72.4030     5.3040     7.0580     8.4140    93.0230
  619.0000     9.0460     2.4800     0.0270   -72.6590     4.7530     6.2600     7.9460    95.3110
  619.5000     9.0460     2.4620     0.0230   -72.8980     4.6020     5.3700     7.2560    98.7520
  620.0000     9.0430     2.4510     0.0310   -73.4880     5.0670     5.5340     5.9090   102.0110
  620.5000     9.1150     2.4390     0.0370   -74.1790     5.5220     5.8610     4.0800   102.8000
  621.0000     9.1700     2.4270     0.0340   -74.8740     5.9780     6.3490     4.2230   102.3600
  621.5000     9.2120     2.4220     0.0610   -75.5680     6.6640     7.4190     5.4120   102.0360
  622.0000     9.2520     2.4480     0.0780   -76.2580     7.4010     8.4880     6.1220    99.2240
  622.5000     9.2630     2.3920     0.0250   -76.7420     8.1320     9.3330     6.6090    95.9790
  623.0000     9.1710     2.4130     0.0070   -76.7320     8.0580     9.0730     7.2270    93.1210
  623.5000     9.0820     2.4470     0.0190   -76.7270     8.7100     8.8580     7.8450    93.4290
  624.0000     8.9930     2.4820     0.0280   -76.9680     9.5190     8.6430     8.4630    93.2920
  624.5000     8.9460     2.4870     0.0240   -77.2950    10.3250     8.5140     9.0790    92.3080
  625.0000     8.9430     2.4830     0.0160   -77.6250    10.2470     8.5420     9.1450    92.8570
  625.5000     8.9400     2.4850     0.0120   -77.9860    10.1490     8.5650     9.2100    94.1850
  626.0000     8.9380     2.4740     0.0220   -78.2030    10.0510     8.5880     9.2750    95.5200
  626.5000     8.9350     2.4820     0.0180   -78.1510     9.9530     8.7260     9.3400    96.8810
  627.0000     8.9330     2.4950     0.0250   -77.7790    10.1700     8.9500     9.4060    96.9440
  627.5000     8.9310     2.5050     0.0310   -77.2500    10.5360     9.1740    10.6130    97.1220
  628.0000     8.9280     2.4990     0.0250   -76.7270    11.0250     9.3980    10.5770    97.1050
  628.5000     8.9300     2.4930     0.0200   -76.2070    11.5470     9.6220    10.5210    95.5600
  629.0000     8.9400     2.4990     0.0220   -75.9670    12.1810     9.8460    10.6050    94.0310
  629.5000     8.9500     2.4970     0.0210   -75.7690    12.1020    10.0710    10.8340    94.2920
  630.0000     8.9600     2.4900     0.0170   -75.5710    11.9590    10.2950    11.0630    95.2020
  630.5000     8.9700     2.4870     0.0170   -75.3750    12.0550    10.5190    11.2930    95.8130
  631.0000     8.9800     2.4870     0.0180   -75.5460    12.2200    10.6700    11.5280    94.7830
  631.5000     8.9810     2.4820     0.0130   -75.7760    12.3850    10.7690    11.6340    94.2590
  632.0000     8.9680     2.4880     0.0180   -76.0080    12.5500    10.8680    11.7420    94.4910
  632.5000     8.9550     2.4990     0.0250   -76.2560    12.7150    10.9440    11.8510    93.9510
  633.0000     8.9420     2.5100     0.0300   -76.5270    12.7530    11.0040    11.9600    92.5200
  633.5000     8.9290     2.5120     0.0270   -76.8680    12.7530    11.0640    12.0680    91.4760
  634.0000     8.9170     2.5060     0.0220   -77.4730    12.7530    11.1240    12.1810    92.7000
  634.5000     8.9070     2.5030     0.0180   -78.0730    12.7530    11.1840    12.1580    93.1810
