~VERSION INFORMATION
 VERS.                2.0:   CWLS LOG ASCII STANDARD - VERSION 2.0
 WRAP.                 NO:   ONE LINE PER DEPTH STEP
~WELL INFORMATION
#MNEM.UNIT      DATA TYPE    INFORMATION
#----------   ------------   ------------------------------
 STRT.F          594.5000:   START DEPTH
 STOP.F         3015.5000:   STOP DEPTH
 STEP.F            0.5000:   STEP LENGTH
 NULL.          -999.2500:   NO VALUE
 COMP.    FENIX & SCISSON:   COMPANY
 WELL.  FENIX "AX" #35-34:   WELL
 FLD .             NPR #3:   FIELD
 LOC .      S34 T39N R78W:   LOCATION
 CNTY.            NATRONA:   COUNTY
 STAT.            WYOMING:   STATE
 CTRY. UNITED STATES OF AMERICA:   COUNTRY
 SRVC.       SCHLUMBERGER:   SERVICE COMPANY
 DATE.        14-APR-1977:   LOGDATE
 API .     49025103390000:   API NUMBER
~CURVE INFORMATION
#MNEM.UNIT       API CODE    CURVE DESCRIPTION
#----------   ------------   ------------------------------
 DEPT.F                  :   
 CALD.IN     45 280 60 00:   CALIPER FROM DENSITY LOG
 RHOB.G/C3   45 350 01 00:   BULK DENSITY
 DRHO.G/C3   45 356 01 00:   DENSITY CORRECTION
 SPR .MV     07 010 01 00:   SPONTANEOUS POTENTIAL
 RILM.OHMM   07 120 44 00:   INDUCTION LOG MEDIUM RESISTIVITY
 RILD.OHMM   07 120 46 00:   DEEP INDUCTION RESISTIVITY
 LL8 .OHMM   07 220 08 00:   LATEROLOG-8 RES.
 GRD .GAPI   45 310 01 00:   GAMMA RAY FROM DENSITY LOG
~PARAMETER INFORMATION
#MNEM.UNIT          VALUE    DESCRIPTION
#----------   ------------   ------------------------------
 EKB .F         5116.0000:   Kelly bushing
 EGL .F         5104.0000:   Ground level
 EDF .F            0.0000:   Drilling floor
 TD  .F         3017.0000:   Total depth
 DATE.        14-APR-1977:   Date logged
 CLNT.            A2DTECH:   Client Code
 SL  . 2311' FSL & 1550' FWL:   Surface Location
 PD  .                 GL:   Permanent Datum
 EPD .F              5104:   Elevation Permanent Datum
 LMF .                 KB:   Log Measured From
 DMF .                 KB:   Drilling Measured From
 DAPD.F                12:   Feet Above Permanent Datum
 DD  .F              3012:   Depth driller
 DL  .F              3017:   Depth logger
 BLI .F              3011:   Bottom log interval
 TLI .F               600:   Top log interval
 CS1 .IN            8.625:   Casing size
 CBD1.      8.625" @ 601':   Casing driller 1
 CBL1.F               600:   Casing logger 1
 BS1 .IN            7.875:   Bit size
 BSD1.F              3012:   Depth drilled with bit1
 DFT .                FGM:   Type fluid in hole
 DFD .                9.2:   Density
 DFV .                 29:   Viscosity
 MSS .           FLOWLINE:   Source of sample
 RMS .OHMM          0.206:   Rm
 MST .F                60:   Rm Meas. temp.
 RMF .OHMM          0.192:   Rmf
 MFST.F                60:   Rmf Meas. temp.
 MFSS.               MEAS:   Source Rmf.
 RMB .OHMM          0.109:   Rm. at BHT
 BHT .F               113:   BHT.
 TLAB.HRS            0200:   Time logger at bottom
 MRT .F               113:   Maximum recorded temp.
 LUN .               7711:   Logging unit number
 LUL .               CSPR:   Logging unit location
 ENGI.             GEIGER:   Recorded By
 WITN.         PETTINGILL:   Witnessed by
 ORIG.           5" PRINT:   Origin of data
 UWI .     49025103390000:   Unique Well ID
 DICO. A2D TECHNOLOGIES, INC.:   Digitizing Company
~OTHER INFORMATION
~A   DEPT     CALD       RHOB       DRHO        SPR       RILM       RILD        LL8         GRD  
# ...
 1242.5000    10.0250     2.5230     0.0400   -78.3450     6.8790     6.6920     7.2260   109.7860
 1243.0000    10.0640     2.5120     0.0370   -78.9740     6.8710     6.6550     7.2330   108.8400
 1243.5000    10.1040     2.4990     0.0280   -79.5990     6.8630     6.6180     7.2410   109.1410
 1244.0000    10.1450     2.4950     0.0190   -80.2220     6.8540     6.5840     7.2480   109.4170
 1244.5000    10.1750     2.4920     0.0160   -81.1110     6.8460     6.5680     7.2550   108.1790
 1245.0000    10.1580     2.4970     0.0190   -82.0410     6.8380     6.5510     7.2620   106.6930
 1245.5000    10.1420     2.5100     0.0180   -82.9940     6.8300     6.5330     7.2700   106.5870
 1246.0000    10.1280     2.5220     0.0490   -83.7540     6.8120     6.5150     7.2770   108.3770
 1246.5000    10.1250     2.5160     0.0420   -84.4800     6.7960     6.4980     7.2830   110.4850
 1247.0000    10.1550     2.5040     0.0330   -85.1120     6.7790     6.4800     7.2580   109.8920
 1247.5000    10.1680     2.4920     0.0230   -85.0440     6.7620     6.4640     7.2340   108.8460
 1248.0000    10.1340     2.4800     0.0120   -84.7430     6.7460     6.4390     7.2100   108.7630
 1248.5000    10.1010     2.4740     0.0180   -84.3390     6.7290     6.4160     7.1870   112.7170
 1249.0000    10.1130     2.4850     0.0140   -83.9420     6.7130     6.3930     7.1630   114.3920
 1249.5000    10.1310     2.4930     0.0200   -83.5450     6.6960     6.3700     7.1390   112.0710
 1250.0000    10.1490     2.4860     0.0140   -83.1490     6.6790     6.3460     7.1160   110.0840
 1250.5000    10.1670     2.4820     0.0160   -82.7500     6.6630     6.3230     7.0920   111.0710
 1251.0000    10.1760     2.5020     0.0250   -82.3450     6.6450     6.3000     7.0680   112.0490
 1251.5000    10.1770     2.5090     0.0340   -81.8790     6.6290     6.2770     7.0440   110.7150
 1252.0000    10.1770     2.4940     0.0290   -81.4050     6.6120     6.2540     7.0210   110.2340
 1252.5000    10.1770     2.4990     0.0290   -81.4090     6.5950     6.2310     6.9970   110.4610
 1253.0000    10.1790     2.4940     0.0280   -81.5680     6.5780     6.2080     6.9730   110.5150
 1253.5000    10.1850     2.4950     0.0120   -81.6830     6.5610     6.1850     6.9500   109.5150
 1254.0000    10.1900     2.4960     0.0120   -81.6890     6.5440     6.1620     6.9260   109.5250
 1254.5000    10.1960     2.4850     0.0120   -82.1130     6.5270     6.1390     6.9020   110.7560
 1255.0000    10.1880     2.4750     0.0090   -82.5830     6.5100     6.1150     6.8780   110.7440
 1255.5000    10.1780     2.4840     0.0120   -83.0540     6.4930     6.0920     6.8550   112.0170
 1256.0000    10.2010     2.4950     0.0240   -83.5120     6.4760     6.0690     6.8310   113.4460
 1256.5000    10.2150     2.5070     0.0290   -83.8930     6.4590     6.0460     6.8070   113.8120
 1257.0000    10.2100     2.5270     0.0460   -84.2750     6.4420     6.0230     6.7840   112.9950
 1257.5000    10.2060     2.5330     0.0430   -84.4760     6.4250     6.0000     6.7600   109.3030
 1258.0000    10.2010     2.5210     0.0340   -84.5180     6.4080     5.9770     6.7360   106.8560
 1258.5000    10.1970     2.5100     0.0300   -84.5600     6.3910     5.9540     6.7120   106.5740
 1259.0000    10.2070     2.5050     0.0310   -84.6010     6.3740     5.9310     6.6890   107.5100
 1259.5000    10.2170     2.5130     0.0330   -84.6460     6.3570     5.8970     6.6650   109.2930
 1260.0000    10.2270     2.5100     0.0290   -84.5280     6.3400     5.9660     6.6470   112.1320
 1260.5000    10.2370     2.5150     0.0210   -84.2340     6.3230     6.0080     6.7190   115.0320
 1261.0000    10.2460     2.5100     0.0230   -83.8320     6.3060     6.0500     6.7850   117.6810
 1261.5000    10.2570     2.5050     0.0160   -83.4280     6.2880     6.0920     6.8500   116.7970
 1262.0000    10.2860     2.4990     0.0130   -83.0240     6.3890     6.1340     6.9250   114.0430
 1262.5000    10.3420     2.5090     0.0300   -82.6220     6.4950     6.1760     7.0170   111.7200
 1263.0000    10.4140     2.5220     0.0360   -82.1790     6.6010     6.2180     7.1090   111.6610
 1263.5000    10.4210     2.5250     0.0270   -81.6110     6.7070     6.2600     7.2000   110.7570
 1264.0000    10.3480     2.5190     0.0310   -81.0200     6.8130     6.3020     7.2920   108.5120
 1264.5000    10.2750     2.5110     0.0220   -80.9360     6.9190     6.3460     7.3840   106.4560
 1265.0000    10.2020     2.5020     0.0220   -80.9870     7.0250     6.4100     7.4760   105.1150
 1265.5000    10.1280     2.5000     0.0280   -81.0430     7.1310     6.4940     7.5670   103.2320
 1266.0000    10.0580     2.5050     0.0270   -81.1620     7.2840     6.5780     7.6200   104.1900
 1266.5000    10.0230     2.5170     0.0340   -81.6080     7.2620     6.6620     7.5560   106.0390
 1267.0000     9.9900     2.5280     0.0310   -82.0560     7.2220     6.7460     7.5050   106.7430
 1267.5000     9.9790     2.5150     0.0290   -82.4990     7.1830     6.8300     7.4540   107.4440
 1268.0000     9.9830     2.5080     0.0100   -82.8990     7.1510     6.9140     7.4030   108.7260
 1268.5000     9.9880     2.5030     0.0140   -82.9810     7.2540     6.9980     7.3510   110.0860
 1269.0000     9.9920     2.4970     0.0060   -83.0730     7.3430     7.0820     7.5400   109.5980
 1269.5000     9.9970     2.5060     0.0060   -83.1660     7.4310     7.1590     7.7340   108.1420
 1270.0000     9.9770     2.5150     0.0260   -83.2590     7.5190     7.2010     7.9290   105.6840
 1270.5000     9.9450     2.5090     0.0200   -83.3530     7.6070     7.2430     8.1230   103.1030
 1271.0000     9.9110     2.4980     0.0130   -83.4540     7.6950     7.2850     8.3590   103.1140
 1271.5000     9.9060     2.4860     0.0150   -83.2240     7.7760     7.3280     8.3470   104.5950
 1272.0000     9.9190     2.4830     0.0150   -82.9210     7.8210     7.3700     8.3320   105.6310
 1272.5000     9.8460     2.4920     0.0160   -82.5520     7.8670     7.4120     8.3170   104.3920
 1273.0000     9.7610     2.5020     0.0170   -81.9280     7.9120     7.4550     8.3010   103.8520
 1273.5000     9.7100     2.5040     0.0070   -81.3020     7.9580     7.4970     8.2830   104.3290
 1274.0000     9.6760     2.4890     0.0030   -80.6770     8.0030     7.5390     8.3790   103.2730
 1274.5000     9.6390     2.4860     0.0080   -80.1960     8.0490     7.5980     8.5010    99.9900
 1275.0000     9.6340     2.4940     0.0170   -79.9510     8.1370     7.6680     8.6230    99.8390
 1275.5000     9.6280     2.4950     0.0180   -79.7040     8.2370     7.7380     8.7440    99.9030
 1276.0000     9.6230     2.5040     0.0280   -79.4910     8.3360     7.8080     8.8660    99.9150
 1276.5000     9.6050     2.5130     0.0210   -79.4550     8.4350     7.8780     8.9330    98.9370
 1277.0000     9.5790     2.5030     0.0160   -79.4140     8.5220     7.9480     8.9640    99.0640
 1277.5000     9.5520     2.5040     0.0330   -79.3730     8.5580     8.0180     8.9950    99.2650
 1278.0000     9.5500     2.4940     0.0220   -79.3340     8.5940     8.0880     9.0270    99.4670
 1278.5000     9.5620     2.4930     0.0290   -79.4880     8.6310     8.1580     9.0580    99.5180
 1279.0000     9.5760     2.5010     0.0360   -79.9310     8.6670     8.2280     9.0890    99.5880
 1279.5000     9.5540     2.5100     0.0410   -80.3720     8.7030     8.2840     9.1200    99.6560
 1280.0000     9.5100     2.5140     0.0300   -80.8100     8.7390     8.2910     9.1520    99.8060
 1280.5000     9.4840     2.4990     0.0190   -81.0420     8.7760     8.2980     9.1630   100.4920
 1281.0000     9.4890     2.5030     0.0220   -81.2260     8.8120     8.3050     9.1630   103.9610
 1281.5000     9.4950     2.5100     0.0120   -81.4090     8.8380     8.3120     9.1630   105.1690
 1282.0000     9.5000     2.5140     0.0190   -81.5920     8.8500     8.3180     9.1630   103.2590
 1282.5000     9.4980     2.5060     0.0180   -81.7730     8.8620     8.3250     9.1630   101.3860
