~VERSION INFORMATION
 VERS.                2.0:   CWLS LOG ASCII STANDARD - VERSION 2.0
 WRAP.                 NO:   ONE LINE PER DEPTH STEP
~WELL INFORMATION
#MNEM.UNIT      DATA TYPE    INFORMATION
#----------   ------------   ------------------------------
 STRT.F          210.0000:   START DEPTH
 STOP.F         2955.0000:   STOP DEPTH
 STEP.F            0.5000:   STEP LENGTH
 NULL.          -999.2500:   NO VALUE
 COMP.    FENIX & SCISSON:   COMPANY
 WELL.     FENIX A #54-28:   WELL
 FLD .                NPR:   FIELD
 LOC .      S28 T39N R78W:   LOCATION
 CNTY.            NATRONA:   COUNTY
 STAT.            WYOMING:   STATE
 CTRY. UNITED STATES OF AMERICA:   COUNTRY
 SRVC.              WELEX:   SERVICE COMPANY
 DATE.        17-MAY-1977:   LOGDATE
 API .     49025103650000:   API NUMBER
~CURVE INFORMATION
#MNEM.UNIT       API CODE    CURVE DESCRIPTION
#----------   ------------   ------------------------------
 DEPT.F                  :   
 SPR .MV     07 010 01 00:   SPONTANEOUS POTENTIAL
 RILM.OHMM   07 120 44 00:   INDUCTION LOG MEDIUM RESISTIVITY
 RILD.OHMM   07 120 46 00:   INDUCTION LOG DEEP RESISTIVITY
 SGRD.OHMM   07 220 05 00:   SHALLOW GUARD LOG RESISTIVITY
 CALD.IN     45 280 60 00:   CALIPER FROM DENSITY LOG
 RHOB.G/C3   45 350 01 00:   BULK DENSITY
 DCOR.G/C3   45 356 01 00:   DENSITY CORRECTION
 GRD .GAPI   45 310 01 00:   GAMMA RAY FROM DENSITY LOG
~PARAMETER INFORMATION
#MNEM.UNIT          VALUE    DESCRIPTION
#----------   ------------   ------------------------------
 EKB .F         5045.0000:   Kelly bushing
 EGL .F         5035.0000:   Ground level
 EDF .F            0.0000:   Drilling floor
 EPD .F         5035.0000:   Permanent datum
 TD  .F         2956.0000:   Total depth
 DATE.        17-MAY-1977:   Date logged
 CLNT.            A2DTECH:   Client Code
 SL  . 2310' FNL & 2310' FEL:   Surface Location
 PD  .                 GL:   Permanent Datum
 LMF .                 KB:   Log Measured From
 DMF .                 KB:   Drilling Measured From
 DAPD.F                10:   Feet Above Permanent Datum
 DD  .F              2947:   Depth driller
 DL  .F              2956:   Depth logger
 BLI .F              2954:   Bottom log interval
 TLI .F               210:   Top log interval
 CS1 .IN            8.625:   Casing size
 CBD1.      8.625" @ 200':   Casing driller 1
 CBL1.F               216:   Casing logger 1
 BS1 .IN            7.875:   Bit size
 BSD1.F              2947:   Depth drilled with bit1
 DFT .            KCL MUD:   Type fluid in hole
 DFD .                  9:   Density
 DFV .                 32:   Viscosity
 DFPH.                7.5:   pH
 DFL .                5.3:   Fluid loss
 MSS .           FLOWLINE:   Source of sample
 RMS .OHMM            .18:   Rm
 MST .F                84:   Rm Meas. temp.
 RMF .OHMM            .16:   Rmf
 MFST.F                84:   Rmf Meas. temp.
 RMC .OHMM            .62:   Rmc
 MCST.F                84:   Rmc Meas. temp.
 RMB .OHMM            .12:   Rm. at BHT
 BHT .F               124:   BHT.
 TCS .HRS               2:   Time Circ. stopped
 MRT .F               124:   Maximum recorded temp.
 LUN .               9685:   Logging unit number
 LUL .           BRIGHTON:   Logging unit location
 ENGI.           T JOYNER:   Recorded By
 WITN.      W. PETTINGILL:   Witnessed by
 ORIG.           5" PRINT:   Origin of data
 UWI .     49025103650000:   Unique Well ID
 DICO. A2D TECHNOLOGIES, INC.:   Digitizing Company
~OTHER INFORMATION
~A   DEPT      SPR       RILM        RILD        SGRD       CALD       RHOB      DCOR        GRD  
# ...
 2032.5000   -48.0290    12.3070     8.3960    14.4680     8.0490     2.4270     0.0310    94.6540
 2033.0000   -47.9040    11.7540     8.3540    14.6140     8.0500     2.4370     0.0310    95.1910
 2033.5000   -47.8200    11.3410     8.2920    14.2540     8.0500     2.4470     0.0310    98.5870
 2034.0000   -47.8270    11.0500     8.2300    13.8700     8.0510     2.4420     0.0310    98.8100
 2034.5000   -47.9490    10.7590     8.1680    13.4860     8.0520     2.4370     0.0310    98.2380
 2035.0000   -48.0690    10.4950     8.1060    13.1010     8.0520     2.4320     0.0310    95.8910
 2035.5000   -48.1940    10.2410     8.0440    12.7170     8.0530     2.4260     0.0260    93.6850
 2036.0000   -48.3160     9.9880     7.9820    12.4730     8.0540     2.4210     0.0230    91.3270
 2036.5000   -48.4400     9.5580     7.9200    12.2850     8.0540     2.4160     0.0190    89.0940
 2037.0000   -48.5630     9.6200     7.8580    12.0970     8.0550     2.4160     0.0150    86.9580
 2037.5000   -48.6850     9.8230     7.8020    11.9280     8.0560     2.4150     0.0150    87.3300
 2038.0000   -48.8080    10.0260     7.8020    12.1510     8.0560     2.4150     0.0150    87.7630
 2038.5000   -48.9320    10.2910     7.8020    13.5740     8.0570     2.4160     0.0150    88.3140
 2039.0000   -49.0540    10.1840     7.8020    13.5150     8.0580     2.4160     0.0150    88.7840
 2039.5000   -49.1780    10.0290     7.8020    13.3100     8.0580     2.4200     0.0150    89.2640
 2040.0000   -49.3020     9.9180     7.8020    13.0820     8.0590     2.4250     0.0160    89.8410
 2040.5000   -49.4040     9.2800     7.8020    12.5900     8.0600     2.4300     0.0170    89.5170
 2041.0000   -49.4400     8.9330     7.5820    12.0310     8.0600     2.4340     0.0190    88.4420
 2041.5000   -49.4710     8.7700     7.3770    11.4720     8.0600     2.4390     0.0200    87.4540
 2042.0000   -49.5020     8.6040     7.1730    11.0430     8.0570     2.4430     0.0210    86.4980
 2042.5000   -49.5320     8.4370     6.9680    10.6790     8.0540     2.4480     0.0220    85.4790
 2043.0000   -49.5630     8.2460     6.7630    10.3140     8.0520     2.4520     0.0230    85.7910
 2043.5000   -49.5940     7.9470     6.5590     9.9500     8.0490     2.4570     0.0240    86.6920
 2044.0000   -49.6250     8.2660     6.4550     9.3840     8.0460     2.4610     0.0250    87.5680
 2044.5000   -49.6560     8.7550     6.3810     9.4480     8.0440     2.4630     0.0260    88.4170
 2045.0000   -49.6860     9.2440     6.4030     9.6300     8.0410     2.4630     0.0270    89.2950
 2045.5000   -49.7170     9.7320     6.5460     9.9180     8.0380     2.4580     0.0260    90.1920
 2046.0000   -49.7480    10.2210     6.6890    11.2780     8.0360     2.4540     0.0240    90.5440
 2046.5000   -49.7790    10.7100     6.8310    13.0820     8.0330     2.4480     0.0230    89.6070
 2047.0000   -49.8090    11.4960     6.9740    12.9490     8.0300     2.4430     0.0210    88.7110
 2047.5000   -49.8400    11.2480     7.1140    12.6080     8.0270     2.4370     0.0200    87.7780
 2048.0000   -49.8710    10.6610     6.9020    12.1000     8.0250     2.4310     0.0180    86.8390
 2048.5000   -49.9020    10.0740     6.6930    11.2790     8.0220     2.4260     0.0170    85.9430
 2049.0000   -49.9320     9.4870     6.4840    10.4590     8.0210     2.4200     0.0150    85.1750
 2049.5000   -49.9630     8.9000     6.2760     9.6380     8.0230     2.4140     0.0160    85.2270
 2050.0000   -49.9940     8.3120     6.0250     8.8180     8.0260     2.4080     0.0170    85.4800
 2050.5000   -50.0250     7.7250     5.9820     7.9970     8.0280     2.4040     0.0180    88.7690
 2051.0000   -50.0550     7.2470     5.9280     7.6590     8.0310     2.4060     0.0190    91.4390
 2051.5000   -50.0860     7.1770     5.8740     7.8330     8.0330     2.4100     0.0200    94.6150
 2052.0000   -50.1170     7.1170     5.8160     8.2930     8.0360     2.4140     0.0210    94.7780
 2052.5000   -50.1470     7.0580     5.8320    10.2910     8.0380     2.4180     0.0220    92.8360
 2053.0000   -50.1810     6.9990     5.8650    10.1030     8.0410     2.4220     0.0230    91.2000
 2053.5000   -50.1920     6.8210     5.8980    10.4830     8.0440     2.4160     0.0220    89.5500
 2054.0000   -50.1640     6.6020     5.9310     9.8910     8.0460     2.4050     0.0180    87.6700
 2054.5000   -50.1410     6.3680     5.9630     8.7160     8.0490     2.3990     0.0150    87.1300
 2055.0000   -50.1160     6.5240     5.9960     8.9440     8.0510     2.4000     0.0110    88.4180
 2055.5000   -50.0910     6.6930     6.0290     9.2120     8.0540     2.4000     0.0080    89.4370
 2056.0000   -50.0670     6.8610     6.0620     9.3840     8.0560     2.4010     0.0040    90.6810
 2056.5000   -50.0420     7.0290     6.0950     9.5190     8.0590     2.4010     0.0010    91.1430
 2057.0000   -50.0180     7.3680     6.1270     9.9730     8.0580     2.3950    -0.0020    91.6080
 2057.5000   -49.9930     7.9470     6.2480    10.4830     8.0540     2.3880    -0.0040    94.0980
 2058.0000   -49.9680     8.3660     6.4100    11.2920     8.0500     2.3890    -0.0060    97.2460
 2058.5000   -49.9440     8.9450     6.5710    12.2130     8.0460     2.3910    -0.0070   100.1440
 2059.0000   -49.9190     9.8070     6.7330    13.0820     8.0420     2.3930    -0.0090    99.3870
 2059.5000   -49.8950    10.6690     6.8940    13.0820     8.0380     2.3960    -0.0050    97.3130
 2060.0000   -49.8700    11.4960     7.1140    12.1390     8.0340     2.4030    -0.0020    95.4150
 2060.5000   -49.8450    11.2570     7.0890    11.2860     8.0300     2.4210     0.0020    93.4950
 2061.0000   -49.8210    11.0270     7.0490    11.2860     8.0260     2.4380     0.0060    91.6000
 2061.5000   -49.7960    10.7970     7.0090    11.2860     8.0220     2.4550     0.0090    89.7120
 2062.0000   -49.7720    10.5670     6.9690    11.1100     8.0180     2.4720     0.0130    87.7540
 2062.5000   -49.7470    10.2910     6.9290    10.8950     8.0150     2.4890     0.0150    85.9430
 2063.0000   -49.7220     9.9790     6.8890    10.6780     8.0110     2.5070     0.0150    83.7810
 2063.5000   -49.6980     9.5890     6.8560    10.8450     8.0070     2.5080     0.0150    83.5190
 2064.0000   -49.6730     9.1990     6.9410    11.1300     8.0030     2.4950     0.0150    83.3490
 2064.5000   -49.6490     8.8090     7.0130    11.4140     7.9990     2.4800     0.0150    83.2670
 2065.0000   -49.6240     8.4190     7.0840    11.7100     7.9950     2.4770     0.0150    83.1200
 2065.5000   -49.5990     8.2120     7.1560    11.5360     7.9910     2.4870     0.0150    83.0050
 2066.0000   -49.5750     8.1490     7.2270    11.0790     7.9870     2.4960     0.0150    82.8570
 2066.5000   -49.5500     8.0960     7.2990    11.2190     7.9830     2.5090     0.0150    82.9640
 2067.0000   -49.5260     8.0120     7.3700    11.4960     7.9800     2.5030     0.0150    83.4200
 2067.5000   -49.5010     7.9470     7.4420    11.3990     7.9800     2.4850     0.0150    83.8880
 2068.0000   -49.4770     8.1910     7.5190    11.2860     7.9800     2.4760     0.0150    84.3910
 2068.5000   -49.4510     8.5310     7.4630    11.9620     7.9800     2.4620     0.0150    86.6820
 2069.0000   -49.4270     9.0440     7.4020    13.0820     7.9800     2.4670     0.0150    89.5200
 2069.5000   -49.4080     8.7540     7.3400    12.7920     7.9800     2.4750     0.0150    92.2610
 2070.0000   -49.4330     8.1650     7.2790    12.2360     7.9800     2.4800     0.0150    92.7920
 2070.5000   -49.4570     7.5760     7.1510    10.9180     7.9800     2.4790     0.0150    93.1990
 2071.0000   -49.4830     7.2710     6.9490    10.1700     7.9800     2.4780     0.0150    93.6020
 2071.5000   -49.5080     7.1140     6.7470     9.5230     7.9800     2.4770     0.0150    94.2150
 2072.0000   -49.5330     6.9840     6.5450     8.8120     7.9800     2.4720     0.0150    97.8040
 2072.5000   -49.5580     7.0230     6.3430     8.5560     7.9800     2.4610     0.0150   101.4610
