~VERSION INFORMATION
 VERS.                2.0:   CWLS LOG ASCII STANDARD - VERSION 2.0
 WRAP.                 NO:   ONE LINE PER DEPTH STEP
~WELL INFORMATION
#MNEM.UNIT      DATA TYPE    INFORMATION
#----------   ------------   ------------------------------
 STRT.F          210.0000:   START DEPTH
 STOP.F         2955.0000:   STOP DEPTH
 STEP.F            0.5000:   STEP LENGTH
 NULL.          -999.2500:   NO VALUE
 COMP.    FENIX & SCISSON:   COMPANY
 WELL.     FENIX A #54-28:   WELL
 FLD .                NPR:   FIELD
 LOC .      S28 T39N R78W:   LOCATION
 CNTY.            NATRONA:   COUNTY
 STAT.            WYOMING:   STATE
 CTRY. UNITED STATES OF AMERICA:   COUNTRY
 SRVC.              WELEX:   SERVICE COMPANY
 DATE.        17-MAY-1977:   LOGDATE
 API .     49025103650000:   API NUMBER
~CURVE INFORMATION
#MNEM.UNIT       API CODE    CURVE DESCRIPTION
#----------   ------------   ------------------------------
 DEPT.F                  :   
 SPR .MV     07 010 01 00:   SPONTANEOUS POTENTIAL
 RILM.OHMM   07 120 44 00:   INDUCTION LOG MEDIUM RESISTIVITY
 RILD.OHMM   07 120 46 00:   INDUCTION LOG DEEP RESISTIVITY
 SGRD.OHMM   07 220 05 00:   SHALLOW GUARD LOG RESISTIVITY
 CALD.IN     45 280 60 00:   CALIPER FROM DENSITY LOG
 RHOB.G/C3   45 350 01 00:   BULK DENSITY
 DCOR.G/C3   45 356 01 00:   DENSITY CORRECTION
 GRD .GAPI   45 310 01 00:   GAMMA RAY FROM DENSITY LOG
~PARAMETER INFORMATION
#MNEM.UNIT          VALUE    DESCRIPTION
#----------   ------------   ------------------------------
 EKB .F         5045.0000:   Kelly bushing
 EGL .F         5035.0000:   Ground level
 EDF .F            0.0000:   Drilling floor
 EPD .F         5035.0000:   Permanent datum
 TD  .F         2956.0000:   Total depth
 DATE.        17-MAY-1977:   Date logged
 CLNT.            A2DTECH:   Client Code
 SL  . 2310' FNL & 2310' FEL:   Surface Location
 PD  .                 GL:   Permanent Datum
 LMF .                 KB:   Log Measured From
 DMF .                 KB:   Drilling Measured From
 DAPD.F                10:   Feet Above Permanent Datum
 DD  .F              2947:   Depth driller
 DL  .F              2956:   Depth logger
 BLI .F              2954:   Bottom log interval
 TLI .F               210:   Top log interval
 CS1 .IN            8.625:   Casing size
 CBD1.      8.625" @ 200':   Casing driller 1
 CBL1.F               216:   Casing logger 1
 BS1 .IN            7.875:   Bit size
 BSD1.F              2947:   Depth drilled with bit1
 DFT .            KCL MUD:   Type fluid in hole
 DFD .                  9:   Density
 DFV .                 32:   Viscosity
 DFPH.                7.5:   pH
 DFL .                5.3:   Fluid loss
 MSS .           FLOWLINE:   Source of sample
 RMS .OHMM            .18:   Rm
 MST .F                84:   Rm Meas. temp.
 RMF .OHMM            .16:   Rmf
 MFST.F                84:   Rmf Meas. temp.
 RMC .OHMM            .62:   Rmc
 MCST.F                84:   Rmc Meas. temp.
 RMB .OHMM            .12:   Rm. at BHT
 BHT .F               124:   BHT.
 TCS .HRS               2:   Time Circ. stopped
 MRT .F               124:   Maximum recorded temp.
 LUN .               9685:   Logging unit number
 LUL .           BRIGHTON:   Logging unit location
 ENGI.           T JOYNER:   Recorded By
 WITN.      W. PETTINGILL:   Witnessed by
 ORIG.           5" PRINT:   Origin of data
 UWI .     49025103650000:   Unique Well ID
 DICO. A2D TECHNOLOGIES, INC.:   Digitizing Company
~OTHER INFORMATION
~A   DEPT      SPR       RILM        RILD        SGRD       CALD       RHOB      DCOR        GRD  
# ...
 1101.0000   -43.9950    10.1540     9.4710    12.4490     8.2940     2.4730     0.0260    83.6330
 1101.5000   -43.9810    10.2060     9.5600    12.5150     8.2960     2.4780     0.0230    83.1210
 1102.0000   -43.9670    10.2580     9.6480    12.5820     8.2990     2.4830     0.0230    82.6000
 1102.5000   -43.9530    10.2910     9.7360    12.6490     8.3000     2.4790     0.0230    82.0810
 1103.0000   -43.9390    10.7640     9.8250    12.7150     8.3000     2.4740     0.0230    81.5580
 1103.5000   -43.9230    11.2860     9.9180    12.7820     8.3000     2.4790     0.0230    81.0460
 1104.0000   -43.9130    12.1710     9.9320    12.8490     8.3000     2.4700     0.0230    80.5270
 1104.5000   -43.8960    13.1090     9.9470    12.9150     8.2960     2.4770     0.0250    80.3930
 1105.0000   -43.8770    14.0460     9.9620    12.9820     8.2910     2.4870     0.0280    80.3990
 1105.5000   -43.8860    15.4460     9.9770    13.0490     8.2850     2.4990     0.0310    80.4050
 1106.0000   -43.8130    15.1020     9.9910    13.1330     8.2800     2.5100     0.0340    80.3960
 1106.5000   -44.1790    14.4270    10.0060    13.2340     8.2750     2.5150     0.0370    80.4000
 1107.0000   -44.3010    14.0840    10.0210    13.3250     8.2700     2.5110     0.0390    80.4130
 1107.5000   -44.3500    14.3220    10.0360    13.2530     8.2650     2.5080     0.0340    80.3560
 1108.0000   -44.3770    15.4460    10.0500    13.1470     8.2590     2.4930     0.0300    80.8870
 1108.5000   -44.4310    14.8850    10.0650    13.0420     8.2540     2.4860     0.0260    81.9430
 1109.0000   -44.4690    14.0470    10.0800    12.9360     8.2490     2.4890     0.0210    82.9350
 1109.5000   -44.5120    13.0820    10.1030    12.8310     8.2440     2.4900     0.0190    83.9060
 1110.0000   -44.5560    13.0400    10.0560    12.7250     8.2380     2.4920     0.0210    84.9240
 1110.5000   -44.5970    12.9900     9.9510    12.6200     8.2330     2.4940     0.0210    85.0120
 1111.0000   -44.6400    12.9410     9.8460    12.5140     8.2280     2.4920     0.0220    84.7160
 1111.5000   -44.6420    12.8910     9.7410    12.4090     8.2220     2.4900     0.0230    84.4270
 1112.0000   -44.6430    12.8420     9.6370    12.3030     8.2200     2.4870     0.0240    84.6230
 1112.5000   -44.6430    12.7460     9.5320    12.1980     8.2200     2.4850     0.0250    84.8490
 1113.0000   -44.6430    12.5870     9.4270    12.0920     8.2200     2.4830     0.0260    85.0990
 1113.5000   -44.6430    12.4280     9.2960    11.9870     8.2200     2.4810     0.0270    85.3330
 1114.0000   -44.6430    12.2690     9.1480    11.8810     8.2200     2.4780     0.0280    85.5720
 1114.5000   -44.6430    12.1100     8.9990    11.7760     8.2200     2.4800     0.0290    85.8170
 1115.0000   -44.6430    11.9510     8.8510    11.6700     8.2200     2.4840     0.0300    86.0450
 1115.5000   -44.6430    11.7920     8.7020    11.4960     8.2200     2.4870     0.0310    86.2960
 1116.0000   -44.6430    11.6330     8.5540    11.5080     8.2200     2.4900     0.0320    86.5360
 1116.5000   -44.6430    11.4960     8.4060    11.5440     8.2200     2.4860     0.0330    86.7310
 1117.0000   -44.6430    11.4230     8.2460    11.5790     8.2200     2.4830     0.0340    87.4350
 1117.5000   -44.6430    11.3590     8.2780    11.6150     8.2200     2.4800     0.0350    89.0050
 1118.0000   -44.6430    11.2950     8.3130    11.6500     8.2200     2.4760     0.0350    90.5340
 1118.5000   -44.6430    11.2310     8.3480    11.6850     8.2200     2.4770     0.0350    91.2320
 1119.0000   -44.6430    11.1670     8.3820    11.7100     8.2200     2.4790     0.0350    89.9020
 1119.5000   -44.6430    11.1030     8.4650    11.7790     8.2190     2.4810     0.0350    88.6760
 1120.0000   -44.6430    11.0390     8.5980    11.8570     8.2160     2.4810     0.0350    87.1270
 1120.5000   -44.6610    10.9740     8.7310    11.9250     8.2140     2.4800     0.0310    87.9430
 1121.0000   -44.6870    10.8780     8.8640    11.8700     8.2120     2.4790     0.0270    90.0380
 1121.5000   -44.7130    10.9010     9.0440    11.8200     8.2090     2.4710     0.0240    92.1980
 1122.0000   -44.7390    10.9560     9.0030    11.7700     8.2070     2.4640     0.0200    91.6550
 1122.5000   -44.7650    11.0120     8.9400    11.7190     8.2050     2.4560     0.0170    90.8230
 1123.0000   -44.7900    11.0780     8.8780    11.6670     8.2020     2.4530     0.0130    89.8170
 1123.5000   -44.8160    11.0560     8.8150    11.6160     8.2000     2.4560     0.0120    89.6580
 1124.0000   -44.8420    11.0300     8.7530    11.5650     8.1980     2.4620     0.0150    91.1460
 1124.5000   -44.8680    11.0050     8.7160    11.5130     8.1950     2.4680     0.0180    93.0250
 1125.0000   -44.8940    10.9780     8.6370    11.4620     8.1930     2.4750     0.0210    92.0200
 1125.5000   -44.9190    10.9520     8.5590    11.4110     8.1910     2.4800     0.0230    90.5580
 1126.0000   -44.9450    10.9250     8.4800    11.3590     8.1880     2.4870     0.0220    91.1840
 1126.5000   -44.9710    10.8990     8.4000    11.2860     8.1860     2.4840     0.0200    91.2730
 1127.0000   -44.9960    10.8770     8.4640    11.3560     8.1840     2.4780     0.0190    88.5490
 1127.5000   -45.0240    11.0240     8.5300    11.4790     8.1810     2.4730     0.0180    89.5020
 1128.0000   -45.0460    11.4240     8.5960    11.6010     8.1850     2.4680     0.0170    90.5700
 1128.5000   -45.0610    12.0430     8.6620    11.7250     8.1980     2.4620     0.0150    91.8190
 1129.0000   -45.0780    12.6630     8.7280    11.8480     8.2120     2.4570     0.0140    91.8520
 1129.5000   -45.0940    13.2820     8.7940    11.9310     8.2250     2.4530     0.0130    90.0650
 1130.0000   -45.1100    13.8260     8.8600    11.9300     8.2380     2.4500     0.0120    88.2310
 1130.5000   -45.1270    13.4840     8.8880    11.9300     8.2520     2.4570     0.0120    88.4160
 1131.0000   -45.1430    13.1790     8.9020    11.9290     8.2600     2.4650     0.0160    90.2710
 1131.5000   -45.1590    12.8420     8.9150    11.9290     8.2580     2.4740     0.0190    91.9700
 1132.0000   -45.1760    12.8420     8.9290    11.9280     8.2560     2.4830     0.0220    92.2820
 1132.5000   -45.1920    13.4400     8.9430    11.9280     8.2550     2.4850     0.0260    91.8650
 1133.0000   -45.2080    13.9890     8.9560    11.9280     8.2530     2.4760     0.0270    91.4590
 1133.5000   -45.2250    14.6140     8.9700    11.9280     8.2520     2.4690     0.0270    91.0710
 1134.0000   -45.2410    14.7590     8.9840    11.9280     8.2500     2.4600     0.0270    90.3630
 1134.5000   -45.2570    14.8860     8.9970    11.9280     8.2480     2.4580     0.0270    89.1230
 1135.0000   -45.2740    14.8860     9.0110    11.9280     8.2470     2.4640     0.0270    87.8260
 1135.5000   -45.2900    14.8860     9.0250    11.9280     8.2450     2.4690     0.0260    86.6090
 1136.0000   -45.3060    14.8860     9.0400    11.9310     8.2440     2.4650     0.0250    85.3350
 1136.5000   -45.3230    15.2260     9.0180    11.9040     8.2420     2.4600     0.0230    86.1250
 1137.0000   -45.3390    15.5590     8.9700    11.8580     8.2400     2.4540     0.0210    87.0630
 1137.5000   -45.3550    15.8920     8.9240    11.8150     8.2390     2.4540     0.0190    88.1550
 1138.0000   -45.3720    16.2240     8.8790    11.7730     8.2370     2.4680     0.0230    87.9510
 1138.5000   -45.3880    16.5570     8.8430    11.7290     8.2360     2.4810     0.0260    87.1560
 1139.0000   -45.4050    15.8470     8.8070    11.6860     8.2340     2.4890     0.0290    86.2620
 1139.5000   -45.4200    14.8470     8.7720    11.6430     8.2330     2.4950     0.0310    86.8780
 1140.0000   -45.4340    14.6140     8.7360    11.6000     8.2310     2.5050     0.0310    88.3980
 1140.5000   -45.4120    14.6140     8.7000    11.5570     8.2290     2.5110     0.0300    87.4940
 1141.0000   -45.3890    14.3570     8.6650    11.5140     8.2280     2.5050     0.0280    89.5060
