~VERSION INFORMATION
 VERS.                2.0:   CWLS LOG ASCII STANDARD - VERSION 2.0
 WRAP.                 NO:   ONE LINE PER DEPTH STEP
~WELL INFORMATION
#MNEM.UNIT      DATA TYPE    INFORMATION
#----------   ------------   ------------------------------
 STRT.F          210.0000:   START DEPTH
 STOP.F         2955.0000:   STOP DEPTH
 STEP.F            0.5000:   STEP LENGTH
 NULL.          -999.2500:   NO VALUE
 COMP.    FENIX & SCISSON:   COMPANY
 WELL.     FENIX A #54-28:   WELL
 FLD .                NPR:   FIELD
 LOC .      S28 T39N R78W:   LOCATION
 CNTY.            NATRONA:   COUNTY
 STAT.            WYOMING:   STATE
 CTRY. UNITED STATES OF AMERICA:   COUNTRY
 SRVC.              WELEX:   SERVICE COMPANY
 DATE.        17-MAY-1977:   LOGDATE
 API .     49025103650000:   API NUMBER
~CURVE INFORMATION
#MNEM.UNIT       API CODE    CURVE DESCRIPTION
#----------   ------------   ------------------------------
 DEPT.F                  :   
 SPR .MV     07 010 01 00:   SPONTANEOUS POTENTIAL
 RILM.OHMM   07 120 44 00:   INDUCTION LOG MEDIUM RESISTIVITY
 RILD.OHMM   07 120 46 00:   INDUCTION LOG DEEP RESISTIVITY
 SGRD.OHMM   07 220 05 00:   SHALLOW GUARD LOG RESISTIVITY
 CALD.IN     45 280 60 00:   CALIPER FROM DENSITY LOG
 RHOB.G/C3   45 350 01 00:   BULK DENSITY
 DCOR.G/C3   45 356 01 00:   DENSITY CORRECTION
 GRD .GAPI   45 310 01 00:   GAMMA RAY FROM DENSITY LOG
~PARAMETER INFORMATION
#MNEM.UNIT          VALUE    DESCRIPTION
#----------   ------------   ------------------------------
 EKB .F         5045.0000:   Kelly bushing
 EGL .F         5035.0000:   Ground level
 EDF .F            0.0000:   Drilling floor
 EPD .F         5035.0000:   Permanent datum
 TD  .F         2956.0000:   Total depth
 DATE.        17-MAY-1977:   Date logged
 CLNT.            A2DTECH:   Client Code
 SL  . 2310' FNL & 2310' FEL:   Surface Location
 PD  .                 GL:   Permanent Datum
 LMF .                 KB:   Log Measured From
 DMF .                 KB:   Drilling Measured From
 DAPD.F                10:   Feet Above Permanent Datum
 DD  .F              2947:   Depth driller
 DL  .F              2956:   Depth logger
 BLI .F              2954:   Bottom log interval
 TLI .F               210:   Top log interval
 CS1 .IN            8.625:   Casing size
 CBD1.      8.625" @ 200':   Casing driller 1
 CBL1.F               216:   Casing logger 1
 BS1 .IN            7.875:   Bit size
 BSD1.F              2947:   Depth drilled with bit1
 DFT .            KCL MUD:   Type fluid in hole
 DFD .                  9:   Density
 DFV .                 32:   Viscosity
 DFPH.                7.5:   pH
 DFL .                5.3:   Fluid loss
 MSS .           FLOWLINE:   Source of sample
 RMS .OHMM            .18:   Rm
 MST .F                84:   Rm Meas. temp.
 RMF .OHMM            .16:   Rmf
 MFST.F                84:   Rmf Meas. temp.
 RMC .OHMM            .62:   Rmc
 MCST.F                84:   Rmc Meas. temp.
 RMB .OHMM            .12:   Rm. at BHT
 BHT .F               124:   BHT.
 TCS .HRS               2:   Time Circ. stopped
 MRT .F               124:   Maximum recorded temp.
 LUN .               9685:   Logging unit number
 LUL .           BRIGHTON:   Logging unit location
 ENGI.           T JOYNER:   Recorded By
 WITN.      W. PETTINGILL:   Witnessed by
 ORIG.           5" PRINT:   Origin of data
 UWI .     49025103650000:   Unique Well ID
 DICO. A2D TECHNOLOGIES, INC.:   Digitizing Company
~OTHER INFORMATION
~A   DEPT      SPR       RILM        RILD        SGRD       CALD       RHOB      DCOR        GRD  
# ...
 2559.0000   -28.4220    21.4850    14.0160    20.6720     8.1390     2.4550     0.0230    86.4650
 2559.5000   -28.1930    20.3300    13.8520    20.5070     8.1310     2.4670     0.0280    87.8940
 2560.0000   -27.9650    19.1760    13.6870    20.3420     8.1240     2.4620     0.0300    89.4770
 2560.5000   -27.7160    18.0220    13.5230    20.1760     8.1160     2.4520     0.0270    90.8210
 2561.0000   -27.5520    16.3250    13.3590    20.0000     8.1090     2.4430     0.0240    92.0670
 2561.5000   -27.5240    16.7040    13.1940    19.6440     8.1020     2.4340     0.0210    88.5470
 2562.0000   -27.4750    17.4180    13.0550    19.2640     8.1050     2.4240     0.0180    84.1920
 2562.5000   -27.4300    18.1320    12.9720    18.9230     8.1120     2.4200     0.0140    84.9150
 2563.0000   -27.3870    18.8460    12.8880    18.3550     8.1190     2.4150     0.0110    90.2070
 2563.5000   -27.3400    19.5600    12.8040    17.8400     8.1260     2.4080     0.0080    90.2930
 2564.0000   -27.2970    20.3730    12.7210    17.2540     8.1330     2.3990     0.0080    87.2700
 2564.5000   -27.2550    21.5940    12.6080    17.6140     8.1400     2.3910     0.0090    84.8600
 2565.0000   -27.1980    23.0100    12.7460    18.3990     8.1470     2.3820     0.0100    81.9290
 2565.5000   -27.2610    24.4260    12.9610    19.1850     8.1540     2.3940     0.0110    82.8270
 2566.0000   -27.4660    24.9590    13.1760    19.9700     8.1610     2.4080     0.0120    85.9070
 2566.5000   -27.6570    24.9590    13.3900    20.7560     8.1680     2.4220     0.0130    88.9280
 2567.0000   -27.8650    27.4010    13.6050    21.5410     8.1750     2.4290     0.0140    87.9510
 2567.5000   -28.0150    31.4760    13.8190    22.3260     8.1780     2.4330     0.0150    86.6590
 2568.0000   -28.0780    38.1580    14.0340    23.1120     8.1700     2.4390     0.0170    85.1560
 2568.5000   -28.1560    37.2900    14.0840    23.6140     8.1620     2.4470     0.0190    83.8410
 2569.0000   -28.2320    34.8800    14.0840    23.6140     8.1550     2.4550     0.0210    82.4010
 2569.5000   -28.3060    32.4700    14.0840    21.7370     8.1470     2.4640     0.0230    82.2650
 2570.0000   -28.3820    30.0600    14.0840    19.9330     8.1390     2.4640     0.0210    82.7000
 2570.5000   -28.4580    27.8450    14.0840    20.7520     8.1310     2.4530     0.0180    84.3570
 2571.0000   -28.5320    26.0630    13.9350    20.3420     8.1240     2.4420     0.0150    86.5320
 2571.5000   -28.6110    24.2800    13.6400    19.8900     8.1160     2.4310     0.0180    88.8020
 2572.0000   -28.6800    22.4980    13.3440    19.4390     8.1080     2.4210     0.0210    90.8690
 2572.5000   -28.7640    20.7150    13.0480    18.9230     8.1010     2.4330     0.0240    92.9570
 2573.0000   -28.7730    18.9330    12.7520    17.5940     8.1050     2.4450     0.0270    91.0500
 2573.5000   -28.7530    17.9430    12.4560    16.0470     8.1100     2.4400     0.0250    88.9270
 2574.0000   -28.9710    19.4810    12.1610    14.8860     8.1160     2.4330     0.0210    86.6910
 2574.5000   -29.4680    21.0180    11.9570    15.3710     8.1210     2.4260     0.0170    84.4450
 2575.0000   -29.9700    23.6140    12.0900    17.6290     8.1260     2.4190     0.0130    83.5370
 2575.5000   -30.4060    23.2970    12.2220    19.8880     8.1320     2.4130     0.0090    83.6540
 2576.0000   -31.1150    22.2390    12.3550    20.7520     8.1370     2.4170     0.0080    84.4060
 2576.5000   -31.7110    21.0390    12.4880    19.4760     8.1420     2.4340     0.0120    86.1800
 2577.0000   -32.3600    22.2160    12.6210    18.1690     8.1480     2.4500     0.0150    88.4800
 2577.5000   -32.9720    25.4240    12.7540    17.2540     8.1530     2.4660     0.0180    90.7800
 2578.0000   -34.1100    24.6140    12.8420    17.5760     8.1580     2.4820     0.0220    91.8600
 2578.5000   -35.4550    22.1750    12.6650    20.7520     8.1630     2.4980     0.0250    89.8400
 2579.0000   -36.7920    19.7360    12.4730    19.2750     8.1690     2.5140     0.0270    87.9270
 2579.5000   -38.1470    17.2960    12.1730    18.2370     8.1740     2.5300     0.0250    85.7860
 2580.0000   -39.1790    14.8570    11.7640    16.6210     8.1790     2.5470     0.0230    85.6650
 2580.5000   -39.4960    13.2700    11.3540    14.8860     8.1730     2.5480     0.0210    86.4650
 2581.0000   -39.8380    12.6280    10.9440    14.1930     8.1660     2.5400     0.0190    87.9570
 2581.5000   -40.1520    11.9870    10.5350    13.5740     8.1580     2.5330     0.0170    89.9640
 2582.0000   -40.3970    11.5580    10.1250    13.4680     8.1500     2.5260     0.0160    91.8210
 2582.5000   -40.6010    11.7100     9.7160    13.3670     8.1420     2.5030     0.0140    93.6230
 2583.0000   -40.7950    11.0350     9.3890    13.2650     8.1340     2.4990     0.0120    95.6350
 2583.5000   -40.9880    10.7890     9.1140    13.1640     8.1270     2.5030     0.0100    96.0750
 2584.0000   -41.1620    10.5440     8.8390    13.0820     8.1190     2.5060     0.0080    95.1380
 2584.5000   -41.3230    10.2910     8.5560    13.1720     8.1110     2.5100     0.0070    94.3550
 2585.0000   -41.4810    10.3110     8.5090    13.2480     8.1030     2.5050     0.0090    93.5570
 2585.5000   -41.6390    10.3310     8.4610    13.3240     8.0960     2.4990     0.0120    92.7550
 2586.0000   -41.7970    10.3520     8.4130    13.4000     8.0880     2.4950     0.0150    91.9000
 2586.5000   -41.9550    10.3730     8.4410    13.4750     8.0800     2.5050     0.0180    91.7990
 2587.0000   -42.1130    10.3930     8.4970    13.5550     8.0720     2.5150     0.0200    92.2970
 2587.5000   -42.2710    10.4140     8.5520    13.5110     8.0640     2.5260     0.0230    92.7090
 2588.0000   -42.4300    10.4340     8.6080    13.4240     8.0600     2.5260     0.0260    93.1540
 2588.5000   -42.5880    10.4550     8.6640    13.3250     8.0750     2.5270     0.0290    93.5720
 2589.0000   -42.7450    10.4820     8.7150    13.0690     8.0890     2.5270     0.0310    93.9360
 2589.5000   -42.9050    10.4440     8.6770    12.7760     8.1030     2.5280     0.0290    93.3270
 2590.0000   -43.0580    10.3830     8.6410    12.3770     8.1180     2.5310     0.0270    92.7060
 2590.5000   -43.2260    10.3220     8.6050    12.5010     8.1320     2.5380     0.0250    92.0420
 2591.0000   -43.3880    10.2610     8.5680    12.6960     8.1470     2.5450     0.0230    91.4060
 2591.5000   -43.5520    10.2000     8.5320    12.8910     8.1610     2.5440     0.0210    90.7600
 2592.0000   -43.7160    10.1380     8.4960    13.0870     8.1760     2.5380     0.0190    90.1090
 2592.5000   -43.8780    10.0770     8.4600    13.2820     8.1770     2.5330     0.0170    89.4820
 2593.0000   -44.0440    10.0180     8.4230    12.8860     8.1710     2.5270     0.0150    88.8090
 2593.5000   -44.2050     9.9180     8.3870    12.3220     8.1650     2.5210     0.0130    88.1830
 2594.0000   -44.3660     9.9950     8.3510    11.7570     8.1600     2.5150     0.0110    87.6860
 2594.5000   -44.5470    10.2150     8.3140    11.4960     8.1540     2.5090     0.0120    88.0980
 2595.0000   -44.6210    10.4360     8.2780    11.4960     8.1490     2.5040     0.0120    89.4940
 2595.5000   -44.5100    10.6570     8.2460    11.5880     8.1440     2.5030     0.0130    91.9710
 2596.0000   -44.4160    10.8770     8.0950    11.7680     8.1380     2.5020     0.0140    94.2430
 2596.5000   -44.3120    11.0790     8.1090    11.9480     8.1330     2.5010     0.0140    96.5360
 2597.0000   -44.3100    11.1720     8.1370    12.1510     8.1270     2.5010     0.0150    99.0980
 2597.5000   -44.5430    11.2570     8.1650    12.2260     8.1220     2.4980     0.0140   100.1530
 2598.0000   -44.7680    11.3840     8.1930    12.3130     8.1160     2.4920     0.0130    98.8660
 2598.5000   -45.0000    11.5340     8.2210    12.4000     8.1110     2.4870     0.0110    97.8620
 2599.0000   -45.2300    11.7100     8.2490    12.4870     8.1060     2.4820     0.0100    96.7480
