~VERSION INFORMATION
 VERS.                2.0:   CWLS LOG ASCII STANDARD - VERSION 2.0
 WRAP.                 NO:   ONE LINE PER DEPTH STEP
~WELL INFORMATION
#MNEM.UNIT      DATA TYPE    INFORMATION
#----------   ------------   ------------------------------
 STRT.F          594.5000:   START DEPTH
 STOP.F         3015.5000:   STOP DEPTH
 STEP.F            0.5000:   STEP LENGTH
 NULL.          -999.2500:   NO VALUE
 COMP.    FENIX & SCISSON:   COMPANY
 WELL.  FENIX "AX" #35-34:   WELL
 FLD .             NPR #3:   FIELD
 LOC .      S34 T39N R78W:   LOCATION
 CNTY.            NATRONA:   COUNTY
 STAT.            WYOMING:   STATE
 CTRY. UNITED STATES OF AMERICA:   COUNTRY
 SRVC.       SCHLUMBERGER:   SERVICE COMPANY
 DATE.        14-APR-1977:   LOGDATE
 API .     49025103390000:   API NUMBER
~CURVE INFORMATION
#MNEM.UNIT       API CODE    CURVE DESCRIPTION
#----------   ------------   ------------------------------
 DEPT.F                  :   
 CALD.IN     45 280 60 00:   CALIPER FROM DENSITY LOG
 RHOB.G/C3   45 350 01 00:   BULK DENSITY
 DRHO.G/C3   45 356 01 00:   DENSITY CORRECTION
 SPR .MV     07 010 01 00:   SPONTANEOUS POTENTIAL
 RILM.OHMM   07 120 44 00:   INDUCTION LOG MEDIUM RESISTIVITY
 RILD.OHMM   07 120 46 00:   DEEP INDUCTION RESISTIVITY
 LL8 .OHMM   07 220 08 00:   LATEROLOG-8 RES.
 GRD .GAPI   45 310 01 00:   GAMMA RAY FROM DENSITY LOG
~PARAMETER INFORMATION
#MNEM.UNIT          VALUE    DESCRIPTION
#----------   ------------   ------------------------------
 EKB .F         5116.0000:   Kelly bushing
 EGL .F         5104.0000:   Ground level
 EDF .F            0.0000:   Drilling floor
 TD  .F         3017.0000:   Total depth
 DATE.        14-APR-1977:   Date logged
 CLNT.            A2DTECH:   Client Code
 SL  . 2311' FSL & 1550' FWL:   Surface Location
 PD  .                 GL:   Permanent Datum
 EPD .F              5104:   Elevation Permanent Datum
 LMF .                 KB:   Log Measured From
 DMF .                 KB:   Drilling Measured From
 DAPD.F                12:   Feet Above Permanent Datum
 DD  .F              3012:   Depth driller
 DL  .F              3017:   Depth logger
 BLI .F              3011:   Bottom log interval
 TLI .F               600:   Top log interval
 CS1 .IN            8.625:   Casing size
 CBD1.      8.625" @ 601':   Casing driller 1
 CBL1.F               600:   Casing logger 1
 BS1 .IN            7.875:   Bit size
 BSD1.F              3012:   Depth drilled with bit1
 DFT .                FGM:   Type fluid in hole
 DFD .                9.2:   Density
 DFV .                 29:   Viscosity
 MSS .           FLOWLINE:   Source of sample
 RMS .OHMM          0.206:   Rm
 MST .F                60:   Rm Meas. temp.
 RMF .OHMM          0.192:   Rmf
 MFST.F                60:   Rmf Meas. temp.
 MFSS.               MEAS:   Source Rmf.
 RMB .OHMM          0.109:   Rm. at BHT
 BHT .F               113:   BHT.
 TLAB.HRS            0200:   Time logger at bottom
 MRT .F               113:   Maximum recorded temp.
 LUN .               7711:   Logging unit number
 LUL .               CSPR:   Logging unit location
 ENGI.             GEIGER:   Recorded By
 WITN.         PETTINGILL:   Witnessed by
 ORIG.           5" PRINT:   Origin of data
 UWI .     49025103390000:   Unique Well ID
 DICO. A2D TECHNOLOGIES, INC.:   Digitizing Company
~OTHER INFORMATION
~A   DEPT     CALD       RHOB       DRHO        SPR       RILM       RILD        LL8         GRD  
# ...
 2498.0000    10.7330     2.3370     0.0650   -40.7990     7.0820    11.0640     8.6130    84.8780
 2498.5000    10.7190     2.3480     0.1130   -40.0600     6.9810    10.6320     8.6530    88.4810
 2499.0000    10.7320     2.3570     0.1490   -39.3170     6.8790    10.2000     8.7520    88.5640
 2499.5000    10.7450     2.3650     0.1850   -38.5450     6.7770     9.7680     8.3430    89.1310
 2500.0000    10.7470     2.3220     0.1150   -38.1440     6.7060     9.3360     7.8930    89.8580
 2500.5000    10.7360     2.2940     0.0230   -37.7440     6.9800     8.9040     7.4870    90.7590
 2501.0000    10.7260     2.3740     0.0370   -37.3390     7.1910     8.5140     7.8020    91.6430
 2501.5000    10.7150     2.3830     0.0320   -36.9410     7.4020     8.6010     6.9570    92.5670
 2502.0000    10.7320     2.3810     0.0360   -36.5350     7.6130     8.6810     7.9110    93.5680
 2502.5000    10.7590     2.4140     0.0870   -36.6240     7.8230     8.7600     7.4200    94.7050
 2503.0000    10.7810     2.3700     0.0550   -36.7020     8.0340     8.8330     6.8300    94.1650
 2503.5000    10.9780     2.3480     0.0220   -36.8940     8.1850     9.0940     7.4040    91.9370
 2504.0000    11.1290     2.3570     0.0280   -37.5330     8.4460     9.3340     8.6720    89.8320
 2504.5000    10.7650     2.3550     0.0320   -38.1560     8.7080     9.6720     8.3540    91.8900
 2505.0000    10.7080     2.3500     0.0190   -38.7770     8.9690    10.2590     7.3510    94.5660
 2505.5000    10.6710     2.3780     0.0340   -39.4000     9.2300    10.8460     7.8370    99.7130
 2506.0000    10.6670     2.3820     0.0720   -40.0220     9.4190    11.7420     8.8510   106.8950
 2506.5000    10.6630     2.3600     0.0570   -40.6590     9.1860    11.4460     9.8660   115.8480
 2507.0000    10.6580     2.3480     0.0340   -41.2970     8.9690    10.8240    10.9220   112.8060
 2507.5000    10.6530     2.3410     0.0180   -41.9340     8.7510    10.2020    10.3790   107.4360
 2508.0000    10.6630     2.3540     0.0030   -42.4210     8.5930     9.2480     9.6540   102.0440
 2508.5000    10.6770     2.3710     0.0090   -42.7330     8.7000     9.7020     8.9300   103.6320
 2509.0000    10.6900     2.3870     0.0160   -43.0470     8.8610    10.6130    10.4200   107.0440
 2509.5000    10.7040     2.4040     0.0150   -43.3740     9.0210     8.9530     9.3650   110.3620
 2510.0000    10.7230     2.4120     0.0120   -43.3430     9.1820     9.2120     8.8330   113.6560
 2510.5000    10.7530     2.4190     0.0180   -43.1690     9.3330     9.5570     9.9530   115.9650
 2511.0000    10.7720     2.4220     0.0420   -43.0340     8.9960     9.9030     9.8520   116.5160
 2511.5000    10.7730     2.3850     0.0320   -42.9550     8.6040     9.4040     9.7000   115.6470
 2512.0000    10.8260     2.3550     0.0190   -42.8750     8.2120     8.7620     9.5480   116.3980
 2512.5000    10.8730     2.3520     0.0110   -42.7970     7.8390     7.7670     9.3950   116.6140
 2513.0000    10.8770     2.3740     0.0230   -42.7190     7.8120     7.8740     9.2430   114.0140
 2513.5000    10.9100     2.3790     0.0330   -42.8100     7.7860     8.1110     9.0900   109.1040
 2514.0000    10.9420     2.3640     0.0510   -43.1140     7.7670     8.3490     8.9140   120.6250
 2514.5000    10.9740     2.3760     0.0830   -43.4030     7.8010     8.5870     9.0100   114.7380
 2515.0000    11.0060     2.3490     0.0660   -43.8840     7.8340     8.7650     9.1240   103.5210
 2515.5000    11.0390     2.3200     0.0280   -44.3740     7.8670     8.9100     9.2370   106.7950
 2516.0000    11.0710     2.3560    -0.0010   -44.8690     7.9070     9.0560     9.3510    99.7820
 2516.5000    11.1010     2.3970     0.0070   -45.3630     7.8100     9.1040     9.4640    94.5800
 2517.0000    11.1310     2.3950     0.0120   -45.8580     7.6500     9.1420     9.6370    98.3840
 2517.5000    11.2020     2.3920     0.0070   -46.3390     7.4910     9.1630     9.8440   101.8080
 2518.0000    11.2740     2.4050     0.0090   -46.8130     7.3310     9.1020    10.0440   105.2100
 2518.5000    11.3360     2.4210     0.0190   -47.2870     7.1710     8.9020     9.6760   108.6290
 2519.0000    11.3690     2.4380     0.0210   -47.7610     7.0120     8.6190     9.3180   112.1590
 2519.5000    11.4120     2.4500     0.0120   -48.2410     6.8520     8.3350     8.9600   113.6060
 2520.0000    11.4700     2.4380     0.0170   -48.2640     6.6930     8.0580     8.7040   113.7110
 2520.5000    11.5280     2.4280     0.0130   -48.0400     6.5330     8.4940     8.5890   113.2230
 2521.0000    11.5550     2.4370     0.0160   -47.8010     6.3740     8.9140     8.4750   111.5900
 2521.5000    11.5850     2.4480     0.0180   -46.9800     6.2140     8.4090     8.3600   107.7810
 2522.0000    11.6640     2.4430     0.0140   -46.1470     6.0540     7.9120     8.2460   103.6880
 2522.5000    11.8180     2.4400     0.0100   -45.5230     5.8950     7.4150     8.1320   100.5810
 2523.0000    12.2100     2.4430     0.0130   -45.2180     5.7370     7.0210     8.0640   100.5200
 2523.5000    12.3430     2.4270     0.0320   -44.9220     5.8210     7.6420     7.9970   101.2720
 2524.0000    12.3200     2.4100     0.0290   -44.3870     5.9050     8.1550     7.7920   101.8280
 2524.5000    12.0450     2.4030     0.0080   -43.8210     5.9890     8.5140     7.4740   100.3990
 2525.0000    13.0310     2.4110     0.0120   -43.5190     6.0730     8.3440     7.1570    99.1650
 2525.5000    13.4340     2.4110     0.0130   -43.6490     6.1740     8.2070     6.8390   100.0240
 2526.0000    12.1600     2.4010     0.0110   -43.7750     6.1300     8.9960     6.5840   101.4360
 2526.5000    12.2330     2.3910     0.0100   -43.9050     6.0750     8.5140     6.8060    99.4440
 2527.0000    12.7980     2.3330     0.0020   -44.0360     6.0200     8.8230     6.9920    97.0230
 2527.5000    12.2760     2.2740    -0.0040   -44.2910     5.9650     9.2120     7.2170    95.1880
 2528.0000    12.7120     2.2160     0.0000   -44.6730     5.9100     9.6020     6.7680    95.5830
 2528.5000    13.5780     2.1570     0.0280   -45.0570     5.8550    10.1860     6.2000    96.5130
 2529.0000    13.4460     2.0950     0.0800   -45.4360     5.5290     9.6670     5.7370    95.7280
 2529.5000    12.7530     2.0010     0.1490   -45.5640     5.1980     8.2010     6.7680    94.7620
 2530.0000    12.8270     2.0460     0.1120   -45.6810     4.7420     6.7060     6.4260    93.2730
 2530.5000    12.9100     2.1430     0.0590   -45.7990     4.2760     6.5120     5.8370    91.7360
 2531.0000    12.8750     2.1880     0.0210   -45.9190     4.4140     6.3130     5.2490    92.1890
 2531.5000    12.8510     2.1700     0.0640   -46.0390     4.6870     6.1150     4.9980    93.1770
 2532.0000    13.0380     2.1330     0.1070   -45.9440     5.9460     5.9510     4.9980    91.1230
 2532.5000    13.2710     2.0020     0.1010   -45.8190     7.2390     6.5840     5.0090    88.9010
 2533.0000    13.5520     2.0230     0.0890   -45.6950     8.8330     6.5190     5.0380    88.1020
 2533.5000    14.8360     2.0730     0.0610   -45.3990     8.5430     6.4340     5.0670    89.5730
 2534.0000    14.4800     2.1420     0.0450   -44.9780     8.1640     6.3460     5.1940    90.6580
 2534.5000    13.8130     2.2380     0.0360   -44.5560     7.7860     7.6710     5.8180    90.8600
 2535.0000    13.1350     2.3240     0.0460   -44.1900     7.3300     9.0460     6.4420    91.0710
 2535.5000    12.9230     2.3410     0.0740   -43.8420     6.8480    10.4200     7.2170    91.0970
 2536.0000    12.8280     2.3610     0.1090   -43.4970     6.3670    12.4070     6.7590    90.4650
 2536.5000    12.6730     2.3320     0.1310   -43.3750     5.8850    11.9150     6.0060    89.8420
 2537.0000    12.2130     2.2890     0.0470   -43.6780     5.4040    11.0300     6.2310    89.2150
 2537.5000    12.3950     2.3290     0.1390   -43.8520     5.0550     8.8850     6.5280    88.5300
 2538.0000    13.4700     2.2780     0.1250   -44.0480     4.9080     7.1300     6.8260    86.8880
