~VERSION INFORMATION
 VERS.                2.0:   CWLS LOG ASCII STANDARD - VERSION 2.0
 WRAP.                 NO:   ONE LINE PER DEPTH STEP
~WELL INFORMATION
#MNEM.UNIT      DATA TYPE    INFORMATION
#----------   ------------   ------------------------------
 STRT.F          594.5000:   START DEPTH
 STOP.F         3015.5000:   STOP DEPTH
 STEP.F            0.5000:   STEP LENGTH
 NULL.          -999.2500:   NO VALUE
 COMP.    FENIX & SCISSON:   COMPANY
 WELL.  FENIX "AX" #35-34:   WELL
 FLD .             NPR #3:   FIELD
 LOC .      S34 T39N R78W:   LOCATION
 CNTY.            NATRONA:   COUNTY
 STAT.            WYOMING:   STATE
 CTRY. UNITED STATES OF AMERICA:   COUNTRY
 SRVC.       SCHLUMBERGER:   SERVICE COMPANY
 DATE.        14-APR-1977:   LOGDATE
 API .     49025103390000:   API NUMBER
~CURVE INFORMATION
#MNEM.UNIT       API CODE    CURVE DESCRIPTION
#----------   ------------   ------------------------------
 DEPT.F                  :   
 CALD.IN     45 280 60 00:   CALIPER FROM DENSITY LOG
 RHOB.G/C3   45 350 01 00:   BULK DENSITY
 DRHO.G/C3   45 356 01 00:   DENSITY CORRECTION
 SPR .MV     07 010 01 00:   SPONTANEOUS POTENTIAL
 RILM.OHMM   07 120 44 00:   INDUCTION LOG MEDIUM RESISTIVITY
 RILD.OHMM   07 120 46 00:   DEEP INDUCTION RESISTIVITY
 LL8 .OHMM   07 220 08 00:   LATEROLOG-8 RES.
 GRD .GAPI   45 310 01 00:   GAMMA RAY FROM DENSITY LOG
~PARAMETER INFORMATION
#MNEM.UNIT          VALUE    DESCRIPTION
#----------   ------------   ------------------------------
 EKB .F         5116.0000:   Kelly bushing
 EGL .F         5104.0000:   Ground level
 EDF .F            0.0000:   Drilling floor
 TD  .F         3017.0000:   Total depth
 DATE.        14-APR-1977:   Date logged
 CLNT.            A2DTECH:   Client Code
 SL  . 2311' FSL & 1550' FWL:   Surface Location
 PD  .                 GL:   Permanent Datum
 EPD .F              5104:   Elevation Permanent Datum
 LMF .                 KB:   Log Measured From
 DMF .                 KB:   Drilling Measured From
 DAPD.F                12:   Feet Above Permanent Datum
 DD  .F              3012:   Depth driller
 DL  .F              3017:   Depth logger
 BLI .F              3011:   Bottom log interval
 TLI .F               600:   Top log interval
 CS1 .IN            8.625:   Casing size
 CBD1.      8.625" @ 601':   Casing driller 1
 CBL1.F               600:   Casing logger 1
 BS1 .IN            7.875:   Bit size
 BSD1.F              3012:   Depth drilled with bit1
 DFT .                FGM:   Type fluid in hole
 DFD .                9.2:   Density
 DFV .                 29:   Viscosity
 MSS .           FLOWLINE:   Source of sample
 RMS .OHMM          0.206:   Rm
 MST .F                60:   Rm Meas. temp.
 RMF .OHMM          0.192:   Rmf
 MFST.F                60:   Rmf Meas. temp.
 MFSS.               MEAS:   Source Rmf.
 RMB .OHMM          0.109:   Rm. at BHT
 BHT .F               113:   BHT.
 TLAB.HRS            0200:   Time logger at bottom
 MRT .F               113:   Maximum recorded temp.
 LUN .               7711:   Logging unit number
 LUL .               CSPR:   Logging unit location
 ENGI.             GEIGER:   Recorded By
 WITN.         PETTINGILL:   Witnessed by
 ORIG.           5" PRINT:   Origin of data
 UWI .     49025103390000:   Unique Well ID
 DICO. A2D TECHNOLOGIES, INC.:   Digitizing Company
~OTHER INFORMATION
~A   DEPT     CALD       RHOB       DRHO        SPR       RILM       RILD        LL8         GRD  
# ...
 1850.0000    11.6890     2.4660     0.1460   -69.8550     6.7130     5.3350     6.8480   101.0590
 1850.5000    11.8090     2.4520     0.2500   -69.3130     6.8610     5.7900     6.4980    99.5680
 1851.0000    11.9830     2.4230     0.2490   -68.8850     7.0210     5.7540     6.1480   100.5330
 1851.5000    12.1550     2.3270     0.2490   -68.4610     7.4500     5.7040     5.7980   102.7220
 1852.0000    12.0630     2.2410     0.1710   -68.0410     8.0290     5.6540     5.6320   105.3360
 1852.5000    11.9890     2.3340     0.0980   -68.2670     7.8120     5.5810     6.2070   107.9460
 1853.0000    12.1110     2.4360     0.1510   -68.5370     7.5940     5.7080     6.5530   110.1320
 1853.5000    12.2330     2.5480     0.2180   -68.8090     7.3760     5.9420     6.8260   111.3210
 1854.0000    12.1060     2.5190     0.2020   -69.0570     7.1580     6.1760     7.0990   112.9420
 1854.5000    11.9500     2.4780     0.1540   -69.4170     6.9480     6.3530     7.2260   114.9950
 1855.0000    11.8770     2.5030     0.1430   -69.9640     6.8930     6.5130     7.2410   117.9360
 1855.5000    11.8070     2.5260     0.1340   -70.5100     6.9030     6.6720     7.2560   119.4150
 1856.0000    11.4710     2.5100     0.0740   -71.0550     6.9200     6.7080     7.2720   119.8320
 1856.5000    11.2170     2.5000     0.0630   -71.5820     6.9370     6.7150     7.2870   118.9360
 1857.0000    11.1940     2.5510     0.0880   -71.8850     6.9540     6.7220     7.3020   119.2850
 1857.5000    11.0990     2.5520     0.1120   -72.1770     6.9710     6.7280     7.3180   119.5230
 1858.0000    11.1450     2.5630     0.1610   -72.4680     6.9880     6.7350     7.3330   116.5780
 1858.5000    11.1210     2.5440     0.1350   -72.7560     7.0050     6.7420     7.3480   113.7280
 1859.0000    11.0800     2.5270     0.0970   -72.9300     7.0220     6.7480     7.6290   111.1060
 1859.5000    11.0600     2.5430     0.0950   -72.7410     7.0210     6.7550     7.9610   109.2640
 1860.0000    11.0520     2.5710     0.1400   -72.5560     7.1680     6.7620     8.2070   108.2830
 1860.5000    11.0960     2.5490     0.1240   -72.1270     7.2850     6.7680     8.0050   109.8300
 1861.0000    11.1440     2.5300     0.1050   -71.7130     7.4030     7.4730     7.8140   112.2260
 1861.5000    11.1950     2.5370     0.1400   -71.3030     7.4870     8.1340     7.6230   114.3270
 1862.0000    11.1770     2.5230     0.1180   -70.8930     6.7850     8.9960     7.4870   114.7390
 1862.5000    11.1180     2.5090     0.1280   -70.4820     6.2370     8.2880     7.6010   114.6600
 1863.0000    11.0570     2.4770     0.0870   -70.0720     5.6890     7.5060     7.7050   113.9200
 1863.5000    10.9970     2.4580     0.0480   -69.6630     4.8830     6.7680     7.8390   112.4250
 1864.0000    10.9330     2.4890     0.0700   -69.4070     4.0310     5.9120     7.6870   112.7620
 1864.5000    10.8520     2.4690     0.0800   -69.5560     3.5950     4.9790     7.4750   113.6340
 1865.0000    10.7660     2.3690     0.0100   -69.7060     3.3070     4.4140     6.6730   114.5610
 1865.5000    10.6690     2.3240     0.0220   -69.6900     5.2330     4.0470     5.6570   113.0010
 1866.0000    10.8610     2.2910     0.0600   -69.4220     6.6730     4.3870     4.3950   109.8900
 1866.5000    11.2220     2.2390     0.1290   -69.3430     8.1130     4.7460     5.3030   106.7650
 1867.0000    12.9430     2.1950     0.0850   -70.0260     9.5940     5.1850     6.5000   106.7540
 1867.5000    13.7930     2.3480     0.1120   -70.6940     9.4380     5.0250     7.6980   109.7120
 1868.0000    10.8450     2.4610     0.0590   -71.3580     9.2360     4.7740     8.6720   113.3860
 1868.5000    10.9110     2.4870     0.0350   -72.0220     9.0350     5.7010     8.5010   115.5700
 1869.0000    10.7160     2.5140     0.0290   -72.4570     8.8330     6.9980     8.3560   118.3080
 1869.5000    10.6340     2.5190     0.0170   -72.6350     8.5140     8.4780     8.2120   120.4330
 1870.0000    10.4740     2.5000     0.0130   -72.8130     8.5420     9.9580     7.9840   120.0540
 1870.5000    10.3800     2.5090     0.0430   -72.9470     8.6100    11.0110     8.0640   119.6730
 1871.0000    10.3740     2.5410     0.0360   -72.7640     8.6770    10.4630     8.2520   120.0160
 1871.5000    10.3130     2.5220     0.0230   -72.5760     8.7450     9.7560     9.1630   121.0740
 1872.0000    10.2450     2.5070     0.0100   -72.3750     8.8120     9.1990     9.5290   121.6200
 1872.5000    10.1900     2.5130     0.0030   -71.8630     8.8800     8.7520     9.8800   120.7210
 1873.0000    10.1720     2.4970     0.0110   -71.3140     8.9470     8.6050    10.1730   118.8730
 1873.5000    10.1540     2.4840    -0.0020   -70.9890     8.9960     8.3830    10.3250   117.0970
 1874.0000    10.1380     2.4910     0.0060   -70.7240     8.6210     8.1620     9.8400   116.5270
 1874.5000    10.1500     2.4890     0.0030   -70.4590     8.3250     7.9400     9.1260   116.5690
 1875.0000    10.1610     2.4940     0.0150   -70.2110     8.0300     7.6960     8.4120   119.2640
 1875.5000    10.1740     2.5030     0.0180   -70.3770     7.7350     7.6150     7.9110   123.3210
 1876.0000    10.1470     2.5190     0.0080   -70.5610     7.4400     7.5260     8.1600   125.4900
 1876.5000    10.1130     2.5120     0.0140   -70.7430     7.1450     7.4360     8.4350   127.1510
 1877.0000    10.1010     2.5250     0.0200   -70.9300     6.8300     7.3470     8.7090   127.0830
 1877.5000    10.0880     2.5180     0.0280   -70.8840     6.5840     7.2570     8.9840   125.5560
 1878.0000    10.0790     2.5260     0.0360   -70.9580     6.3110     7.1680     9.4190   123.9070
 1878.5000    10.1230     2.5450     0.0420   -71.3230     6.0210     7.0780     8.9800   124.4470
 1879.0000    10.2100     2.5400     0.0370   -71.6850     5.6320     7.0280     8.5160   124.6080
 1879.5000    10.2300     2.5310     0.0280   -72.0470     5.7690     7.1110     8.1320   123.2520
 1880.0000    10.2240     2.5180     0.0230   -72.3870     5.9190     7.1770     8.3590   121.3420
 1880.5000    10.2170     2.5030     0.0190   -72.7040     6.4640     7.2430     8.2210   119.3930
 1881.0000    10.2290     2.5020     0.0150   -72.9880     6.8950     7.3750     7.9840   118.1790
 1881.5000    10.2540     2.5060     0.0250   -73.1400     7.4190     7.6070     8.0370   119.8320
 1882.0000    10.2750     2.4950     0.0390   -73.2930     7.2730     7.8390     8.2470   122.4000
 1882.5000    10.2250     2.4850     0.0310   -73.0390     7.0250     8.0710     8.5280   121.6710
 1883.0000    10.1470     2.4680     0.0110   -72.4550     6.7470     8.3030     8.8090   120.7920
 1883.5000    10.0450     2.4560     0.0050   -71.8710     6.4840     8.5350     9.0790   119.8690
 1884.0000    10.0010     2.4470     0.0190   -71.2250     6.7090     8.7670     8.8950   120.4680
 1884.5000    10.0510     2.4430     0.0430   -70.3910     7.0920     8.9990     8.4490   120.0460
 1885.0000    10.1040     2.4610     0.0670   -69.5410     7.4750     9.0790     7.8550   118.2300
 1885.5000    10.2540     2.4740     0.0910   -69.0190     7.9840     8.1370     7.2840   117.1310
 1886.0000    10.4200     2.4680     0.1120   -68.6980     7.6880     7.3890     7.5440   118.0150
 1886.5000    11.2550     2.4570     0.0960   -68.3780     7.2460     6.6400     7.9320   119.4740
 1887.0000    10.9000     2.4200     0.0610   -68.0650     6.8040     6.1620     8.2070   121.0080
 1887.5000    10.5110     2.3500     0.0830   -67.9060     6.2310     5.6320     7.3890   120.8140
 1888.0000    10.4920     2.2830     0.1190   -68.3200     6.3410     7.4690     6.6400   119.1100
 1888.5000    10.4810     2.2210     0.1630   -68.7240     6.5580    10.1940     5.8910   118.1450
 1889.0000    10.3970     2.1620     0.1430   -69.1890     6.7060    12.1810     5.4290   119.5980
 1889.5000    10.3150     2.1040     0.0650   -69.8860     6.7930     6.5840     5.3790   122.0100
 1890.0000    10.0450     2.0930    -0.0030   -70.5720     6.9120     6.4510     9.3330   124.6760
