~VERSION INFORMATION
 VERS.                2.0:   CWLS LOG ASCII STANDARD - VERSION 2.0
 WRAP.                 NO:   ONE LINE PER DEPTH STEP
~WELL INFORMATION
#MNEM.UNIT      DATA TYPE    INFORMATION
#----------   ------------   ------------------------------
 STRT.F          198.0000:   START DEPTH
 STOP.F         3034.0000:   STOP DEPTH
 STEP.F            0.5000:   STEP LENGTH
 NULL.          -999.2500:   NO VALUE
 COMP.    FENIX & SCISSON:   COMPANY
 WELL.   FENIX "A" #44-29:   WELL
 FLD .              NPR-3:   FIELD
 LOC .      S29 T39N R78W:   LOCATION
 CNTY.            NATRONA:   COUNTY
 STAT.            WYOMING:   STATE
 CTRY. UNITED STATES OF AMERICA:   COUNTRY
 SRVC.              WELEX:   SERVICE COMPANY
 DATE.        26-MAY-1977:   LOGDATE
 API .     49025103690000:   API NUMBER
~CURVE INFORMATION
#MNEM.UNIT       API CODE    CURVE DESCRIPTION
#----------   ------------   ------------------------------
 DEPT.F                  :   
 SPR .MV     07 010 01 00:   SPONTANEOUS POTENTIAL
 ILD .OHMM   07 120 46 00:   DEEP INDUCTION RESISTIVITY
 ILM .OHMM   07 120 44 00:   INDUCTION LOG MEDIUM RESISTIVITY
 SGRD.OHMM   07 220 05 00:   SHALLOW SHORT GUARD RESISTIVITY
 CALD.IN     45 280 60 00:   CALIPER FROM DENSITY LOG
 GRD .GAPI   45 310 01 00:   GAMMA RAY FROM DENSITY LOG
 RHOB.G/C3   45 350 01 00:   BULK DENSITY
 CORR.G/C3   45 356 01 00:   DENSITY CORRECTION
~PARAMETER INFORMATION
#MNEM.UNIT          VALUE    DESCRIPTION
#----------   ------------   ------------------------------
 EKB .F         5010.0000:   Kelly bushing
 EGL .F         5000.0000:   Ground level
 EDF .F            0.0000:   Drilling floor
 TD  .F         3036.0000:   Total depth
 DATE.        26-MAY-1977:   Date logged
 CLNT.            A2DTECH:   Client Code
 SL  . 2310' FNL & 2310' FWL:   Surface Location
 PD  .                 GL:   Permanent Datum
 EPD .F              5000:   Elevation Permanent Datum
 LMF .                 KB:   Log Measured From
 DMF .                 KB:   Drilling Measured From
 DD  .F              3035:   Depth driller
 DL  .F              3036:   Depth logger
 BLI .F              3034:   Bottom log interval
 TLI .F               210:   Top log interval
 CS1 .IN            8.625:   Casing size
 CBD1.      8.625" @ 245':   Casing driller 1
 CBL1.F               220:   Casing logger 1
 BS1 .IN            7.875:   Bit size
 BSD1.F              3035:   Depth drilled with bit1
 DFT .            KCL MUD:   Type fluid in hole
 DFD .                8.8:   Density
 DFV .                 34:   Viscosity
 DFPH.                7.5:   pH
 DFL .                6.6:   Fluid loss
 MSS .           FLOWLINE:   Source of sample
 RMS .OHMM           0.20:   Rm
 MST .F                89:   Rm Meas. temp.
 RMF .OHMM           0.17:   Rmf
 MFST.F                89:   Rmf Meas. temp.
 RMC .OHMM           0.30:   Rmc
 MCST.F                89:   Rmc Meas. temp.
 MFSS.               FANN:   Source Rmf.
 MCSS.                KIT:   Source Rmc.
 RMB .OHMM           0.16:   Rm. at BHT
 BHT .F               110:   BHT.
 TCS .HRS             2.5:   Time Circ. stopped
 MRT .F               110:   Maximum recorded temp.
 LUN .               8611:   Logging unit number
 LUL .             CASPER:   Logging unit location
 ENGI.            C. DOAK:   Recorded By
 WITN.      B. HARRINGTON:   Witnessed by
 ORIG.           5" PRINT:   Origin of data
 UWI .     49025103690000:   Unique Well ID
 DICO. A2D TECHNOLOGIES, INC.:   Digitizing Company
~OTHER INFORMATION
~A   DEPT      SPR        ILD        ILM       SGRD       CALD         GRD      RHOB       CORR   
# ...
 2628.0000   -32.2100     6.8550     9.8620    11.8950     9.2970   115.0850     2.4350     0.0200
 2628.5000   -32.2940     6.8450     9.8730    11.4220     9.2980   113.2620     2.4260     0.0190
 2629.0000   -32.3770     6.8360     9.9160    11.7340     9.2990   112.6480     2.4170     0.0180
 2629.5000   -32.4610     6.8300     9.9590    12.1990     9.3010   114.1290     2.4140     0.0180
 2630.0000   -32.5450     6.8540    10.0020    12.6370     9.3020   115.3140     2.4260     0.0200
 2630.5000   -32.6300     6.8760    10.0440    12.5760     9.3030   113.6430     2.4240     0.0220
 2631.0000   -32.7110     6.8990    10.0870    12.5210     9.3040   112.1990     2.4220     0.0240
 2631.5000   -32.6570     6.9210    10.1300    12.3100     9.3050   113.9090     2.4230     0.0270
 2632.0000   -32.5950     6.9430    10.1720    12.4280     9.3070   116.6400     2.4310     0.0290
 2632.5000   -32.5280     6.9660    10.2150    12.6360     9.3080   118.0210     2.4380     0.0310
 2633.0000   -32.6880     6.9880    10.2580    12.7530     9.3090   118.7850     2.4460     0.0320
 2633.5000   -32.9020     7.0100    10.3010    12.5790     9.3100   120.3320     2.4510     0.0320
 2634.0000   -33.1190     7.0330    10.3810    12.3710     9.3110   122.7400     2.4460     0.0330
 2634.5000   -33.3350     7.0550    10.5120    12.2930     9.3120   123.3010     2.4450     0.0330
 2635.0000   -33.5520     7.0860    10.6130    12.2930     9.3140   120.5960     2.4550     0.0330
 2635.5000   -33.7390     7.0660    10.4020    12.5360     9.3150   119.7110     2.4650     0.0340
 2636.0000   -34.0330     7.0180    10.2290    13.1090     9.3160   122.1250     2.4670     0.0340
 2636.5000   -34.3300     6.9700    10.0560    12.8930     9.3170   120.1990     2.4590     0.0340
 2637.0000   -34.6260     6.9220     9.8020    12.4020     9.3180   117.6020     2.4520     0.0350
 2637.5000   -34.9220     6.8700     9.4450    11.8240     9.3190   115.7820     2.4550     0.0350
 2638.0000   -35.2180     6.8110     9.1420    11.0110     9.3210   119.7140     2.4620     0.0350
 2638.5000   -35.5130     6.7530     8.9750    11.0540     9.3220   122.9380     2.4680     0.0360
 2639.0000   -35.8090     6.6700     8.8330    11.1260     9.3230   122.3610     2.4750     0.0350
 2639.5000   -36.1050     6.4780     8.5530    11.2150     9.3300   120.2550     2.4770     0.0350
 2640.0000   -36.4010     6.2860     8.2070    10.2310     9.3440   118.2040     2.4700     0.0340
 2640.5000   -36.6990     6.0940     8.1690    10.3410     9.3570   116.1460     2.4630     0.0340
 2641.0000   -37.0020     5.8970     8.0680    10.5320     9.3710   114.2320     2.4560     0.0330
 2641.5000   -37.1440     5.6920     7.9840    10.6130     9.3850   114.6410     2.4550     0.0330
 2642.0000   -37.2820     5.4800     7.5770    10.0440     9.3990   118.5270     2.4640     0.0320
 2642.5000   -37.4200     5.2690     7.1560     9.3660     9.4130   122.3650     2.4710     0.0320
 2643.0000   -37.5600     5.0790     6.7360     8.6620     9.4260   126.1380     2.4680     0.0340
 2643.5000   -37.6990     5.0000     6.4640     8.1320     9.4400   129.2880     2.4680     0.0360
 2644.0000   -37.8380     4.9210     6.3460     8.2130     9.4540   127.1780     2.4780     0.0380
 2644.5000   -37.9770     4.8420     6.3460     8.2830     9.4680   123.0000     2.4890     0.0410
 2645.0000   -38.1160     4.7740     6.4000     8.0340     9.4810   122.3080     2.4910     0.0430
 2645.5000   -38.1250     4.7740     6.4400     7.9110     9.4950   125.7840     2.4830     0.0420
 2646.0000   -38.0150     4.7780     6.4810     7.9520     9.4950   120.4910     2.4790     0.0390
 2646.5000   -37.9050     4.7840     6.5210     8.2610     9.4840   122.4850     2.4770     0.0370
 2647.0000   -37.7940     4.7910     6.5610     8.5930     9.4730   123.6250     2.4740     0.0340
 2647.5000   -37.6830     4.7980     6.6010     8.6840     9.4620   121.0450     2.4710     0.0310
 2648.0000   -37.5720     4.8040     6.6450     9.2480     9.4510   116.3260     2.4700     0.0290
 2648.5000   -37.4620     4.8110     6.6450     9.0590     9.4400   115.4070     2.4700     0.0290
 2649.0000   -37.3510     4.8180     6.5710     8.6920     9.4300   116.6750     2.4700     0.0320
 2649.5000   -37.2400     4.7800     6.5150     8.3590     9.4180   118.1280     2.4700     0.0350
 2650.0000   -37.0500     4.7270     6.4640     8.2830     9.4050   120.0540     2.4740     0.0370
 2650.5000   -36.8270     4.6730     6.4640     8.5580     9.3910   122.1720     2.4800     0.0400
 2651.0000   -36.6100     4.6200     6.4380     8.9520     9.3780   123.6650     2.4860     0.0420
 2651.5000   -36.2870     4.5660     6.3850     8.9960     9.3650   124.0500     2.4890     0.0440
 2652.0000   -35.9760     4.5600     6.3330     8.5410     9.3510   122.9470     2.4900     0.0430
 2652.5000   -35.6670     4.5740     6.2800     8.2390     9.3380   121.7290     2.4890     0.0430
 2653.0000   -35.3530     4.6040     6.2310     8.0800     9.3240   120.5030     2.4860     0.0430
 2653.5000   -34.8790     4.6340     6.4460     7.9840     9.3070   119.1210     2.4840     0.0430
 2654.0000   -34.3120     4.7520     6.6840     8.6040     9.2840   117.7690     2.4820     0.0420
 2654.5000   -33.7120     4.9150     6.9290     9.1630     9.2620   116.4080     2.4830     0.0420
 2655.0000   -32.9940     5.0790     7.1770     9.4430     9.2390   115.0330     2.4860     0.0420
 2655.5000   -32.2810     5.3440     7.6340     9.7100     9.2160   115.0210     2.4890     0.0420
 2656.0000   -31.5710     5.6670     8.1320     9.9530     9.1940   117.1390     2.4890     0.0440
 2656.5000   -31.0110     5.9900     8.6290    10.7990     9.1710   119.4110     2.4880     0.0450
 2657.0000   -30.6660     6.3140     9.1270    12.8430     9.1480   120.9120     2.4800     0.0440
 2657.5000   -30.3200     6.6370     9.5770    15.0450     9.1260   119.0850     2.4730     0.0410
 2658.0000   -29.9900     6.9600    10.0440    14.8400     9.1050   115.0980     2.4610     0.0380
 2658.5000   -29.9790     7.2840    10.0360    14.5030     9.1000   111.7070     2.4480     0.0340
 2659.0000   -29.9800     7.4340    10.0150    14.5030     9.0950   108.7770     2.4350     0.0310
 2659.5000   -29.9800     7.5840     9.9950    14.3910     9.0900   106.2480     2.4230     0.0270
 2660.0000   -29.9840     7.7670     9.9740    14.1020     9.0850   107.4410     2.4120     0.0240
 2660.5000   -30.1380     7.7330     9.9530    13.9800     9.0800   110.0320     2.4090     0.0210
 2661.0000   -30.3010     7.6410     9.7890    13.5480     9.0740   112.5940     2.4120     0.0190
 2661.5000   -30.4630     7.5490     9.6820    12.9900     9.0690   115.1660     2.4220     0.0230
 2662.0000   -30.6240     7.4570     9.7170    12.4070     9.0710   117.7450     2.4320     0.0270
 2662.5000   -30.7860     7.3650     9.8130    12.4070     9.0780   120.3270     2.4420     0.0320
 2663.0000   -30.9480     7.2730     9.9530    12.4840     9.0850   122.7950     2.4520     0.0360
 2663.5000   -31.1100     7.1810     9.8140    12.7730     9.0910   121.6460     2.4570     0.0400
 2664.0000   -31.2720     7.0900     9.5590    12.9890     9.0980   118.5020     2.4600     0.0440
 2664.5000   -31.4770     6.9980     9.3040    12.5120     9.1050   115.3550     2.4630     0.0410
 2665.0000   -31.7190     6.9060     9.0790    11.9590     9.1120   114.2820     2.4620     0.0380
 2665.5000   -31.9610     6.8140     9.0790    11.7420     9.1180   116.3010     2.4490     0.0350
 2666.0000   -32.2040     6.7220     9.0570    11.5920     9.1250   118.3790     2.4350     0.0320
 2666.5000   -32.4470     6.6300     9.0250    11.3180     9.1260   120.4500     2.4210     0.0290
 2667.0000   -32.6890     6.5380     8.9960    11.3650     9.1260   122.5390     2.4150     0.0260
 2667.5000   -32.9330     6.4470     8.9960    11.4170     9.1260   123.2910     2.4150     0.0290
 2668.0000   -33.2040     6.3550     8.9960    11.1620     9.1260   121.4220     2.4250     0.0320
