~VERSION INFORMATION
 VERS.                2.0:   CWLS LOG ASCII STANDARD - VERSION 2.0
 WRAP.                 NO:   ONE LINE PER DEPTH STEP
~WELL INFORMATION
#MNEM.UNIT      DATA TYPE    INFORMATION
#----------   ------------   ------------------------------
 STRT.F          210.0000:   START DEPTH
 STOP.F         2955.0000:   STOP DEPTH
 STEP.F            0.5000:   STEP LENGTH
 NULL.          -999.2500:   NO VALUE
 COMP.    FENIX & SCISSON:   COMPANY
 WELL.     FENIX A #54-28:   WELL
 FLD .                NPR:   FIELD
 LOC .      S28 T39N R78W:   LOCATION
 CNTY.            NATRONA:   COUNTY
 STAT.            WYOMING:   STATE
 CTRY. UNITED STATES OF AMERICA:   COUNTRY
 SRVC.              WELEX:   SERVICE COMPANY
 DATE.        17-MAY-1977:   LOGDATE
 API .     49025103650000:   API NUMBER
~CURVE INFORMATION
#MNEM.UNIT       API CODE    CURVE DESCRIPTION
#----------   ------------   ------------------------------
 DEPT.F                  :   
 SPR .MV     07 010 01 00:   SPONTANEOUS POTENTIAL
 RILM.OHMM   07 120 44 00:   INDUCTION LOG MEDIUM RESISTIVITY
 RILD.OHMM   07 120 46 00:   INDUCTION LOG DEEP RESISTIVITY
 SGRD.OHMM   07 220 05 00:   SHALLOW GUARD LOG RESISTIVITY
 CALD.IN     45 280 60 00:   CALIPER FROM DENSITY LOG
 RHOB.G/C3   45 350 01 00:   BULK DENSITY
 DCOR.G/C3   45 356 01 00:   DENSITY CORRECTION
 GRD .GAPI   45 310 01 00:   GAMMA RAY FROM DENSITY LOG
~PARAMETER INFORMATION
#MNEM.UNIT          VALUE    DESCRIPTION
#----------   ------------   ------------------------------
 EKB .F         5045.0000:   Kelly bushing
 EGL .F         5035.0000:   Ground level
 EDF .F            0.0000:   Drilling floor
 EPD .F         5035.0000:   Permanent datum
 TD  .F         2956.0000:   Total depth
 DATE.        17-MAY-1977:   Date logged
 CLNT.            A2DTECH:   Client Code
 SL  . 2310' FNL & 2310' FEL:   Surface Location
 PD  .                 GL:   Permanent Datum
 LMF .                 KB:   Log Measured From
 DMF .                 KB:   Drilling Measured From
 DAPD.F                10:   Feet Above Permanent Datum
 DD  .F              2947:   Depth driller
 DL  .F              2956:   Depth logger
 BLI .F              2954:   Bottom log interval
 TLI .F               210:   Top log interval
 CS1 .IN            8.625:   Casing size
 CBD1.      8.625" @ 200':   Casing driller 1
 CBL1.F               216:   Casing logger 1
 BS1 .IN            7.875:   Bit size
 BSD1.F              2947:   Depth drilled with bit1
 DFT .            KCL MUD:   Type fluid in hole
 DFD .                  9:   Density
 DFV .                 32:   Viscosity
 DFPH.                7.5:   pH
 DFL .                5.3:   Fluid loss
 MSS .           FLOWLINE:   Source of sample
 RMS .OHMM            .18:   Rm
 MST .F                84:   Rm Meas. temp.
 RMF .OHMM            .16:   Rmf
 MFST.F                84:   Rmf Meas. temp.
 RMC .OHMM            .62:   Rmc
 MCST.F                84:   Rmc Meas. temp.
 RMB .OHMM            .12:   Rm. at BHT
 BHT .F               124:   BHT.
 TCS .HRS               2:   Time Circ. stopped
 MRT .F               124:   Maximum recorded temp.
 LUN .               9685:   Logging unit number
 LUL .           BRIGHTON:   Logging unit location
 ENGI.           T JOYNER:   Recorded By
 WITN.      W. PETTINGILL:   Witnessed by
 ORIG.           5" PRINT:   Origin of data
 UWI .     49025103650000:   Unique Well ID
 DICO. A2D TECHNOLOGIES, INC.:   Digitizing Company
~OTHER INFORMATION
~A   DEPT      SPR       RILM        RILD        SGRD       CALD       RHOB      DCOR        GRD  
# ...
 2761.5000   -53.3980     5.8260     5.6360     8.3960     8.1180     2.5030     0.0180   128.9260
 2762.0000   -53.3830     5.7380     5.5650     8.3280     8.1160     2.5090     0.0200   129.8440
 2762.5000   -53.3700     5.6500     5.4940     8.2460     8.1140     2.5140     0.0220   128.4930
 2763.0000   -53.3270     5.5970     5.4230     8.2190     8.1110     2.5200     0.0240   127.2810
 2763.5000   -53.2900     5.5970     5.3940     8.1850     8.1090     2.5220     0.0260   125.7070
 2764.0000   -53.2520     5.5970     5.3940     8.1510     8.1070     2.5240     0.0270   126.2250
 2764.5000   -53.2140     5.5970     5.3940     8.0960     8.1050     2.5260     0.0250   128.8140
 2765.0000   -53.1760     5.6490     5.4440     8.1380     8.1030     2.5200     0.0240   131.1270
 2765.5000   -53.1380     5.6930     5.4870     8.2560     8.1000     2.5110     0.0230   133.5910
 2766.0000   -53.1000     5.7380     5.5300     8.3730     8.1020     2.5030     0.0210   135.0620
 2766.5000   -53.0630     5.7820     5.5730     8.4910     8.1040     2.4940     0.0200   133.1940
 2767.0000   -53.0250     5.8270     5.6160     8.6080     8.1060     2.4950     0.0180   130.3100
 2767.5000   -52.9870     5.8710     5.6580     8.7260     8.1080     2.5000     0.0170   127.7160
 2768.0000   -52.9550     5.9160     5.7010     8.8440     8.1100     2.5060     0.0160   125.3250
 2768.5000   -52.9250     5.9600     5.7440     8.9610     8.1110     2.4960     0.0160   125.2300
 2769.0000   -52.8950     6.0050     5.7870     9.0440     8.1130     2.4900     0.0170   125.1610
 2769.5000   -52.8650     6.0490     5.8300     9.0440     8.1150     2.4950     0.0180   125.1820
 2770.0000   -52.8360     6.0940     5.8730     9.0440     8.1170     2.4990     0.0200   123.9760
 2770.5000   -52.8060     6.1380     5.9160     9.0440     8.1190     2.5030     0.0240   122.5370
 2771.0000   -52.7760     6.1830     5.9590     9.0440     8.1210     2.5080     0.0280   121.0970
 2771.5000   -52.7460     6.2270     6.0020     9.1310     8.1230     2.5150     0.0310   119.5440
 2772.0000   -52.7160     6.2720     6.0450     9.3220     8.1250     2.5210     0.0350   118.8510
 2772.5000   -52.6860     6.3160     6.0880     9.5130     8.1270     2.5270     0.0380   119.2660
 2773.0000   -52.6570     6.3680     6.1380     9.7370     8.1290     2.5300     0.0390   119.5340
 2773.5000   -52.6270     6.3680     6.0950     9.6450     8.1310     2.5240     0.0390   119.8570
 2774.0000   -52.5940     6.3680     6.0430     9.4920     8.1330     2.5120     0.0390   120.1540
 2774.5000   -52.5880     6.3680     5.9920     9.1840     8.1350     2.5000     0.0390   120.3330
 2775.0000   -52.6180     6.3300     5.9400     8.8770     8.1370     2.4910     0.0390   119.4540
 2775.5000   -52.6430     6.2920     5.8880     8.5700     8.1390     2.4850     0.0390   118.7890
 2776.0000   -52.6700     6.2540     5.8370     8.2620     8.1400     2.4780     0.0390   118.1050
 2776.5000   -52.6970     6.2160     5.7850     7.9470     8.1410     2.4820     0.0390   119.2350
 2777.0000   -52.7230     6.1770     5.7010     8.0930     8.1430     2.4940     0.0390   120.4150
 2777.5000   -52.7500     6.1380     5.7270     8.2430     8.1440     2.5050     0.0390   121.6970
 2778.0000   -52.7760     6.2130     5.7990     8.3920     8.1450     2.5150     0.0390   122.8580
 2778.5000   -52.8030     6.2920     5.8720     8.5410     8.1460     2.5040     0.0380   124.0790
 2779.0000   -52.8300     6.3710     5.9440     8.6910     8.1470     2.4920     0.0370   123.0860
 2779.5000   -52.8560     6.4500     6.0160     8.8400     8.1480     2.4930     0.0360   121.2520
 2780.0000   -52.8830     6.5070     6.0880     8.9890     8.1490     2.5020     0.0350   119.4810
 2780.5000   -52.9090     6.5440     6.1600     9.1390     8.1500     2.5110     0.0340   118.0680
 2781.0000   -52.9360     6.5820     6.2330     9.2260     8.1510     2.5100     0.0330   118.6510
 2781.5000   -52.9640     6.6720     6.3050     9.2550     8.1520     2.5080     0.0320   119.5680
 2782.0000   -52.9710     6.8850     6.3770     9.2830     8.1530     2.5050     0.0310   120.4350
 2782.5000   -52.9540     7.0980     6.4870     9.3120     8.1540     2.5020     0.0300   121.0350
 2783.0000   -52.9400     7.3820     6.4670     9.3400     8.1550     2.5060     0.0290   119.2950
 2783.5000   -52.9250     7.1510     6.4250     9.3840     8.1560     2.5110     0.0280   117.7350
 2784.0000   -52.9100     6.8060     6.3830     9.1780     8.1570     2.5150     0.0260   116.0910
 2784.5000   -52.8960     6.4610     6.3150     8.7300     8.1580     2.5190     0.0250   114.4370
 2785.0000   -52.8810     6.1160     6.1030     8.2830     8.1590     2.5120     0.0240   113.6360
 2785.5000   -52.8660     5.7710     5.8180     7.8350     8.1610     2.5040     0.0230   113.3380
 2786.0000   -52.8510     5.4260     5.4930     7.3870     8.1620     2.4950     0.0220   115.0480
 2786.5000   -52.8370     5.0390     5.1690     6.8560     8.1630     2.4860     0.0200   116.5040
 2787.0000   -52.8220     4.6260     4.8440     6.3940     8.1640     2.4770     0.0180   118.2140
 2787.5000   -52.8070     4.2130     4.5190     5.8270     8.1650     2.4680     0.0160   119.8500
 2788.0000   -52.7930     3.8000     4.2970     5.2590     8.1660     2.4670     0.0150   123.8190
 2788.5000   -52.7780     3.4630     4.2330     4.6080     8.1670     2.4770     0.0130   127.5450
 2789.0000   -52.7630     3.6160     4.1680     4.6790     8.1680     2.4770     0.0110   131.5070
 2789.5000   -52.7490     3.8110     4.1040     5.0650     8.1690     2.4700     0.0090   134.7820
 2790.0000   -52.7340     4.0150     4.2680     6.1340     8.1700     2.4650     0.0080   140.0640
 2790.5000   -52.7190     4.2040     4.5010     7.3540     8.1710     2.4790     0.0080   145.9170
 2791.0000   -52.7050     4.5450     4.7340     8.1190     8.1720     2.4920     0.0100   150.7700
 2791.5000   -52.6900     4.8850     4.9680     8.4350     8.1730     2.5060     0.0120   147.6260
 2792.0000   -52.6750     5.2260     5.2010     8.5010     8.1740     2.5190     0.0140   135.3790
 2792.5000   -52.6610     5.5670     5.4340     8.5660     8.1750     2.5320     0.0160   123.5620
 2793.0000   -52.6460     5.9070     5.6670     8.6310     8.1760     2.5410     0.0180   110.9140
 2793.5000   -52.6310     6.4870     5.9000     8.7160     8.1780     2.5460     0.0190   109.2250
 2794.0000   -52.6160     6.4710     6.2520     8.5330     8.1780     2.5500     0.0210   107.7660
 2794.5000   -52.6010     6.4160     6.2300     8.3020     8.1800     2.5440     0.0230   106.9160
 2795.0000   -52.5880     6.3620     6.1860     8.1040     8.1780     2.5500     0.0200   106.3270
 2795.5000   -52.5590     6.3070     6.1420     7.9050     8.1740     2.5480     0.0170   107.7410
 2796.0000   -52.5110     6.2530     6.0990     7.7070     8.1710     2.5320     0.0140   109.0860
 2796.5000   -52.4660     6.1980     6.0550     7.5190     8.1670     2.5220     0.0110   110.4660
 2797.0000   -52.4200     6.1440     6.0110     7.5380     8.1640     2.5180     0.0080   111.8540
 2797.5000   -52.3740     6.0890     5.9670     7.5670     8.1600     2.5140     0.0060   113.2200
 2798.0000   -52.3290     6.0340     5.9150     7.5960     8.1570     2.5100     0.0060   114.7880
 2798.5000   -52.2830     5.9800     5.7960     7.6250     8.1530     2.5030     0.0050   116.3290
 2799.0000   -52.2370     5.9150     5.6520     7.6590     8.1500     2.4980     0.0040   117.8890
 2799.5000   -52.1910     5.7290     5.5080     7.4930     8.1460     2.4920     0.0040   119.4320
 2800.0000   -52.1460     5.5010     5.3940     7.2470     8.1430     2.4860     0.0030   120.9940
 2800.5000   -52.1000     5.2720     5.1200     6.8630     8.1390     2.4800     0.0020   122.5340
 2801.0000   -52.0540     5.0440     4.8920     6.3810     8.1360     2.4750     0.0020   124.3180
 2801.5000   -52.0080     4.8160     4.6640     5.9000     8.1320     2.4690     0.0010   127.2820
