~VERSION INFORMATION
 VERS.                2.0:   CWLS LOG ASCII STANDARD - VERSION 2.0
 WRAP.                 NO:   ONE LINE PER DEPTH STEP
~WELL INFORMATION
#MNEM.UNIT      DATA TYPE    INFORMATION
#----------   ------------   ------------------------------
 STRT.F          198.0000:   START DEPTH
 STOP.F         3034.0000:   STOP DEPTH
 STEP.F            0.5000:   STEP LENGTH
 NULL.          -999.2500:   NO VALUE
 COMP.    FENIX & SCISSON:   COMPANY
 WELL.   FENIX "A" #44-29:   WELL
 FLD .              NPR-3:   FIELD
 LOC .      S29 T39N R78W:   LOCATION
 CNTY.            NATRONA:   COUNTY
 STAT.            WYOMING:   STATE
 CTRY. UNITED STATES OF AMERICA:   COUNTRY
 SRVC.              WELEX:   SERVICE COMPANY
 DATE.        26-MAY-1977:   LOGDATE
 API .     49025103690000:   API NUMBER
~CURVE INFORMATION
#MNEM.UNIT       API CODE    CURVE DESCRIPTION
#----------   ------------   ------------------------------
 DEPT.F                  :   
 SPR .MV     07 010 01 00:   SPONTANEOUS POTENTIAL
 ILD .OHMM   07 120 46 00:   DEEP INDUCTION RESISTIVITY
 ILM .OHMM   07 120 44 00:   INDUCTION LOG MEDIUM RESISTIVITY
 SGRD.OHMM   07 220 05 00:   SHALLOW SHORT GUARD RESISTIVITY
 CALD.IN     45 280 60 00:   CALIPER FROM DENSITY LOG
 GRD .GAPI   45 310 01 00:   GAMMA RAY FROM DENSITY LOG
 RHOB.G/C3   45 350 01 00:   BULK DENSITY
 CORR.G/C3   45 356 01 00:   DENSITY CORRECTION
~PARAMETER INFORMATION
#MNEM.UNIT          VALUE    DESCRIPTION
#----------   ------------   ------------------------------
 EKB .F         5010.0000:   Kelly bushing
 EGL .F         5000.0000:   Ground level
 EDF .F            0.0000:   Drilling floor
 TD  .F         3036.0000:   Total depth
 DATE.        26-MAY-1977:   Date logged
 CLNT.            A2DTECH:   Client Code
 SL  . 2310' FNL & 2310' FWL:   Surface Location
 PD  .                 GL:   Permanent Datum
 EPD .F              5000:   Elevation Permanent Datum
 LMF .                 KB:   Log Measured From
 DMF .                 KB:   Drilling Measured From
 DD  .F              3035:   Depth driller
 DL  .F              3036:   Depth logger
 BLI .F              3034:   Bottom log interval
 TLI .F               210:   Top log interval
 CS1 .IN            8.625:   Casing size
 CBD1.      8.625" @ 245':   Casing driller 1
 CBL1.F               220:   Casing logger 1
 BS1 .IN            7.875:   Bit size
 BSD1.F              3035:   Depth drilled with bit1
 DFT .            KCL MUD:   Type fluid in hole
 DFD .                8.8:   Density
 DFV .                 34:   Viscosity
 DFPH.                7.5:   pH
 DFL .                6.6:   Fluid loss
 MSS .           FLOWLINE:   Source of sample
 RMS .OHMM           0.20:   Rm
 MST .F                89:   Rm Meas. temp.
 RMF .OHMM           0.17:   Rmf
 MFST.F                89:   Rmf Meas. temp.
 RMC .OHMM           0.30:   Rmc
 MCST.F                89:   Rmc Meas. temp.
 MFSS.               FANN:   Source Rmf.
 MCSS.                KIT:   Source Rmc.
 RMB .OHMM           0.16:   Rm. at BHT
 BHT .F               110:   BHT.
 TCS .HRS             2.5:   Time Circ. stopped
 MRT .F               110:   Maximum recorded temp.
 LUN .               8611:   Logging unit number
 LUL .             CASPER:   Logging unit location
 ENGI.            C. DOAK:   Recorded By
 WITN.      B. HARRINGTON:   Witnessed by
 ORIG.           5" PRINT:   Origin of data
 UWI .     49025103690000:   Unique Well ID
 DICO. A2D TECHNOLOGIES, INC.:   Digitizing Company
~OTHER INFORMATION
~A   DEPT      SPR        ILD        ILM       SGRD       CALD         GRD      RHOB       CORR   
# ...
 2425.5000   -37.2660     6.1340     8.2430     9.8890     9.7230   111.1060     2.4970     0.0360
 2426.0000   -37.2820     6.0820     8.1320     9.3330     9.7410   115.3460     2.4890     0.0330
 2426.5000   -37.2980     6.0060     8.1320     9.2480     9.7600   120.7800     2.4760     0.0300
 2427.0000   -37.3140     6.0180     8.2640     9.4840     9.7790   120.5780     2.4660     0.0260
 2427.5000   -37.3310     6.0400     8.4360     9.7210     9.7980   122.7010     2.4600     0.0260
 2428.0000   -37.3470     6.0610     8.7330     9.8330     9.8170   126.7770     2.4590     0.0270
 2428.5000   -37.3630     6.0820     9.1630    10.1760     9.8350   126.8350     2.4620     0.0270
 2429.0000   -37.3790     6.1030     9.1630    10.8100     9.8540   126.8580     2.4620     0.0280
 2429.5000   -37.3950     6.1250     8.8680    10.7060     9.8730   130.8370     2.4580     0.0270
 2430.0000   -37.4120     6.1460     8.5140    10.5040     9.8920   131.1940     2.4580     0.0250
 2430.5000   -37.4280     6.1740     8.5140    10.3020     9.9100   121.4810     2.4630     0.0230
 2431.0000   -37.4440     6.1570     8.4870    10.1000     9.9290   123.5710     2.4720     0.0250
 2431.5000   -37.4600     6.1330     8.4560     9.9530     9.9480   126.8590     2.4840     0.0340
 2432.0000   -37.4760     6.1080     8.4250    10.2490     9.9560   129.9130     2.4960     0.0390
 2432.5000   -37.4930     6.0840     8.3940    10.5160     9.9580   127.8330     2.5060     0.0420
 2433.0000   -37.5090     6.0590     8.3630    10.3940     9.9600   125.4110     2.5080     0.0410
 2433.5000   -37.5250     6.0350     8.3320    10.2490     9.9620   128.3300     2.5000     0.0410
 2434.0000   -37.5410     6.0110     8.3000    10.0370     9.9640   131.4160     2.4910     0.0400
 2434.5000   -37.5570     6.0060     8.2690     9.5940     9.9660   131.9160     2.4830     0.0400
 2435.0000   -37.5740     6.0060     8.2380     9.6040     9.9670   129.6840     2.4860     0.0410
 2435.5000   -37.5900     5.9690     8.2070     9.6300     9.9690   124.1600     2.4890     0.0430
 2436.0000   -37.6060     5.8760     8.1480     9.6560     9.9710   122.4310     2.4860     0.0450
 2436.5000   -37.6220     5.7830     8.0480     9.6820     9.9730   126.6360     2.4880     0.0480
 2437.0000   -37.6380     5.6890     7.9560     9.6820     9.9750   126.0050     2.4910     0.0500
 2437.5000   -37.6550     5.5960     7.7800     9.5970     9.9770   124.0810     2.4870     0.0510
 2438.0000   -37.6710     5.5030     7.6040     9.4420     9.9790   122.9630     2.4800     0.0470
 2438.5000   -37.6870     5.4100     7.4390     9.2880     9.9810   125.2590     2.4740     0.0430
 2439.0000   -37.7030     5.3160     7.2840     9.1340     9.9830   128.4980     2.4680     0.0390
 2439.5000   -37.7190     5.2320     7.0300     8.9960     9.9850   131.7450     2.4630     0.0360
 2440.0000   -37.7360     5.2210     6.7370     8.3460     9.9870   134.4700     2.4590     0.0360
 2440.5000   -37.7520     5.2110     6.6450     6.9570     9.9890   137.2580     2.4590     0.0350
 2441.0000   -37.7680     5.2000     6.9240     7.7540     9.9910   140.0510     2.4650     0.0350
 2441.5000   -37.7840     5.1850     7.2420     8.9150     9.9920   141.8350     2.4700     0.0350
 2442.0000   -37.7870     5.2450     7.4190     9.7720     9.9940   138.9460     2.4750     0.0350
 2442.5000   -37.7760     5.3340     7.4930     9.7000     9.9940   135.7160     2.4830     0.0350
 2443.0000   -37.7640     5.4230     7.5160     9.5910     9.9940   132.5980     2.4890     0.0340
 2443.5000   -37.7520     5.5120     7.5390     9.4820     9.9940   129.7230     2.4880     0.0340
 2444.0000   -37.7400     5.5810     7.5620     9.3590     9.9940   121.1350     2.4820     0.0340
 2444.5000   -37.7290     5.5720     7.5840     9.1830     9.9940   116.6630     2.4790     0.0340
 2445.0000   -37.7170     5.5290     7.6070     9.2920     9.9940   119.7960     2.4800     0.0330
 2445.5000   -37.7050     5.4860     7.6260     9.5060     9.9940   127.6220     2.4780     0.0300
 2446.0000   -37.6930     5.4430     7.5680     9.4400     9.9940   129.3160     2.4720     0.0270
 2446.5000   -37.6810     5.4000     7.5200     9.3330     9.9940   126.7420     2.4660     0.0230
 2447.0000   -37.6700     5.3570     7.4710     9.2110     9.9940   128.6340     2.4610     0.0200
 2447.5000   -37.6580     5.3140     7.4230     9.0510     9.9930   130.5970     2.4590     0.0170
 2448.0000   -37.6460     5.2710     7.3750     8.9140     9.9870   132.5850     2.4630     0.0140
 2448.5000   -37.6340     5.2380     7.3260     8.9250     9.9820   133.8940     2.4660     0.0100
 2449.0000   -37.6220     5.2980     7.2840     8.9450     9.9770   131.6140     2.4630     0.0130
 2449.5000   -37.6110     5.3550     7.3510     8.9660     9.9720   128.3900     2.4630     0.0160
 2450.0000   -37.5980     5.4120     7.6520     8.9860     9.9670   124.9840     2.4690     0.0200
 2450.5000   -37.5980     5.4840     7.9830     8.9960     9.9610   126.9560     2.4760     0.0230
 2451.0000   -37.5980     5.5620     8.3150     8.9960     9.9560   131.2180     2.4770     0.0220
 2451.5000   -37.5980     5.6320     8.6460     9.7090     9.9420   135.3680     2.4770     0.0200
 2452.0000   -37.5980     5.7760     8.9770    10.5050     9.9230   135.7300     2.4790     0.0180
 2452.5000   -37.5980     5.9060     9.3850    11.1520     9.9050   130.4670     2.4830     0.0170
 2453.0000   -37.5980     6.0370     9.8270    11.6450     9.8760   126.1350     2.4920     0.0180
 2453.5000   -37.5980     6.1680    10.2310    12.1380     9.8340   121.6430     2.5010     0.0230
 2454.0000   -37.5980     6.2880    10.3950    12.2930     9.7920   114.8920     2.5100     0.0270
 2454.5000   -37.5980     6.6570    10.7330    11.8600     9.7510   110.0240     2.5160     0.0280
 2455.0000   -37.5980     6.9960    11.0710    11.2150     9.7090   107.2190     2.5120     0.0280
 2455.5000   -37.5980     7.3360    12.3480    11.2150     9.6670   104.4530     2.5080     0.0280
 2456.0000   -37.5980     7.6750    13.7520    14.5250     9.6260    99.3700     2.5270     0.0300
 2456.5000   -37.5980     8.0150    14.7720    23.8010     9.5940    88.6180     2.5490     0.0320
 2457.0000   -37.5980     8.1880    15.4660    43.0860     9.5640    77.7260     2.5660     0.0340
 2457.5000   -37.5980     8.3210    16.0770    67.2260     9.5340    66.8470     2.5750     0.0350
 2458.0000   -37.5980     8.5040    16.9890    76.4330     9.5040    53.6810     2.5650     0.0360
 2458.5000   -37.5980     8.4400    14.9440    56.1250     9.4830    56.9020     2.5500     0.0370
 2459.0000   -37.5980     8.3590    12.6930    29.4120     9.4920    71.7580     2.5350     0.0380
 2459.5000   -37.5980     8.1100    10.5660    21.2140     9.5010    89.4740     2.5220     0.0400
 2460.0000   -37.5980     7.7350     8.9900    12.2930     9.5100   106.5260     2.5110     0.0420
 2460.5000   -37.5980     7.3600     8.5930    10.3250     9.5180   122.5860     2.5010     0.0430
 2461.0000   -37.5980     6.9850     8.5930    10.2310     9.5470   132.0900     2.4910     0.0400
 2461.5000   -37.5980     6.6100     8.5930    10.8120     9.5800   133.4320     2.4860     0.0370
 2462.0000   -37.5980     6.2880     8.5930    11.2740     9.6210   130.2900     2.4890     0.0350
 2462.5000   -37.5980     6.1740     8.5930    11.5280     9.6760   127.0600     2.4960     0.0360
 2463.0000   -37.5980     6.1620     8.5930    11.2000     9.7300   123.8670     2.5040     0.0400
 2463.5000   -37.5980     6.1370     8.5520    10.6860     9.7840   120.6280     2.5050     0.0440
 2464.0000   -37.5980     6.1120     8.4600    10.0440     9.8380   119.3130     2.5000     0.0440
 2464.5000   -37.5980     6.0860     8.3680    10.0440     9.8930   120.8350     2.5030     0.0440
 2465.0000   -37.5980     6.0620     8.2760    10.1020     9.9260   124.6200     2.5050     0.0440
 2465.5000   -37.5980     6.0740     8.1840    10.1490     9.9430   128.4270     2.5070     0.0440
