~VERSION INFORMATION
 VERS.                2.0:   CWLS LOG ASCII STANDARD - VERSION 2.0
 WRAP.                 NO:   ONE LINE PER DEPTH STEP
~WELL INFORMATION
#MNEM.UNIT      DATA TYPE    INFORMATION
#----------   ------------   ------------------------------
 STRT.F          198.0000:   START DEPTH
 STOP.F         3034.0000:   STOP DEPTH
 STEP.F            0.5000:   STEP LENGTH
 NULL.          -999.2500:   NO VALUE
 COMP.    FENIX & SCISSON:   COMPANY
 WELL.   FENIX "A" #44-29:   WELL
 FLD .              NPR-3:   FIELD
 LOC .      S29 T39N R78W:   LOCATION
 CNTY.            NATRONA:   COUNTY
 STAT.            WYOMING:   STATE
 CTRY. UNITED STATES OF AMERICA:   COUNTRY
 SRVC.              WELEX:   SERVICE COMPANY
 DATE.        26-MAY-1977:   LOGDATE
 API .     49025103690000:   API NUMBER
~CURVE INFORMATION
#MNEM.UNIT       API CODE    CURVE DESCRIPTION
#----------   ------------   ------------------------------
 DEPT.F                  :   
 SPR .MV     07 010 01 00:   SPONTANEOUS POTENTIAL
 ILD .OHMM   07 120 46 00:   DEEP INDUCTION RESISTIVITY
 ILM .OHMM   07 120 44 00:   INDUCTION LOG MEDIUM RESISTIVITY
 SGRD.OHMM   07 220 05 00:   SHALLOW SHORT GUARD RESISTIVITY
 CALD.IN     45 280 60 00:   CALIPER FROM DENSITY LOG
 GRD .GAPI   45 310 01 00:   GAMMA RAY FROM DENSITY LOG
 RHOB.G/C3   45 350 01 00:   BULK DENSITY
 CORR.G/C3   45 356 01 00:   DENSITY CORRECTION
~PARAMETER INFORMATION
#MNEM.UNIT          VALUE    DESCRIPTION
#----------   ------------   ------------------------------
 EKB .F         5010.0000:   Kelly bushing
 EGL .F         5000.0000:   Ground level
 EDF .F            0.0000:   Drilling floor
 TD  .F         3036.0000:   Total depth
 DATE.        26-MAY-1977:   Date logged
 CLNT.            A2DTECH:   Client Code
 SL  . 2310' FNL & 2310' FWL:   Surface Location
 PD  .                 GL:   Permanent Datum
 EPD .F              5000:   Elevation Permanent Datum
 LMF .                 KB:   Log Measured From
 DMF .                 KB:   Drilling Measured From
 DD  .F              3035:   Depth driller
 DL  .F              3036:   Depth logger
 BLI .F              3034:   Bottom log interval
 TLI .F               210:   Top log interval
 CS1 .IN            8.625:   Casing size
 CBD1.      8.625" @ 245':   Casing driller 1
 CBL1.F               220:   Casing logger 1
 BS1 .IN            7.875:   Bit size
 BSD1.F              3035:   Depth drilled with bit1
 DFT .            KCL MUD:   Type fluid in hole
 DFD .                8.8:   Density
 DFV .                 34:   Viscosity
 DFPH.                7.5:   pH
 DFL .                6.6:   Fluid loss
 MSS .           FLOWLINE:   Source of sample
 RMS .OHMM           0.20:   Rm
 MST .F                89:   Rm Meas. temp.
 RMF .OHMM           0.17:   Rmf
 MFST.F                89:   Rmf Meas. temp.
 RMC .OHMM           0.30:   Rmc
 MCST.F                89:   Rmc Meas. temp.
 MFSS.               FANN:   Source Rmf.
 MCSS.                KIT:   Source Rmc.
 RMB .OHMM           0.16:   Rm. at BHT
 BHT .F               110:   BHT.
 TCS .HRS             2.5:   Time Circ. stopped
 MRT .F               110:   Maximum recorded temp.
 LUN .               8611:   Logging unit number
 LUL .             CASPER:   Logging unit location
 ENGI.            C. DOAK:   Recorded By
 WITN.      B. HARRINGTON:   Witnessed by
 ORIG.           5" PRINT:   Origin of data
 UWI .     49025103690000:   Unique Well ID
 DICO. A2D TECHNOLOGIES, INC.:   Digitizing Company
~OTHER INFORMATION
~A   DEPT      SPR        ILD        ILM       SGRD       CALD         GRD      RHOB       CORR   
# ...
  400.5000   -20.4770     8.9970    10.7160    14.4960    10.0470    92.6850     2.4510     0.0310
  401.0000   -20.5760     8.9960    10.6120    13.9800    10.0480    92.4210     2.4460     0.0280
  401.5000   -20.6730     8.9960    10.5160    13.9170    10.0490    91.7250     2.4430     0.0260
  402.0000   -20.7720     8.8510    10.2030    13.7740    10.0500    92.8910     2.4460     0.0240
  402.5000   -20.8740     8.7380     9.9160    13.5030    10.0500    95.1210     2.4510     0.0220
  403.0000   -20.9830     8.6250     9.6280    13.2320    10.0510    97.9170     2.4520     0.0200
  403.5000   -21.0910     8.5120     9.4020    12.9600    10.0520   100.5480     2.4480     0.0230
  404.0000   -21.1990     8.3990     9.3380    12.6030    10.0520   101.9720     2.4450     0.0260
  404.5000   -21.3080     8.2860     9.2740    12.2040    10.0530   103.3650     2.4470     0.0290
  405.0000   -21.4430     8.1720     9.2100    12.0690    10.0620   104.3480     2.4490     0.0320
  405.5000   -21.6730     8.0590     9.1470    12.3470    10.0710   103.2920     2.4510     0.0350
  406.0000   -21.8990     7.9460     9.0830    12.6370    10.0800   101.3310     2.4530     0.0380
  406.5000   -22.1260     7.8390     8.9960    12.2660    10.0890    99.6200     2.4450     0.0410
  407.0000   -22.3520     7.7590     9.0180    11.8500    10.0980   100.4250     2.4330     0.0410
  407.5000   -22.5790     7.6830     9.0670    11.7670    10.1080   101.9780     2.4220     0.0400
  408.0000   -22.8060     7.6070     9.1160    11.6700    10.1170   101.8100     2.4110     0.0390
  408.5000   -23.0320     7.5300     9.1630    11.6340    10.1260   100.0060     2.4030     0.0330
  409.0000   -23.2590     7.4650     8.9720    11.4680    10.1400    99.2500     2.3980     0.0240
  409.5000   -23.4860     7.4150     8.5270    11.3080    10.1670   101.0610     2.4080     0.0210
  410.0000   -23.7120     7.3640     8.3590    11.2150    10.1930   103.5810     2.4210     0.0190
  410.5000   -23.9390     7.3130     8.3270    11.2150    10.2010   109.5040     2.4310     0.0170
  411.0000   -24.1660     7.2840     8.2960    11.2690    10.1640   110.9450     2.4260     0.0170
  411.5000   -24.3920     7.2840     8.2640    11.4000    10.1290   108.4930     2.4220     0.0200
  412.0000   -24.6190     7.2840     8.2330    11.5310    10.0940   105.2270     2.4260     0.0230
  412.5000   -24.8450     7.2840     8.2010    11.7280    10.0940   101.9930     2.4370     0.0270
  413.0000   -25.0720     7.2840     8.1700    11.6820    10.0960    99.1150     2.4470     0.0300
  413.5000   -25.2990     7.2840     8.1390    11.5310    10.0980    99.6060     2.4530     0.0330
  414.0000   -25.5250     7.2840     7.8480    11.3800    10.1000   102.2360     2.4470     0.0310
  414.5000   -25.7530     7.2840     7.5630    11.1570    10.1010   103.9630     2.4390     0.0270
  415.0000   -25.9810     7.2840     7.4570    10.8820    10.1030   103.9750     2.4320     0.0230
  415.5000   -26.2360     7.2350     7.3500    10.6070    10.1050   105.5840     2.4240     0.0190
  416.0000   -26.5050     7.1060     7.2410    10.3250    10.1060   107.3240     2.4160     0.0160
  416.5000   -26.6890     6.9780     7.1270    10.2940    10.1080   108.9670     2.4080     0.0150
  417.0000   -26.8800     6.8490     7.0140    10.2610    10.1100   106.9760     2.4050     0.0150
  417.5000   -27.0710     6.7200     6.9000    10.2290    10.1120   104.7980     2.4030     0.0140
  418.0000   -27.2620     6.5920     6.7870    10.1970    10.1200   104.7770     2.4010     0.0120
  418.5000   -27.4530     6.4630     6.6730    10.1650    10.1340   107.2760     2.3990     0.0090
  419.0000   -27.6440     6.3320     6.5840    10.1360    10.1470   109.9350     2.3970     0.0080
  419.5000   -27.8350     6.2010     6.6090    10.1370    10.1610   110.8860     2.3950     0.0080
  420.0000   -28.0260     6.0690     6.6560    10.1370    10.1750   110.4790     2.3980     0.0120
  420.5000   -28.2180     5.9370     6.7060    10.1350    10.1880   109.0700     2.4040     0.0150
  421.0000   -28.4100     5.8060     6.4720    10.1370    10.2040   106.0310     2.4100     0.0190
  421.5000   -28.6050     5.6740     6.1540    10.1370    10.2210   106.7410     2.4150     0.0220
  422.0000   -28.6140     5.5420     5.8360     9.8520    10.2370   107.5750     2.4160     0.0210
  422.5000   -28.6130     5.4790     5.6840     8.5100    10.2540   106.8170     2.4070     0.0200
  423.0000   -28.5590     5.4790     5.6840     6.4350    10.2700   104.0620     2.4000     0.0200
  423.5000   -28.4550     5.6450     5.9490     5.8430    10.2860   102.3570     2.4090     0.0190
  424.0000   -28.3510     5.8260     6.3210    10.3250    10.3030   103.2540     2.4240     0.0180
  424.5000   -28.2470     6.0080     6.6920    10.2780    10.3030   104.6830     2.4400     0.0210
  425.0000   -28.1420     6.1940     7.0630    10.2310    10.2920   106.1360     2.4520     0.0250
  425.5000   -28.0390     6.4590     7.4340    10.4990    10.2810   106.6940     2.4520     0.0270
  426.0000   -28.0270     6.7240     7.7430    11.0830    10.2700   106.4510     2.4460     0.0250
  426.5000   -28.0270     6.9880     7.9030    11.6670    10.2690   105.1190     2.4400     0.0240
  427.0000   -28.0270     7.2530     8.0640    11.8600    10.2670   103.8100     2.4330     0.0220
  427.5000   -28.0270     7.3960     8.2240    11.8750    10.2660   102.8070     2.4300     0.0200
  428.0000   -28.0270     7.5220     8.3840    11.8890    10.2640   103.2400     2.4350     0.0180
  428.5000   -28.0270     7.6490     8.6270    11.9040    10.2630   103.6320     2.4310     0.0160
  429.0000   -28.0270     7.7670     8.8700    11.9190    10.2620   103.8400     2.4290     0.0160
  429.5000   -28.0270     7.8360     9.0070    11.9330    10.2600   103.2600     2.4320     0.0170
  430.0000   -28.0280     7.8170     9.1630    11.9480    10.2590   102.7030     2.4360     0.0170
  430.5000   -28.0270     7.7910     9.1470    11.9950    10.2570   102.3800     2.4340     0.0170
  431.0000   -28.0230     7.7670     9.1240    12.1330    10.2560   103.2570     2.4270     0.0180
  431.5000   -28.1540     7.7250     9.1000    12.1810    10.2540   105.3770     2.4290     0.0190
  432.0000   -28.3010     7.6850     9.0760    11.8720    10.2530   107.4860     2.4320     0.0210
  432.5000   -28.4490     7.6460     9.0520    11.6340    10.2510   109.5980     2.4310     0.0230
  433.0000   -28.5970     7.6060     9.0280    11.4520    10.2450   111.7140     2.4270     0.0250
  433.5000   -28.7450     7.5660     9.0040    11.3180    10.2190   113.8450     2.4250     0.0270
  434.0000   -28.8930     7.5260     8.9810    11.3820    10.1930   114.1670     2.4280     0.0310
  434.5000   -29.0420     7.4870     8.9570    11.4460    10.1670   111.2080     2.4350     0.0340
  435.0000   -29.1900     7.5180     8.9330    11.5520    10.1410   108.2930     2.4410     0.0380
  435.5000   -29.3360     7.5480     8.9140    11.6580    10.1320   105.5600     2.4480     0.0410
  436.0000   -29.5790     7.5780     8.7530    11.7420    10.1320   104.9120     2.4500     0.0450
  436.5000   -29.8780     7.6260     8.5940    11.4570    10.1320   104.5550     2.4380     0.0440
  437.0000   -30.1740     7.5960     8.4360    11.3180    10.1320   103.9630     2.4260     0.0430
  437.5000   -30.3850     7.5220     8.3050    11.2510    10.1320   104.9090     2.4120     0.0420
  438.0000   -30.5940     7.4480     8.1740    10.9150    10.1320   105.8460     2.3980     0.0420
  438.5000   -30.8410     7.3730     8.0430    10.5990    10.1320   106.8130     2.3830     0.0410
  439.0000   -31.2390     7.2990     7.9110    10.0140    10.1320   106.8100     2.3690     0.0360
  439.5000   -31.6400     7.0300     7.5030     9.5470    10.1320   106.2010     2.3540     0.0270
  440.0000   -32.0400     6.6700     7.0900     9.1640    10.1320   105.5910     2.3390     0.0210
  440.5000   -32.4410     6.2490     6.6770     8.7820    10.1290   105.2390     2.3270     0.0200
