~VERSION INFORMATION
 VERS.                2.0:   CWLS LOG ASCII STANDARD - VERSION 2.0
 WRAP.                 NO:   ONE LINE PER DEPTH STEP
~WELL INFORMATION
#MNEM.UNIT      DATA TYPE    INFORMATION
#----------   ------------   ------------------------------
 STRT.F          198.0000:   START DEPTH
 STOP.F         3034.0000:   STOP DEPTH
 STEP.F            0.5000:   STEP LENGTH
 NULL.          -999.2500:   NO VALUE
 COMP.    FENIX & SCISSON:   COMPANY
 WELL.   FENIX "A" #44-29:   WELL
 FLD .              NPR-3:   FIELD
 LOC .      S29 T39N R78W:   LOCATION
 CNTY.            NATRONA:   COUNTY
 STAT.            WYOMING:   STATE
 CTRY. UNITED STATES OF AMERICA:   COUNTRY
 SRVC.              WELEX:   SERVICE COMPANY
 DATE.        26-MAY-1977:   LOGDATE
 API .     49025103690000:   API NUMBER
~CURVE INFORMATION
#MNEM.UNIT       API CODE    CURVE DESCRIPTION
#----------   ------------   ------------------------------
 DEPT.F                  :   
 SPR .MV     07 010 01 00:   SPONTANEOUS POTENTIAL
 ILD .OHMM   07 120 46 00:   DEEP INDUCTION RESISTIVITY
 ILM .OHMM   07 120 44 00:   INDUCTION LOG MEDIUM RESISTIVITY
 SGRD.OHMM   07 220 05 00:   SHALLOW SHORT GUARD RESISTIVITY
 CALD.IN     45 280 60 00:   CALIPER FROM DENSITY LOG
 GRD .GAPI   45 310 01 00:   GAMMA RAY FROM DENSITY LOG
 RHOB.G/C3   45 350 01 00:   BULK DENSITY
 CORR.G/C3   45 356 01 00:   DENSITY CORRECTION
~PARAMETER INFORMATION
#MNEM.UNIT          VALUE    DESCRIPTION
#----------   ------------   ------------------------------
 EKB .F         5010.0000:   Kelly bushing
 EGL .F         5000.0000:   Ground level
 EDF .F            0.0000:   Drilling floor
 TD  .F         3036.0000:   Total depth
 DATE.        26-MAY-1977:   Date logged
 CLNT.            A2DTECH:   Client Code
 SL  . 2310' FNL & 2310' FWL:   Surface Location
 PD  .                 GL:   Permanent Datum
 EPD .F              5000:   Elevation Permanent Datum
 LMF .                 KB:   Log Measured From
 DMF .                 KB:   Drilling Measured From
 DD  .F              3035:   Depth driller
 DL  .F              3036:   Depth logger
 BLI .F              3034:   Bottom log interval
 TLI .F               210:   Top log interval
 CS1 .IN            8.625:   Casing size
 CBD1.      8.625" @ 245':   Casing driller 1
 CBL1.F               220:   Casing logger 1
 BS1 .IN            7.875:   Bit size
 BSD1.F              3035:   Depth drilled with bit1
 DFT .            KCL MUD:   Type fluid in hole
 DFD .                8.8:   Density
 DFV .                 34:   Viscosity
 DFPH.                7.5:   pH
 DFL .                6.6:   Fluid loss
 MSS .           FLOWLINE:   Source of sample
 RMS .OHMM           0.20:   Rm
 MST .F                89:   Rm Meas. temp.
 RMF .OHMM           0.17:   Rmf
 MFST.F                89:   Rmf Meas. temp.
 RMC .OHMM           0.30:   Rmc
 MCST.F                89:   Rmc Meas. temp.
 MFSS.               FANN:   Source Rmf.
 MCSS.                KIT:   Source Rmc.
 RMB .OHMM           0.16:   Rm. at BHT
 BHT .F               110:   BHT.
 TCS .HRS             2.5:   Time Circ. stopped
 MRT .F               110:   Maximum recorded temp.
 LUN .               8611:   Logging unit number
 LUL .             CASPER:   Logging unit location
 ENGI.            C. DOAK:   Recorded By
 WITN.      B. HARRINGTON:   Witnessed by
 ORIG.           5" PRINT:   Origin of data
 UWI .     49025103690000:   Unique Well ID
 DICO. A2D TECHNOLOGIES, INC.:   Digitizing Company
~OTHER INFORMATION
~A   DEPT      SPR        ILD        ILM       SGRD       CALD         GRD      RHOB       CORR   
# ...
 1858.5000   -32.8590     6.3830     8.9960    12.7990     8.4830   144.4370     2.4320     0.0290
 1859.0000   -32.8770     6.3090     8.8780    12.8710     8.4890   143.0040     2.4310     0.0320
 1859.5000   -32.8950     6.2350     8.4810    12.8710     8.4950   143.7240     2.4250     0.0300
 1860.0000   -32.9080     6.1610     8.2830     9.8620     8.5080   140.9310     2.4190     0.0270
 1860.5000   -32.8730     6.0870     8.3210    10.5380     8.5210   137.1890     2.4230     0.0250
 1861.0000   -32.8380     6.0060     8.5930    11.2150     8.5350   133.4040     2.4160     0.0210
 1861.5000   -32.8040     6.0160     8.5930     9.6820     8.5480   132.5570     2.4050     0.0150
 1862.0000   -32.7700     6.0350     8.9840     9.7720     8.5620   134.5910     2.3930     0.0090
 1862.5000   -32.7350     6.0540     9.6090    12.2930     8.5740   133.5090     2.3820     0.0040
 1863.0000   -32.7010     6.0740    10.2330    12.5210     8.5720   130.3890     2.3790     0.0030
 1863.5000   -32.6670     6.0930    10.6650    12.4580     8.5690   128.8480     2.3820     0.0040
 1864.0000   -32.6330     6.1120    10.9100    12.4070     8.5670   135.0420     2.3920     0.0060
 1864.5000   -32.5980     6.1320    10.8510    11.5280     8.5650   142.0490     2.4020     0.0070
 1865.0000   -32.5640     6.1510    10.8100    11.5280     8.5620   142.9900     2.4080     0.0090
 1865.5000   -32.5280     6.1700    11.0190    12.0690     8.5600   138.6830     2.4120     0.0100
 1866.0000   -32.5440     6.1900    11.3190    11.7990     8.5580   133.6720     2.4150     0.0100
 1866.5000   -32.5790     6.2090    11.5280    11.3180     8.5560   130.7830     2.4130     0.0100
 1867.0000   -32.6140     6.2280    11.5280    11.7420     8.5530   133.3470     2.4150     0.0100
 1867.5000   -32.6490     6.2480    11.5280    11.8500     8.5510   138.3740     2.4160     0.0100
 1868.0000   -32.6830     6.2670    11.5280    11.1120     8.5490   141.4150     2.4120     0.0100
 1868.5000   -32.7180     6.2860    11.6850    11.0110     8.5460   139.1860     2.4060     0.0100
 1869.0000   -32.7530     6.3060    11.9990    12.4070     8.5440   135.6630     2.4070     0.0100
 1869.5000   -32.7880     6.3250    12.3120    12.5800     8.5420   132.6260     2.4150     0.0140
 1870.0000   -32.8230     6.3460    12.4070    12.7530     8.5400   132.8350     2.4220     0.0190
 1870.5000   -32.8580     6.3270    12.3250    12.5000     8.5370   136.7370     2.4300     0.0230
 1871.0000   -32.8920     6.3060    12.1610    12.2700     8.5350   140.8550     2.4370     0.0280
 1871.5000   -32.8890     6.2850    11.9970    12.0400     8.5300   143.7210     2.4440     0.0320
 1872.0000   -32.8470     6.2630    11.8330    11.8100     8.5240   145.6360     2.4500     0.0320
 1872.5000   -32.8050     6.2420    11.6680    11.7420     8.5190   146.4270     2.4500     0.0310
 1873.0000   -32.7630     6.2210    11.5040    11.9590     8.5200   147.2150     2.4510     0.0290
 1873.5000   -32.7210     6.2000    11.3950    11.1120     8.5390   147.9500     2.4480     0.0270
 1874.0000   -32.6790     6.1780    11.3400    11.4190     8.5540   147.2470     2.4450     0.0250
 1874.5000   -32.6370     6.1570    11.2860    11.8500     8.5520   142.0960     2.4360     0.0230
 1875.0000   -32.5940     6.1360    11.2310    11.5280     8.5510   133.7810     2.4280     0.0210
 1875.5000   -32.5520     6.1150    11.0110    11.7400     8.5490   131.8940     2.4190     0.0190
 1876.0000   -32.5100     6.0930    10.5740    12.1660     8.5470   131.6330     2.4230     0.0170
 1876.5000   -32.4680     6.0720    10.1370    12.2930     8.5450   127.5910     2.4300     0.0160
 1877.0000   -32.4260     6.0620     9.9740    11.2150     8.5440   129.5310     2.4380     0.0140
 1877.5000   -32.3840     6.1010     9.7930    11.2150     8.5420   132.6100     2.4390     0.0130
 1878.0000   -32.3420     6.1440     9.5940    11.6340     8.5400   134.5220     2.4270     0.0110
 1878.5000   -32.3000     6.1880     9.5100    11.3180     8.5390   136.0900     2.4150     0.0100
 1879.0000   -32.2580     6.2320     9.3910    12.1810     8.5370   137.6100     2.4050     0.0080
 1879.5000   -32.2160     6.2750     9.2720    11.9870     8.5350   139.2980     2.4020     0.0070
 1880.0000   -32.1740     6.4050     9.1530    11.7420     8.5300   141.2920     2.4100     0.0050
 1880.5000   -32.1310     6.4630     9.0340    11.7420     8.5220   138.5120     2.4190     0.0040
 1881.0000   -32.0890     6.5280     8.9140    11.8500     8.5140   137.4130     2.4150     0.0020
 1881.5000   -32.0470     6.5920     8.7950    12.1540     8.5060   138.9210     2.4080     0.0010
 1882.0000   -32.0050     6.6570     8.6760    12.8710     8.4980   135.4680     2.4010    -0.0010
 1882.5000   -31.9630     6.7220     8.5930    12.9890     8.4980   135.4000     2.4010    -0.0020
 1883.0000   -31.9360     6.7860     8.7020    12.5640     8.5030   133.0970     2.4040     0.0000
 1883.5000   -31.9490     6.8510     8.7860    12.1810     8.5080   130.1010     2.4020     0.0020
 1884.0000   -31.9620     6.9150     8.8700    12.7530     8.5130   131.0730     2.4060     0.0040
 1884.5000   -31.9740     6.9800     8.9540    12.8290     8.5070   133.0360     2.4130     0.0060
 1885.0000   -31.9860     7.0450     8.9960    13.2300     8.4940   133.9790     2.4150     0.0080
 1885.5000   -31.9980     7.1090     8.6780    13.1700     8.4810   131.5280     2.4180     0.0070
 1886.0000   -32.0100     7.1740     8.4330    12.8640     8.4670   128.3120     2.4140     0.0060
 1886.5000   -32.0230     7.2380     8.3590    12.5210     8.4560   125.0030     2.4060     0.0050
 1887.0000   -32.0350     7.2840     8.3590    12.9640     8.4560   125.1620     2.3970     0.0040
 1887.5000   -32.0470     7.2280     8.3590    13.6000     8.4560   127.2590     2.3900     0.0030
 1888.0000   -32.0590     7.1850     8.3590    13.5540     8.4560   129.7990     2.3910     0.0030
 1888.5000   -32.0720     7.1420     8.5350    13.4610     8.4550   133.4840     2.4010     0.0060
 1889.0000   -32.0840     7.0990     8.8330    13.3690     8.4570   137.1050     2.4100     0.0080
 1889.5000   -32.0960     6.9930     9.2370    13.2760     8.4850   139.1590     2.4190     0.0110
 1890.0000   -32.1080     6.8610     9.6050    13.2300     8.5120   137.1680     2.4280     0.0130
 1890.5000   -32.1200     6.7290     9.9730    13.2300     8.5390   138.0820     2.4360     0.0160
 1891.0000   -32.1030     6.5970    10.3250    12.8720     8.5540   140.6900     2.4430     0.0190
 1891.5000   -32.0020     6.4650    10.8300    12.1000     8.5540   143.3520     2.4400     0.0210
 1892.0000   -31.9040     6.3460    11.2880    10.9100     8.5540   143.8760     2.4370     0.0240
 1892.5000   -31.8070     6.4170    11.7470    11.4920     8.5500   140.3560     2.4430     0.0250
 1893.0000   -31.7090     6.4800    12.2060    13.8400     8.5290   136.0000     2.4470     0.0260
 1893.5000   -31.6110     6.5440    12.6640    13.7810     8.5090   132.4910     2.4410     0.0270
 1894.0000   -31.5140     6.6080    13.1230    13.3960     8.4890   134.1010     2.4370     0.0280
 1894.5000   -31.4160     6.6720    13.4220    12.4070     8.4680   138.0480     2.4400     0.0290
 1895.0000   -31.3180     6.7360    13.5600    13.7250     8.4590   135.8170     2.4450     0.0300
 1895.5000   -31.2210     6.8000    13.6990    13.5390     8.4670   131.7920     2.4490     0.0310
 1896.0000   -31.1230     6.8640    13.8520    13.3520     8.4760   128.2510     2.4400     0.0310
 1896.5000   -31.0260     6.9280    13.8620    13.6070     8.4840   129.4670     2.4290     0.0280
 1897.0000   -30.9540     6.9910    13.8820    14.3700     8.4930   133.8030     2.4260     0.0260
 1897.5000   -30.9310     7.0550    13.9020    14.1610     8.5050   138.1160     2.4220     0.0230
 1898.0000   -30.9070     7.1190    13.9220    13.9000     8.5190   140.7160     2.4170     0.0230
 1898.5000   -30.8830     7.1510    13.9420    13.6390     8.5330   139.2850     2.4200     0.0250
