~VERSION INFORMATION
 VERS.                2.0:   CWLS LOG ASCII STANDARD - VERSION 2.0
 WRAP.                 NO:   ONE LINE PER DEPTH STEP
~WELL INFORMATION
#MNEM.UNIT      DATA TYPE    INFORMATION
#----------   ------------   ------------------------------
 STRT.F          198.0000:   START DEPTH
 STOP.F         3034.0000:   STOP DEPTH
 STEP.F            0.5000:   STEP LENGTH
 NULL.          -999.2500:   NO VALUE
 COMP.    FENIX & SCISSON:   COMPANY
 WELL.   FENIX "A" #44-29:   WELL
 FLD .              NPR-3:   FIELD
 LOC .      S29 T39N R78W:   LOCATION
 CNTY.            NATRONA:   COUNTY
 STAT.            WYOMING:   STATE
 CTRY. UNITED STATES OF AMERICA:   COUNTRY
 SRVC.              WELEX:   SERVICE COMPANY
 DATE.        26-MAY-1977:   LOGDATE
 API .     49025103690000:   API NUMBER
~CURVE INFORMATION
#MNEM.UNIT       API CODE    CURVE DESCRIPTION
#----------   ------------   ------------------------------
 DEPT.F                  :   
 SPR .MV     07 010 01 00:   SPONTANEOUS POTENTIAL
 ILD .OHMM   07 120 46 00:   DEEP INDUCTION RESISTIVITY
 ILM .OHMM   07 120 44 00:   INDUCTION LOG MEDIUM RESISTIVITY
 SGRD.OHMM   07 220 05 00:   SHALLOW SHORT GUARD RESISTIVITY
 CALD.IN     45 280 60 00:   CALIPER FROM DENSITY LOG
 GRD .GAPI   45 310 01 00:   GAMMA RAY FROM DENSITY LOG
 RHOB.G/C3   45 350 01 00:   BULK DENSITY
 CORR.G/C3   45 356 01 00:   DENSITY CORRECTION
~PARAMETER INFORMATION
#MNEM.UNIT          VALUE    DESCRIPTION
#----------   ------------   ------------------------------
 EKB .F         5010.0000:   Kelly bushing
 EGL .F         5000.0000:   Ground level
 EDF .F            0.0000:   Drilling floor
 TD  .F         3036.0000:   Total depth
 DATE.        26-MAY-1977:   Date logged
 CLNT.            A2DTECH:   Client Code
 SL  . 2310' FNL & 2310' FWL:   Surface Location
 PD  .                 GL:   Permanent Datum
 EPD .F              5000:   Elevation Permanent Datum
 LMF .                 KB:   Log Measured From
 DMF .                 KB:   Drilling Measured From
 DD  .F              3035:   Depth driller
 DL  .F              3036:   Depth logger
 BLI .F              3034:   Bottom log interval
 TLI .F               210:   Top log interval
 CS1 .IN            8.625:   Casing size
 CBD1.      8.625" @ 245':   Casing driller 1
 CBL1.F               220:   Casing logger 1
 BS1 .IN            7.875:   Bit size
 BSD1.F              3035:   Depth drilled with bit1
 DFT .            KCL MUD:   Type fluid in hole
 DFD .                8.8:   Density
 DFV .                 34:   Viscosity
 DFPH.                7.5:   pH
 DFL .                6.6:   Fluid loss
 MSS .           FLOWLINE:   Source of sample
 RMS .OHMM           0.20:   Rm
 MST .F                89:   Rm Meas. temp.
 RMF .OHMM           0.17:   Rmf
 MFST.F                89:   Rmf Meas. temp.
 RMC .OHMM           0.30:   Rmc
 MCST.F                89:   Rmc Meas. temp.
 MFSS.               FANN:   Source Rmf.
 MCSS.                KIT:   Source Rmc.
 RMB .OHMM           0.16:   Rm. at BHT
 BHT .F               110:   BHT.
 TCS .HRS             2.5:   Time Circ. stopped
 MRT .F               110:   Maximum recorded temp.
 LUN .               8611:   Logging unit number
 LUL .             CASPER:   Logging unit location
 ENGI.            C. DOAK:   Recorded By
 WITN.      B. HARRINGTON:   Witnessed by
 ORIG.           5" PRINT:   Origin of data
 UWI .     49025103690000:   Unique Well ID
 DICO. A2D TECHNOLOGIES, INC.:   Digitizing Company
~OTHER INFORMATION
~A   DEPT      SPR        ILD        ILM       SGRD       CALD         GRD      RHOB       CORR   
# ...
 2790.0000   -39.5510     4.8540     6.2880     8.1320     9.5960   131.2770     2.4390     0.0150
 2790.5000   -39.5580     4.8810     6.2880     8.2830     9.5630   130.0480     2.4470     0.0160
 2791.0000   -39.5640     4.9080     6.2880     8.1010     9.5310   131.9340     2.4550     0.0200
 2791.5000   -39.5710     4.9340     6.2880     7.9840     9.4990   133.8870     2.4600     0.0240
 2792.0000   -39.5770     4.9610     6.2880     7.9840     9.4670   135.6530     2.4620     0.0290
 2792.5000   -39.5830     4.9880     6.2880     7.9840     9.4340   135.5690     2.4650     0.0280
 2793.0000   -39.5890     5.0150     6.2880     8.6190     9.4000   132.5950     2.4660     0.0260
 2793.5000   -39.5960     5.0410     6.2880     8.9140     9.3700   136.4520     2.4620     0.0230
 2794.0000   -39.6020     5.0680     6.2880     8.6750     9.3480   138.2250     2.4560     0.0210
 2794.5000   -39.6080     5.0910     6.2880     8.3590     9.3260   133.1750     2.4490     0.0180
 2795.0000   -39.6140     5.0400     6.2880     8.4360     9.3050   129.8870     2.4480     0.0160
 2795.5000   -39.6210     4.9850     6.2880     8.3190     9.2830   129.9020     2.4490     0.0180
 2796.0000   -39.6270     4.9310     6.0740     8.2070     9.2610   132.8120     2.4590     0.0230
 2796.5000   -39.6330     4.8760     5.8450     8.2190     9.2400   136.4910     2.4740     0.0270
 2797.0000   -39.6400     4.8220     5.6160     8.2410     9.2180   140.2080     2.4810     0.0320
 2797.5000   -39.6460     4.7740     5.3870     8.2630     9.1970   142.1040     2.4800     0.0310
 2798.0000   -39.6520     4.7000     5.1380     8.2800     9.1910   139.8600     2.4680     0.0310
 2798.5000   -39.6580     4.5980     5.0910     8.0550     9.2030   139.1920     2.4690     0.0300
 2799.0000   -39.6650     4.4950     5.2540     7.8500     9.2150   141.4480     2.4650     0.0290
 2799.5000   -39.6710     4.3930     5.4330     7.6260     9.2270   141.7860     2.4560     0.0280
 2800.0000   -39.6770     4.2900     5.6120     7.5840     9.2390   139.5020     2.4510     0.0290
 2800.5000   -39.6830     4.1950     5.7370     7.5370     9.2450   148.1080     2.4520     0.0310
 2801.0000   -39.6900     4.1660     5.6790     7.4870     9.2450   143.3900     2.4550     0.0320
 2801.5000   -39.6960     4.1220     5.4940     7.4190     9.2450   141.4690     2.4540     0.0290
 2802.0000   -39.7020     4.1330     5.3100     7.1380     9.2440   145.1550     2.4530     0.0270
 2802.5000   -39.7080     4.1550     5.1850     6.7490     9.2220   150.2310     2.4570     0.0240
 2803.0000   -39.7150     4.1760     5.2110     6.6450     9.1970   153.5630     2.4600     0.0210
 2803.5000   -39.7210     4.1980     5.2890     7.1790     9.1730   157.0570     2.4530     0.0180
 2804.0000   -39.7270     4.2190     5.3660     7.4870     9.1480   158.6650     2.4440     0.0150
 2804.5000   -39.7330     4.2410     5.4440     7.2840     9.1230   155.9540     2.4340     0.0110
 2805.0000   -39.7390     4.2620     5.5210     7.3650     9.0990   151.2620     2.4320     0.0060
 2805.5000   -39.7480     4.2760     5.5990     7.5560     9.0860   146.6190     2.4380     0.0050
 2806.0000   -39.8300     4.2920     5.6930     7.2840     9.0850   141.4730     2.4450     0.0080
 2806.5000   -39.9180     4.3190     5.7180     7.5220     9.0830   137.1580     2.4520     0.0110
 2807.0000   -40.0050     4.3470     5.7430     7.7970     9.0820   140.3260     2.4540     0.0150
 2807.5000   -40.0920     4.3750     5.7680     7.9110     9.0800   141.2580     2.4560     0.0180
 2808.0000   -40.1800     4.4020     5.7930     7.9110     9.0790   137.0480     2.4640     0.0210
 2808.5000   -40.2670     4.4300     5.8180     7.8540     9.0780   135.7640     2.4700     0.0240
 2809.0000   -40.3550     4.4580     5.8430     7.7820     9.0760   137.5610     2.4650     0.0250
 2809.5000   -40.4420     4.4850     5.8680     7.7090     9.0750   139.3830     2.4680     0.0260
 2810.0000   -40.5250     4.5130     5.8930     7.6960     9.0730   138.9760     2.4720     0.0270
 2810.5000   -40.5060     4.5410     5.8970     7.7960     9.0720   136.6930     2.4770     0.0280
 2811.0000   -40.4830     4.5680     5.8970     7.8950     9.0710   134.4030     2.4790     0.0290
 2811.5000   -40.4610     4.5960     5.8970     7.9110     9.0690   136.1010     2.4780     0.0290
 2812.0000   -40.4400     4.6240     5.8970     7.8940     9.0680   139.3090     2.4740     0.0280
 2812.5000   -40.4180     4.6440     5.8970     7.8800     9.0710   138.9490     2.4700     0.0260
 2813.0000   -40.3960     4.6190     5.8970     7.8660     9.0790   135.3680     2.4610     0.0240
 2813.5000   -40.3740     4.5990     5.8970     7.8520     9.0860   139.4300     2.4500     0.0220
 2814.0000   -40.3520     4.5790     5.8970     7.8390     9.0940   134.7140     2.4400     0.0210
 2814.5000   -40.3300     4.5600     5.8200     7.8390     9.1020   125.6590     2.4440     0.0190
 2815.0000   -40.3090     4.4750     5.7330     8.2450     9.1090   121.7790     2.4520     0.0190
 2815.5000   -40.2870     4.3970     5.6450     7.9350     9.1170   122.0160     2.4540     0.0220
 2816.0000   -40.2650     4.3180     5.5570     7.5400     9.1240   125.2650     2.4490     0.0250
 2816.5000   -40.2430     4.2390     5.4550     7.2770     9.1320   130.0540     2.4580     0.0280
 2817.0000   -40.2210     4.1610     5.3460     7.0720     9.1400   134.0420     2.4620     0.0260
 2817.5000   -40.1990     4.1220     5.2380     6.8670     9.1480   137.7190     2.4540     0.0250
 2818.0000   -40.1770     4.0790     5.1850     6.7680     9.1610   137.2330     2.4490     0.0230
 2818.5000   -40.1560     4.0320     5.1390     6.8120     9.1740   131.2490     2.4650     0.0220
 2819.0000   -40.1500     3.9730     5.0880     6.8510     9.1870   129.6650     2.4590     0.0200
 2819.5000   -40.2470     3.9850     5.0370     6.8930     9.2000   135.0290     2.4550     0.0190
 2820.0000   -40.3460     4.0070     4.9860     6.7410     9.2130   135.4330     2.4600     0.0180
 2820.5000   -40.4440     4.0300     4.9490     6.5240     9.2260   131.0750     2.4630     0.0180
 2821.0000   -40.5730     4.0520     4.9390     6.5240     9.2390   130.7990     2.4560     0.0190
 2821.5000   -40.8550     4.0740     4.9290     6.6020     9.2590   134.4130     2.4480     0.0190
 2822.0000   -41.1410     4.0840     4.9180     6.8300     9.2830   138.1410     2.4470     0.0190
 2822.5000   -41.4260     4.0970     4.9080     6.8650     9.3070   141.9050     2.4520     0.0190
 2823.0000   -41.7120     4.1150     4.9080     6.9650     9.3310   143.6840     2.4580     0.0200
 2823.5000   -42.0000     4.1220     4.8570     7.1570     9.3550   142.6160     2.4650     0.0220
 2824.0000   -42.2710     4.0680     4.5180     7.3510     9.3790   138.6420     2.4710     0.0250
 2824.5000   -42.0570     3.9290     4.6020     7.3510     9.4030   134.2720     2.4770     0.0280
 2825.0000   -41.8210     3.7280     4.6870     6.9960     9.4270   129.6490     2.4770     0.0320
 2825.5000   -41.5860     3.5110     4.6870     6.6990     9.4580   128.8700     2.4760     0.0350
 2826.0000   -41.3520     3.2940     4.1190     6.2460     9.4980   131.1380     2.4590     0.0390
 2826.5000   -41.1180     3.0760     3.7400     5.5810     9.5380   134.3880     2.4430     0.0380
 2827.0000   -40.8850     2.9080     3.4190     4.5410     9.5790   137.6860     2.4270     0.0360
 2827.5000   -40.6510     2.8550     3.0980     3.9560     9.6190   143.8540     2.4110     0.0340
 2828.0000   -40.4120     2.8550     2.9890     3.2820     9.6580   165.8440     2.3950     0.0320
 2828.5000   -40.5430     2.9290     2.9890     2.4200     9.6550   178.5240     2.3760     0.0300
 2829.0000   -40.8680     3.0170     4.4630     5.7900     9.6340   170.8800     2.3580     0.0280
 2829.5000   -41.2130     3.1010     6.1740     7.0750     9.6130   157.1130     2.3450     0.0260
 2830.0000   -41.0420     3.3420     5.7980     8.0580     9.5930   139.6620     2.3740     0.0230
