~VERSION INFORMATION
 VERS.                2.0:   CWLS LOG ASCII STANDARD - VERSION 2.0
 WRAP.                 NO:   ONE LINE PER DEPTH STEP
~WELL INFORMATION
#MNEM.UNIT      DATA TYPE    INFORMATION
#----------   ------------   ------------------------------
 STRT.F          210.0000:   START DEPTH
 STOP.F         2955.0000:   STOP DEPTH
 STEP.F            0.5000:   STEP LENGTH
 NULL.          -999.2500:   NO VALUE
 COMP.    FENIX & SCISSON:   COMPANY
 WELL.     FENIX A #54-28:   WELL
 FLD .                NPR:   FIELD
 LOC .      S28 T39N R78W:   LOCATION
 CNTY.            NATRONA:   COUNTY
 STAT.            WYOMING:   STATE
 CTRY. UNITED STATES OF AMERICA:   COUNTRY
 SRVC.              WELEX:   SERVICE COMPANY
 DATE.        17-MAY-1977:   LOGDATE
 API .     49025103650000:   API NUMBER
~CURVE INFORMATION
#MNEM.UNIT       API CODE    CURVE DESCRIPTION
#----------   ------------   ------------------------------
 DEPT.F                  :   
 SPR .MV     07 010 01 00:   SPONTANEOUS POTENTIAL
 RILM.OHMM   07 120 44 00:   INDUCTION LOG MEDIUM RESISTIVITY
 RILD.OHMM   07 120 46 00:   INDUCTION LOG DEEP RESISTIVITY
 SGRD.OHMM   07 220 05 00:   SHALLOW GUARD LOG RESISTIVITY
 CALD.IN     45 280 60 00:   CALIPER FROM DENSITY LOG
 RHOB.G/C3   45 350 01 00:   BULK DENSITY
 DCOR.G/C3   45 356 01 00:   DENSITY CORRECTION
 GRD .GAPI   45 310 01 00:   GAMMA RAY FROM DENSITY LOG
~PARAMETER INFORMATION
#MNEM.UNIT          VALUE    DESCRIPTION
#----------   ------------   ------------------------------
 EKB .F         5045.0000:   Kelly bushing
 EGL .F         5035.0000:   Ground level
 EDF .F            0.0000:   Drilling floor
 EPD .F         5035.0000:   Permanent datum
 TD  .F         2956.0000:   Total depth
 DATE.        17-MAY-1977:   Date logged
 CLNT.            A2DTECH:   Client Code
 SL  . 2310' FNL & 2310' FEL:   Surface Location
 PD  .                 GL:   Permanent Datum
 LMF .                 KB:   Log Measured From
 DMF .                 KB:   Drilling Measured From
 DAPD.F                10:   Feet Above Permanent Datum
 DD  .F              2947:   Depth driller
 DL  .F              2956:   Depth logger
 BLI .F              2954:   Bottom log interval
 TLI .F               210:   Top log interval
 CS1 .IN            8.625:   Casing size
 CBD1.      8.625" @ 200':   Casing driller 1
 CBL1.F               216:   Casing logger 1
 BS1 .IN            7.875:   Bit size
 BSD1.F              2947:   Depth drilled with bit1
 DFT .            KCL MUD:   Type fluid in hole
 DFD .                  9:   Density
 DFV .                 32:   Viscosity
 DFPH.                7.5:   pH
 DFL .                5.3:   Fluid loss
 MSS .           FLOWLINE:   Source of sample
 RMS .OHMM            .18:   Rm
 MST .F                84:   Rm Meas. temp.
 RMF .OHMM            .16:   Rmf
 MFST.F                84:   Rmf Meas. temp.
 RMC .OHMM            .62:   Rmc
 MCST.F                84:   Rmc Meas. temp.
 RMB .OHMM            .12:   Rm. at BHT
 BHT .F               124:   BHT.
 TCS .HRS               2:   Time Circ. stopped
 MRT .F               124:   Maximum recorded temp.
 LUN .               9685:   Logging unit number
 LUL .           BRIGHTON:   Logging unit location
 ENGI.           T JOYNER:   Recorded By
 WITN.      W. PETTINGILL:   Witnessed by
 ORIG.           5" PRINT:   Origin of data
 UWI .     49025103650000:   Unique Well ID
 DICO. A2D TECHNOLOGIES, INC.:   Digitizing Company
~OTHER INFORMATION
~A   DEPT      SPR       RILM        RILD        SGRD       CALD       RHOB      DCOR        GRD  
# ...
 1465.5000   -45.5740    11.7100     8.0620    11.9130     8.1330     2.5130     0.0280    92.1560
 1466.0000   -45.4910    11.4810     8.0790    11.8590     8.1360     2.5170     0.0290    91.7340
 1466.5000   -45.4630    11.0790     8.0950    11.8050     8.1370     2.5170     0.0310    93.1810
 1467.0000   -45.5580    11.1400     8.1110    11.7500     8.1400     2.5190     0.0320    94.4060
 1467.5000   -45.6490    11.2710     8.1270    11.7240     8.1390     2.5250     0.0330    95.7320
 1468.0000   -45.7450    11.4020     8.1430    11.7790     8.1370     2.5320     0.0340    96.9530
 1468.5000   -45.8390    11.5330     8.1600    11.8330     8.1350     2.5380     0.0360    98.4060
 1469.0000   -45.9310    11.7100     8.1760    11.9140     8.1330     2.5450     0.0370    97.8540
 1469.5000   -46.0290    11.5580     8.1920    11.8950     8.1310     2.5510     0.0380    95.8680
 1470.0000   -46.1170    11.3220     8.2080    11.7610     8.1300     2.5590     0.0390    94.0620
 1470.5000   -46.2200    11.0870     8.2240    11.6280     8.1280     2.5560     0.0370    92.2460
 1471.0000   -46.1850    10.8510     8.2440    11.4940     8.1260     2.5460     0.0350    90.8430
 1471.5000   -46.1340    10.6150     8.2300    11.4980     8.1240     2.5370     0.0330    90.7640
 1472.0000   -46.0780    10.2910     8.2000    11.4940     8.1230     2.5290     0.0310    91.4050
 1472.5000   -46.0260    10.3160     8.1710    11.4940     8.1210     2.5190     0.0280    92.6520
 1473.0000   -45.9720    10.3550     8.1420    11.4960     8.1190     2.5200     0.0270    93.7610
 1473.5000   -45.9180    10.3950     8.1140    11.6040     8.1170     2.5200     0.0260    94.9290
 1474.0000   -45.8650    10.4350     8.0850    11.7100     8.1150     2.5130     0.0250    96.0420
 1474.5000   -45.8120    10.4830     8.0570    11.5970     8.1140     2.5150     0.0250    97.0860
 1475.0000   -45.7580    10.4190     8.0280    11.4850     8.1120     2.5190     0.0240    96.3440
 1475.5000   -45.7050    10.3400     8.0000    11.3730     8.1100     2.5170     0.0230    95.5590
 1476.0000   -45.6510    10.2620     7.9720    11.2610     8.1080     2.5130     0.0220    94.6840
 1476.5000   -45.5980    10.1830     7.9490    11.0790     8.1060     2.5110     0.0210    93.8620
 1477.0000   -45.5440    10.1030     7.9910    11.1540     8.1050     2.5120     0.0210    93.2290
 1477.5000   -45.4920    10.3930     8.0240    11.3460     8.1030     2.5150     0.0200    93.4010
 1478.0000   -45.4400    10.6870     8.0590    11.5380     8.1010     2.5180     0.0190    93.5190
 1478.5000   -45.4500    10.9820     8.0950    11.7300     8.1010     2.5200     0.0210    93.7160
 1479.0000   -45.4610    11.2860     8.1300    11.9280     8.1030     2.5240     0.0230    93.8260
 1479.5000   -45.4760    10.9860     8.1650    11.9090     8.1050     2.5280     0.0250    93.8970
 1480.0000   -45.4880    10.6760     8.2010    11.8890     8.1070     2.5330     0.0270    92.3200
 1480.5000   -45.5010    10.3010     8.2360    11.8690     8.1090     2.5370     0.0280    90.6820
 1481.0000   -45.5140    10.3210     8.2710    11.8490     8.1110     2.5360     0.0300    89.6810
 1481.5000   -45.5270    10.3610     8.3060    11.8280     8.1130     2.5330     0.0310    89.1030
 1482.0000   -45.5400    10.4000     8.3410    11.8080     8.1150     2.5290     0.0310    87.6390
 1482.5000   -45.5530    10.4400     8.4000    11.7880     8.1170     2.5420     0.0310    86.2090
 1483.0000   -45.5660    10.4830     8.3940    11.7680     8.1190     2.5470     0.0310    88.3400
 1483.5000   -45.5790    10.5710     8.3780    11.7480     8.1210     2.5480     0.0310    90.5490
 1484.0000   -45.5920    10.7360     8.3610    11.7280     8.1230     2.5480     0.0310    92.2530
 1484.5000   -45.6050    10.9010     8.3440    11.7100     8.1250     2.5470     0.0310    90.7190
 1485.0000   -45.6180    11.0790     8.3280    11.6090     8.1270     2.5430     0.0300    89.5480
 1485.5000   -45.6310    10.9550     8.3120    11.5220     8.1290     2.5340     0.0290    88.0220
 1486.0000   -45.6440    10.8200     8.2950    11.4340     8.1310     2.5250     0.0290    88.3930
 1486.5000   -45.6570    10.6850     8.2780    11.3450     8.1330     2.5160     0.0280    90.2290
 1487.0000   -45.6700    10.4830     8.2600    11.2850     8.1350     2.5110     0.0270    90.7080
 1487.5000   -45.6830    10.6780     8.2440    11.3410     8.1370     2.5180     0.0260    89.9500
 1488.0000   -45.6960    10.6370     8.1820    11.4040     8.1390     2.5240     0.0250    91.8730
 1488.5000   -45.7090    10.4990     8.1260    11.4660     8.1410     2.5210     0.0240    95.9680
 1489.0000   -45.7220    10.2910     8.0690    11.5280     8.1430     2.5070     0.0230    96.3650
 1489.5000   -45.7350    10.6660     8.0120    11.5910     8.1450     2.4970     0.0240    94.3700
 1490.0000   -45.7480    11.4380     7.9470    11.6530     8.1470     2.5000     0.0260    92.5250
 1490.5000   -45.7610    12.1510     7.9860    11.7100     8.1490     2.5040     0.0280    91.7980
 1491.0000   -45.7740    11.9280     8.0300    11.5920     8.1510     2.5070     0.0300    92.8510
 1491.5000   -45.7870    11.7000     8.0740    11.4180     8.1530     2.5050     0.0320    92.5110
 1492.0000   -45.8000    11.4380     8.1170    11.2430     8.1550     2.5080     0.0340    90.2970
 1492.5000   -45.8130    11.1760     8.1600    11.0790     8.1570     2.5230     0.0360    88.5050
 1493.0000   -45.8270    10.8770     8.2040    11.1580     8.1590     2.5200     0.0380    86.2240
 1493.5000   -45.8340    10.5850     8.2450    11.2320     8.1610     2.5170     0.0390    87.5640
 1494.0000   -45.8330    10.1030     8.2260    11.3060     8.1630     2.5120     0.0380    89.7100
 1494.5000   -45.8330    10.4880     8.2080    11.3800     8.1650     2.5150     0.0370    90.6800
 1495.0000   -45.8330    10.9430     8.1910    11.4540     8.1670     2.5200     0.0360    89.8150
 1495.5000   -45.8330    11.3970     8.1730    11.4960     8.1690     2.5170     0.0350    89.2040
 1496.0000   -45.8330    11.9280     8.1550    11.4470     8.1720     2.5130     0.0340    88.5000
 1496.5000   -45.8330    11.7090     8.1370    11.3990     8.1740     2.5080     0.0330    88.5130
 1497.0000   -45.8330    11.4440     8.1190    11.3520     8.1760     2.5040     0.0320    90.9770
 1497.5000   -45.8330    11.0790     8.1010    11.2860     8.1770     2.5020     0.0310    93.2910
 1498.0000   -45.8330    11.4040     8.0820    11.3220     8.1800     2.5120     0.0330    96.1640
 1498.5000   -45.8330    11.9300     8.0640    11.3800     8.1760     2.5220     0.0350    95.8660
 1499.0000   -45.8330    12.4550     8.0460    11.4380     8.1710     2.5330     0.0370    95.1580
 1499.5000   -45.8330    12.9810     8.0280    11.4960     8.1660     2.5380     0.0390    95.2320
 1500.0000   -45.8330    13.8260     8.0100    11.9280     8.1620     2.5370     0.0380    96.7240
 1500.5000   -45.8330    13.7580     7.9920    11.8910     8.1570     2.5360     0.0340    97.9430
 1501.0000   -45.8330    13.5820     7.9740    11.7940     8.1520     2.5350     0.0310    99.2800
 1501.5000   -45.8330    13.4050     7.9470    11.6970     8.1470     2.5330     0.0280    98.3330
 1502.0000   -45.8330    13.1660     8.0160    11.6010     8.1420     2.5310     0.0270    96.5240
 1502.5000   -45.8330    12.8750     8.1420    11.4960     8.1370     2.5290     0.0270    95.7050
 1503.0000   -45.8330    12.5830     8.2680    11.7300     8.1320     2.5280     0.0280    96.3660
 1503.5000   -45.8330    12.3770     8.3940    11.9850     8.1270     2.5300     0.0280    97.1730
 1504.0000   -45.8210    11.8900     8.5200    12.2400     8.1230     2.5310     0.0280    95.0000
 1504.5000   -45.8070    11.3400     8.6460    12.4940     8.1180     2.5360     0.0280    91.9260
 1505.0000   -45.7940    10.7900     8.7360    12.8420     8.1130     2.5410     0.0280    92.5390
 1505.5000   -45.7800     9.9180     8.7800    12.7330     8.1080     2.5450     0.0290    87.7830
