~VERSION INFORMATION
 VERS.                2.0:   CWLS LOG ASCII STANDARD - VERSION 2.0
 WRAP.                 NO:   ONE LINE PER DEPTH STEP
~WELL INFORMATION
#MNEM.UNIT      DATA TYPE    INFORMATION
#----------   ------------   ------------------------------
 STRT.F          198.0000:   START DEPTH
 STOP.F         3034.0000:   STOP DEPTH
 STEP.F            0.5000:   STEP LENGTH
 NULL.          -999.2500:   NO VALUE
 COMP.    FENIX & SCISSON:   COMPANY
 WELL.   FENIX "A" #44-29:   WELL
 FLD .              NPR-3:   FIELD
 LOC .      S29 T39N R78W:   LOCATION
 CNTY.            NATRONA:   COUNTY
 STAT.            WYOMING:   STATE
 CTRY. UNITED STATES OF AMERICA:   COUNTRY
 SRVC.              WELEX:   SERVICE COMPANY
 DATE.        26-MAY-1977:   LOGDATE
 API .     49025103690000:   API NUMBER
~CURVE INFORMATION
#MNEM.UNIT       API CODE    CURVE DESCRIPTION
#----------   ------------   ------------------------------
 DEPT.F                  :   
 SPR .MV     07 010 01 00:   SPONTANEOUS POTENTIAL
 ILD .OHMM   07 120 46 00:   DEEP INDUCTION RESISTIVITY
 ILM .OHMM   07 120 44 00:   INDUCTION LOG MEDIUM RESISTIVITY
 SGRD.OHMM   07 220 05 00:   SHALLOW SHORT GUARD RESISTIVITY
 CALD.IN     45 280 60 00:   CALIPER FROM DENSITY LOG
 GRD .GAPI   45 310 01 00:   GAMMA RAY FROM DENSITY LOG
 RHOB.G/C3   45 350 01 00:   BULK DENSITY
 CORR.G/C3   45 356 01 00:   DENSITY CORRECTION
~PARAMETER INFORMATION
#MNEM.UNIT          VALUE    DESCRIPTION
#----------   ------------   ------------------------------
 EKB .F         5010.0000:   Kelly bushing
 EGL .F         5000.0000:   Ground level
 EDF .F            0.0000:   Drilling floor
 TD  .F         3036.0000:   Total depth
 DATE.        26-MAY-1977:   Date logged
 CLNT.            A2DTECH:   Client Code
 SL  . 2310' FNL & 2310' FWL:   Surface Location
 PD  .                 GL:   Permanent Datum
 EPD .F              5000:   Elevation Permanent Datum
 LMF .                 KB:   Log Measured From
 DMF .                 KB:   Drilling Measured From
 DD  .F              3035:   Depth driller
 DL  .F              3036:   Depth logger
 BLI .F              3034:   Bottom log interval
 TLI .F               210:   Top log interval
 CS1 .IN            8.625:   Casing size
 CBD1.      8.625" @ 245':   Casing driller 1
 CBL1.F               220:   Casing logger 1
 BS1 .IN            7.875:   Bit size
 BSD1.F              3035:   Depth drilled with bit1
 DFT .            KCL MUD:   Type fluid in hole
 DFD .                8.8:   Density
 DFV .                 34:   Viscosity
 DFPH.                7.5:   pH
 DFL .                6.6:   Fluid loss
 MSS .           FLOWLINE:   Source of sample
 RMS .OHMM           0.20:   Rm
 MST .F                89:   Rm Meas. temp.
 RMF .OHMM           0.17:   Rmf
 MFST.F                89:   Rmf Meas. temp.
 RMC .OHMM           0.30:   Rmc
 MCST.F                89:   Rmc Meas. temp.
 MFSS.               FANN:   Source Rmf.
 MCSS.                KIT:   Source Rmc.
 RMB .OHMM           0.16:   Rm. at BHT
 BHT .F               110:   BHT.
 TCS .HRS             2.5:   Time Circ. stopped
 MRT .F               110:   Maximum recorded temp.
 LUN .               8611:   Logging unit number
 LUL .             CASPER:   Logging unit location
 ENGI.            C. DOAK:   Recorded By
 WITN.      B. HARRINGTON:   Witnessed by
 ORIG.           5" PRINT:   Origin of data
 UWI .     49025103690000:   Unique Well ID
 DICO. A2D TECHNOLOGIES, INC.:   Digitizing Company
~OTHER INFORMATION
~A   DEPT      SPR        ILD        ILM       SGRD       CALD         GRD      RHOB       CORR   
  198.0000  -999.2500  -999.2500  -999.2500  -999.2500  -999.2500    72.7810  -999.2500  -999.2500
  198.5000  -999.2500  -999.2500  -999.2500  -999.2500     8.7510    72.7810  -999.2500  -999.2500
  199.0000  -999.2500  -999.2500  -999.2500  -999.2500     8.7510    72.7810  -999.2500  -999.2500
  199.5000  -999.2500  -999.2500  -999.2500  -999.2500     8.7510    74.7160  -999.2500  -999.2500
  200.0000  -999.2500  -999.2500  -999.2500  -999.2500     8.7490    76.8130  -999.2500    -0.4160
  200.5000  -999.2500  -999.2500  -999.2500  -999.2500     8.7460    79.5800  -999.2500    -0.4120
  201.0000  -999.2500  -999.2500  -999.2500  -999.2500     8.7420    82.3520  -999.2500    -0.4080
  201.5000  -999.2500  -999.2500  -999.2500  -999.2500     8.7380    83.2220  -999.2500    -0.4060
  202.0000  -999.2500  -999.2500  -999.2500  -999.2500     8.7340    82.0030  -999.2500    -0.3990
  202.5000  -999.2500  -999.2500  -999.2500  -999.2500     8.7300    80.8050  -999.2500    -0.4090
  203.0000  -999.2500  -999.2500  -999.2500  -999.2500     8.7260    79.8440  -999.2500    -0.4200
  203.5000  -999.2500  -999.2500  -999.2500  -999.2500     8.7230    79.8270  -999.2500    -0.4230
  204.0000  -999.2500  -999.2500  -999.2500  -999.2500     8.7190    83.8770  -999.2500    -0.4240
  204.5000  -999.2500  -999.2500  -999.2500  -999.2500     8.7150    88.1570  -999.2500    -0.4290
  205.0000  -999.2500  -999.2500  -999.2500  -999.2500     8.7110    89.6910  -999.2500    -0.4340
  205.5000  -999.2500  -999.2500  -999.2500  -999.2500     8.7070    90.1430  -999.2500    -0.4380
  206.0000  -999.2500  -999.2500  -999.2500  -999.2500     8.7040    87.2820  -999.2500    -0.4540
  206.5000  -999.2500  -999.2500  -999.2500  -999.2500     8.7000    84.2620  -999.2500    -0.4620
  207.0000  -999.2500  -999.2500  -999.2500  -999.2500     8.6960    81.2140  -999.2500    -0.4670
  207.5000  -999.2500  -999.2500  -999.2500  -999.2500     8.6920    78.1460  -999.2500    -0.4800
  208.0000  -999.2500  -999.2500  -999.2500  -999.2500     8.6880    77.8840  -999.2500    -0.4890
  208.5000  -999.2500  -999.2500  -999.2500  -999.2500     8.6850    78.2830  -999.2500    -0.4810
  209.0000  -999.2500  -999.2500  -999.2500  -999.2500     8.6810    78.3490  -999.2500    -0.4690
  209.5000  -999.2500  -999.2500  -999.2500  -999.2500     8.6770    78.9520  -999.2500    -0.4400
  210.0000  -999.2500  -999.2500  -999.2500  -999.2500     8.6730    80.3240  -999.2500    -0.4060
  210.5000  -999.2500  -999.2500  -999.2500  -999.2500     8.6690    82.4910     2.0070    -0.3640
  211.0000  -999.2500  -999.2500  -999.2500  -999.2500     8.6650    84.6670     2.0080    -0.3520
  211.5000  -999.2500  -999.2500  -999.2500  -999.2500     8.6620    86.8640     2.0080    -0.3390
  212.0000  -999.2500  -999.2500  -999.2500  -999.2500     8.6580    89.0660     2.0100    -0.3260
  212.5000  -999.2500  -999.2500  -999.2500  -999.2500     8.6530    91.3470     2.0070    -0.3090
  213.0000  -999.2500  -999.2500  -999.2500  -999.2500     8.6770    87.0270     2.0070    -0.2890
  213.5000  -999.2500  -999.2500  -999.2500  -999.2500     8.7110    81.8140     2.0100    -0.2630
  214.0000  -999.2500  -999.2500  -999.2500  -999.2500     8.7450    79.2850     2.0200    -0.2310
  214.5000  -999.2500  -999.2500  -999.2500  -999.2500     8.7810    87.1790     2.0620    -0.1800
  215.0000  -999.2500  -999.2500  -999.2500  -999.2500     8.7900    85.0140     2.1120    -0.1200
  215.5000  -999.2500  -999.2500  -999.2500  -999.2500     8.7710    79.4480     2.1870    -0.0350
  216.0000  -999.2500  -999.2500  -999.2500  -999.2500     8.7560    83.7370     2.2950     0.1220
  216.5000  -999.2500  -999.2500  -999.2500  -999.2500     8.9200    99.7390     2.2700     0.1040
  217.0000  -999.2500  -999.2500  -999.2500  -999.2500     9.1240   102.3020     2.2180     0.0980
  217.5000  -999.2500  -999.2500  -999.2500  -999.2500     9.7070    98.2870     2.2350     0.1060
  218.0000  -999.2500  -999.2500  -999.2500  -999.2500    10.4570    95.0980     2.2500     0.1080
  218.5000  -999.2500  -999.2500  -999.2500  -999.2500    10.9760    99.5570     2.2290     0.0990
  219.0000  -999.2500  -999.2500  -999.2500  -999.2500    11.3320   104.1980     2.2080     0.0920
  219.5000  -999.2500     0.6680     3.9730     8.0580    11.4740   109.7950     2.1970     0.0730
  220.0000  -999.2500     0.9730     4.1730     8.4400    12.0450   102.5680     2.2970     0.0460
  220.5000  -999.2500     3.0240     4.3830     8.8420    12.9770    89.2620     2.3520     0.0410
  221.0000  -999.2500     4.6700     4.5550     9.2450    14.0630    89.2980     2.3450     0.0360
  221.5000  -999.2500     5.5230     4.7170     9.5060    14.7900    92.6900     2.3410     0.0350
  222.0000  -999.2500     6.3460     4.9340     9.8150    15.3080    97.0590     2.3520     0.0440
  222.5000  -999.2500     6.6980     5.4100    10.0950    15.2340   100.0420     2.3250     0.0540
  223.0000  -999.2500     7.3620     5.9980    10.3760    15.2350    99.2530     2.2950     0.0630
  223.5000  -999.2500     8.2070     6.6450    11.8370    15.2600    92.4810     2.2600     0.0720
  224.0000  -999.2500    53.0200    12.0030    14.4790    15.1720    85.2800     2.2250     0.0590
  224.5000  -999.2500   106.3780    14.3700    17.9130    14.7610    79.5870     2.2010     0.0440
  225.0000  -999.2500    25.9050    11.2150    15.6180    14.3900    77.5360     2.2460     0.0280
  225.5000  -999.2500    13.3520    12.6370    12.3400    14.3580    75.4590     2.2750     0.0130
  226.0000  -999.2500    12.7530     6.4640     9.7900    13.1300    74.3770     2.3010     0.0110
  226.5000  -999.2500    14.1070     5.9840     8.9420    12.7260    75.6220     2.3090     0.0120
  227.0000  -999.2500    15.6120     5.5300     8.0930    12.6600    77.1300     2.3060     0.0130
  227.5000  -999.2500    17.2670     6.0420     7.8390    12.6240    78.6740     2.3020     0.0140
  228.0000  -999.2500    11.7420     6.6110    11.1120    12.6000    80.5240     2.3080     0.0140
  228.5000  -999.2500    10.4180     7.1800    14.2390    12.6150    78.2330     2.3150     0.0140
  229.0000  -999.2500     9.3620     7.4870    16.7980    12.6290    75.8550     2.3160     0.0140
  229.5000  -999.2500     8.7520     6.9370    15.1150    12.6430    73.4980     2.3150     0.0140
  230.0000  -999.2500     7.9640     6.2310    10.2310    12.6570    71.1490     2.3120     0.0100
  230.5000  -999.2500     7.1660     5.4080     8.5930    12.6710    68.9140     2.3060     0.0100
  231.0000  -999.2500     6.5490     4.6600     7.3510    12.6760    70.3800     2.2990     0.0100
  231.5000  -999.2500     5.8780     4.1210     7.6260    12.6870    74.3530     2.2910     0.0100
  232.0000  -999.2500     5.0780     3.6720     7.2830    12.6990    75.1460     2.2800     0.0100
  232.5000  -999.2500     4.4320     3.2220     6.5970    12.7120    71.5640     2.2820     0.0220
  233.0000  -999.2500     4.1450     2.8540     6.1170    12.7250    68.8330     2.2860     0.0340
  233.5000  -999.2500     3.8590     2.6750     6.4640    12.7440    67.6700     2.2760     0.0430
  234.0000  -999.2500     3.6580     2.4960     6.2350    12.7910    67.6570     2.2590     0.0370
  234.5000  -999.2500     3.6020     2.4160     6.0060    12.8380    67.6090     2.2630     0.0350
  235.0000  -999.2500     3.5500     2.3760     6.0620    12.8850    69.2350     2.2690     0.0390
  235.5000  -999.2500     3.4940     2.3760     6.1050    12.9320    71.3280     2.2780     0.0420
  236.0000  -999.2500     3.5150     2.3760     6.1170    12.9780    73.4380     2.2980     0.0460
  236.5000  -999.2500     3.5460     2.2600     5.9010    13.0470    75.5460     2.3170     0.0500
  237.0000  -999.2500     3.5760     2.2280     5.6320    13.0960    77.6540     2.3200     0.0530
  237.5000  -999.2500     3.6070     2.3020     6.2310    13.1450    79.7610     2.3030     0.0480
  238.0000  -999.2500     3.6370     2.3830     7.1510    13.1940    81.8550     2.2920     0.0480
