~VERSION INFORMATION
 VERS.                2.0:   CWLS LOG ASCII STANDARD - VERSION 2.0
 WRAP.                 NO:   ONE LINE PER DEPTH STEP
~WELL INFORMATION
#MNEM.UNIT      DATA TYPE    INFORMATION
#----------   ------------   ------------------------------
 STRT.F          594.5000:   START DEPTH
 STOP.F         3015.5000:   STOP DEPTH
 STEP.F            0.5000:   STEP LENGTH
 NULL.          -999.2500:   NO VALUE
 COMP.    FENIX & SCISSON:   COMPANY
 WELL.  FENIX "AX" #35-34:   WELL
 FLD .             NPR #3:   FIELD
 LOC .      S34 T39N R78W:   LOCATION
 CNTY.            NATRONA:   COUNTY
 STAT.            WYOMING:   STATE
 CTRY. UNITED STATES OF AMERICA:   COUNTRY
 SRVC.       SCHLUMBERGER:   SERVICE COMPANY
 DATE.        14-APR-1977:   LOGDATE
 API .     49025103390000:   API NUMBER
~CURVE INFORMATION
#MNEM.UNIT       API CODE    CURVE DESCRIPTION
#----------   ------------   ------------------------------
 DEPT.F                  :   
 CALD.IN     45 280 60 00:   CALIPER FROM DENSITY LOG
 RHOB.G/C3   45 350 01 00:   BULK DENSITY
 DRHO.G/C3   45 356 01 00:   DENSITY CORRECTION
 SPR .MV     07 010 01 00:   SPONTANEOUS POTENTIAL
 RILM.OHMM   07 120 44 00:   INDUCTION LOG MEDIUM RESISTIVITY
 RILD.OHMM   07 120 46 00:   DEEP INDUCTION RESISTIVITY
 LL8 .OHMM   07 220 08 00:   LATEROLOG-8 RES.
 GRD .GAPI   45 310 01 00:   GAMMA RAY FROM DENSITY LOG
~PARAMETER INFORMATION
#MNEM.UNIT          VALUE    DESCRIPTION
#----------   ------------   ------------------------------
 EKB .F         5116.0000:   Kelly bushing
 EGL .F         5104.0000:   Ground level
 EDF .F            0.0000:   Drilling floor
 TD  .F         3017.0000:   Total depth
 DATE.        14-APR-1977:   Date logged
 CLNT.            A2DTECH:   Client Code
 SL  . 2311' FSL & 1550' FWL:   Surface Location
 PD  .                 GL:   Permanent Datum
 EPD .F              5104:   Elevation Permanent Datum
 LMF .                 KB:   Log Measured From
 DMF .                 KB:   Drilling Measured From
 DAPD.F                12:   Feet Above Permanent Datum
 DD  .F              3012:   Depth driller
 DL  .F              3017:   Depth logger
 BLI .F              3011:   Bottom log interval
 TLI .F               600:   Top log interval
 CS1 .IN            8.625:   Casing size
 CBD1.      8.625" @ 601':   Casing driller 1
 CBL1.F               600:   Casing logger 1
 BS1 .IN            7.875:   Bit size
 BSD1.F              3012:   Depth drilled with bit1
 DFT .                FGM:   Type fluid in hole
 DFD .                9.2:   Density
 DFV .                 29:   Viscosity
 MSS .           FLOWLINE:   Source of sample
 RMS .OHMM          0.206:   Rm
 MST .F                60:   Rm Meas. temp.
 RMF .OHMM          0.192:   Rmf
 MFST.F                60:   Rmf Meas. temp.
 MFSS.               MEAS:   Source Rmf.
 RMB .OHMM          0.109:   Rm. at BHT
 BHT .F               113:   BHT.
 TLAB.HRS            0200:   Time logger at bottom
 MRT .F               113:   Maximum recorded temp.
 LUN .               7711:   Logging unit number
 LUL .               CSPR:   Logging unit location
 ENGI.             GEIGER:   Recorded By
 WITN.         PETTINGILL:   Witnessed by
 ORIG.           5" PRINT:   Origin of data
 UWI .     49025103390000:   Unique Well ID
 DICO. A2D TECHNOLOGIES, INC.:   Digitizing Company
~OTHER INFORMATION
~A   DEPT     CALD       RHOB       DRHO        SPR       RILM       RILD        LL8         GRD  
# ...
 2822.0000     9.4030     2.5240     0.0150   -80.8690     6.3010     5.7810     8.0900   110.0700
 2822.5000     9.4030     2.5320     0.0130   -80.5790     6.3460     5.8350     8.3590   106.3080
 2823.0000     9.4030     2.5400     0.0250   -80.2880     6.0210     5.5570     8.1690   107.3620
 2823.5000     9.3980     2.5480     0.0210   -79.9970     5.7870     5.3060     7.9110   110.3370
 2824.0000     9.3920     2.5570     0.0220   -79.7060     5.5300     5.1580     6.9020   113.8240
 2824.5000     9.3870     2.5630     0.0260   -79.4590     5.3640     5.1040     5.9510   117.2150
 2825.0000     9.3920     2.5490     0.0280   -79.3160     5.1820     5.0450     5.9510   118.0910
 2825.5000     9.4150     2.5310     0.0200   -79.5410     4.9530     4.5500     5.9510   119.1110
 2826.0000     9.4380     2.5200     0.0130   -79.8040     4.4830     4.0000     5.9510   121.8280
 2826.5000     9.4290     2.5060     0.0060   -80.0660     4.0130     3.4500     5.9510   122.0770
 2827.0000     9.4130     2.4870    -0.0030   -80.2970     3.5430     2.8990     5.9510   126.0630
 2827.5000     9.4080     2.4830     0.0020   -80.5230     3.0730     2.4930     5.3100   134.5050
 2828.0000     9.4220     2.4790     0.0270   -80.7020     2.6280     2.2520     4.3460   148.1190
 2828.5000     9.4370     2.4750     0.0540   -80.5630     2.5100     2.0700     3.3830   170.2860
 2829.0000     9.4370     2.4340     0.0690   -80.4150     2.3760     2.2440     1.8710   187.1190
 2829.5000     9.4270     2.3930     0.0830   -80.2940     2.8410     2.3830     2.5490   197.3740
 2830.0000     9.4310     2.3820     0.1070   -80.2970     3.2910     2.5230     4.1200   190.3120
 2830.5000     9.4530     2.3810     0.0820   -80.2970     3.7400     2.6970     5.6920   164.0980
 2831.0000     9.4920     2.4150     0.0270   -80.2970     4.1890     2.9210     8.2070   144.5950
 2831.5000     9.4260     2.4520     0.0060   -80.2650     4.6380     3.2620     8.1190   120.6380
 2832.0000     9.4600     2.4890     0.0030   -80.2140     5.2740     4.0790     7.8970   110.1950
 2832.5000     9.4350     2.5380     0.0190   -80.1630     5.9580     4.8960     7.6760   104.1640
 2833.0000     9.4190     2.5320     0.0140   -80.1160     6.5410     5.7370     7.4540   100.7260
 2833.5000     9.4120     2.5240     0.0090   -79.8960     6.6450     5.6590     7.2330   102.2300
 2834.0000     9.4060     2.5180     0.0130   -79.6360     6.3920     5.5230     7.0120   104.8370
 2834.5000     9.4170     2.5120     0.0170   -79.3740     6.0610     5.3790     6.7900   107.6640
 2835.0000     9.4330     2.5070     0.0120   -79.1120     5.7660     5.2960     6.5970   110.5090
 2835.5000     9.4460     2.5120     0.0170   -78.8500     5.5980     5.1850     6.4600   111.4890
 2836.0000     9.4600     2.5170     0.0200   -78.5780     5.4300     5.0740     6.3220   111.0590
 2836.5000     9.4550     2.5210     0.0170   -78.6470     5.2620     4.9530     6.1850   111.1550
 2837.0000     9.4440     2.5180     0.0140   -78.8220     5.0940     4.7240     6.0470   113.1380
 2837.5000     9.4630     2.5130     0.0130   -79.0000     4.8600     4.4750     5.9510   115.3180
 2838.0000     9.4720     2.5080     0.0210   -79.1800     4.4940     4.2250     5.6160   119.5340
 2838.5000     9.4450     2.5040     0.0210   -79.3730     4.1270     3.8230     5.3120   124.0370
 2839.0000     9.4670     2.4990     0.0170   -79.6230     3.7060     3.4030     5.0080   129.8190
 2839.5000     9.4880     2.4940     0.0140   -79.8690     3.2260     2.9820     4.7040   137.0250
 2840.0000     9.4970     2.4890     0.0150   -80.1140     2.7450     2.5620     4.2140   147.0070
 2840.5000     9.4800     2.4820     0.0260   -80.3590     2.5480     2.3330     3.6300   157.5730
 2841.0000     9.4630     2.4770     0.0360   -80.6050     2.3900     2.3330     3.0470   170.8050
 2841.5000     9.4460     2.4710     0.0430   -80.8530     2.5760     2.3330     2.4630   187.6940
 2842.0000     9.4610     2.4610     0.0530   -80.8450     2.8880     2.4250     2.0140   183.6040
 2842.5000     9.4850     2.4560     0.0410   -80.7920     3.2000     2.5710     4.3210   166.0220
 2843.0000     9.4950     2.4640     0.0240   -80.7360     3.5120     2.7160     6.1740   149.1960
 2843.5000     9.4680     2.4740     0.0080   -80.6410     3.8960     3.0340     6.9570   128.5230
 2844.0000     9.4730     2.4870     0.0120   -80.3780     4.5600     3.6010     6.9010   121.7770
 2844.5000     9.4790     2.5000     0.0090   -80.1150     4.9170     4.1680     6.8550   118.6530
 2845.0000     9.4650     2.5120     0.0200   -79.7610     5.2760     4.7450     6.8090   118.1780
 2845.5000     9.4890     2.5230     0.0190   -79.0020     5.6340     5.2330     6.7630   118.6880
 2846.0000     9.5200     2.5190     0.0170   -78.4340     6.0060     5.3510     6.7060   119.1660
 2846.5000     9.5070     2.5140     0.0190   -78.2330     5.9050     5.4290     6.7370   120.0290
 2847.0000     9.4930     2.5090     0.0240   -78.0260     5.7730     5.4290     6.7780   122.0530
 2847.5000     9.4800     2.5030     0.0090   -77.8180     5.6320     5.4290     6.8190   123.4860
 2848.0000     9.4650     2.5030     0.0080   -77.6960     5.6560     5.4290     6.9210   123.5650
 2848.5000     9.4920     2.5060     0.0080   -77.5980     5.6820     5.4290     7.0440   124.5790
 2849.0000     9.5170     2.5010    -0.0010   -77.5030     5.7080     5.4290     7.1670   126.9440
 2849.5000     9.4940     2.5150     0.0090   -77.4080     5.7330     5.4290     7.3510   129.6140
 2850.0000     9.4730     2.5400     0.0270   -77.3450     5.7590     5.4290     7.3290   129.7060
 2850.5000     9.4720     2.5580     0.0330   -77.7260     5.7840     5.4280     7.2860   128.2650
 2851.0000     9.4910     2.5350     0.0200   -78.0970     5.8100     5.4560     7.2420   129.4810
 2851.5000     9.5090     2.5200     0.0120   -78.4630     5.8360     5.5090     7.1990   130.1220
 2852.0000     9.5190     2.5130     0.0200   -78.8300     5.8610     5.5620     7.1560   129.2240
 2852.5000     9.5070     2.5270     0.0260   -79.2080     5.8870     5.6150     7.3650   128.4310
 2853.0000     9.4960     2.5350     0.0310   -79.3160     5.9120     5.6840     7.6040   131.1240
 2853.5000     9.4840     2.5400     0.0230   -79.3630     5.9380     5.6250     7.8440   132.7940
 2854.0000     9.5070     2.5390     0.0290   -79.4060     5.9510     5.5380     8.2070   132.3320
 2854.5000     9.5190     2.5280     0.0260   -79.4490     5.8560     5.4520     8.0960   129.7220
 2855.0000     9.5140     2.5170     0.0130   -79.5010     5.7690     5.3650     7.8660   128.4050
 2855.5000     9.5100     2.5150     0.0150   -79.1390     5.6810     5.2790     7.5080   127.8420
 2856.0000     9.5050     2.5260     0.0230   -78.6240     5.5940     5.2170     7.1310   131.5040
 2856.5000     9.4980     2.5530     0.0320   -78.1060     5.5060     5.1840     6.7540   135.9810
 2857.0000     9.4870     2.5450     0.0390   -77.5870     5.4180     5.1500     6.4050   137.7760
 2857.5000     9.4760     2.5320     0.0180   -77.1580     5.3310     5.1170     6.5440   137.4110
 2858.0000     9.4650     2.5190     0.0080   -76.8180     5.2430     5.0830     6.6730   135.1590
 2858.5000     9.4570     2.5060     0.0050   -76.4780     5.1560     5.0500     6.7680   133.4460
 2859.0000     9.4500     2.4970     0.0080   -76.1390     5.0910     4.9980     6.4850   132.4060
 2859.5000     9.4440     2.5080     0.0110   -75.8000     5.4390     5.1290     6.2610   130.5740
 2860.0000     9.4200     2.5140     0.0140   -75.4610     5.7140     5.4110     6.0380   129.0350
 2860.5000     9.3930     2.5000     0.0080   -75.1120     5.9890     5.6940     6.8690   123.8590
 2861.0000     9.3880     2.5070     0.0050   -74.8000     6.2640     5.9760     7.8730   121.4040
 2861.5000     9.3960     2.5290     0.0150   -74.9200     6.5240     6.2580     8.8770   119.3520
 2862.0000     9.4000     2.5300     0.0170   -75.0800     6.9590     6.5400    10.2310   119.6170
