~VERSION INFORMATION
 VERS.                2.0:   CWLS LOG ASCII STANDARD - VERSION 2.0
 WRAP.                 NO:   ONE LINE PER DEPTH STEP
~WELL INFORMATION
#MNEM.UNIT      DATA TYPE    INFORMATION
#----------   ------------   ------------------------------
 STRT.F          210.0000:   START DEPTH
 STOP.F         2955.0000:   STOP DEPTH
 STEP.F            0.5000:   STEP LENGTH
 NULL.          -999.2500:   NO VALUE
 COMP.    FENIX & SCISSON:   COMPANY
 WELL.     FENIX A #54-28:   WELL
 FLD .                NPR:   FIELD
 LOC .      S28 T39N R78W:   LOCATION
 CNTY.            NATRONA:   COUNTY
 STAT.            WYOMING:   STATE
 CTRY. UNITED STATES OF AMERICA:   COUNTRY
 SRVC.              WELEX:   SERVICE COMPANY
 DATE.        17-MAY-1977:   LOGDATE
 API .     49025103650000:   API NUMBER
~CURVE INFORMATION
#MNEM.UNIT       API CODE    CURVE DESCRIPTION
#----------   ------------   ------------------------------
 DEPT.F                  :   
 SPR .MV     07 010 01 00:   SPONTANEOUS POTENTIAL
 RILM.OHMM   07 120 44 00:   INDUCTION LOG MEDIUM RESISTIVITY
 RILD.OHMM   07 120 46 00:   INDUCTION LOG DEEP RESISTIVITY
 SGRD.OHMM   07 220 05 00:   SHALLOW GUARD LOG RESISTIVITY
 CALD.IN     45 280 60 00:   CALIPER FROM DENSITY LOG
 RHOB.G/C3   45 350 01 00:   BULK DENSITY
 DCOR.G/C3   45 356 01 00:   DENSITY CORRECTION
 GRD .GAPI   45 310 01 00:   GAMMA RAY FROM DENSITY LOG
~PARAMETER INFORMATION
#MNEM.UNIT          VALUE    DESCRIPTION
#----------   ------------   ------------------------------
 EKB .F         5045.0000:   Kelly bushing
 EGL .F         5035.0000:   Ground level
 EDF .F            0.0000:   Drilling floor
 EPD .F         5035.0000:   Permanent datum
 TD  .F         2956.0000:   Total depth
 DATE.        17-MAY-1977:   Date logged
 CLNT.            A2DTECH:   Client Code
 SL  . 2310' FNL & 2310' FEL:   Surface Location
 PD  .                 GL:   Permanent Datum
 LMF .                 KB:   Log Measured From
 DMF .                 KB:   Drilling Measured From
 DAPD.F                10:   Feet Above Permanent Datum
 DD  .F              2947:   Depth driller
 DL  .F              2956:   Depth logger
 BLI .F              2954:   Bottom log interval
 TLI .F               210:   Top log interval
 CS1 .IN            8.625:   Casing size
 CBD1.      8.625" @ 200':   Casing driller 1
 CBL1.F               216:   Casing logger 1
 BS1 .IN            7.875:   Bit size
 BSD1.F              2947:   Depth drilled with bit1
 DFT .            KCL MUD:   Type fluid in hole
 DFD .                  9:   Density
 DFV .                 32:   Viscosity
 DFPH.                7.5:   pH
 DFL .                5.3:   Fluid loss
 MSS .           FLOWLINE:   Source of sample
 RMS .OHMM            .18:   Rm
 MST .F                84:   Rm Meas. temp.
 RMF .OHMM            .16:   Rmf
 MFST.F                84:   Rmf Meas. temp.
 RMC .OHMM            .62:   Rmc
 MCST.F                84:   Rmc Meas. temp.
 RMB .OHMM            .12:   Rm. at BHT
 BHT .F               124:   BHT.
 TCS .HRS               2:   Time Circ. stopped
 MRT .F               124:   Maximum recorded temp.
 LUN .               9685:   Logging unit number
 LUL .           BRIGHTON:   Logging unit location
 ENGI.           T JOYNER:   Recorded By
 WITN.      W. PETTINGILL:   Witnessed by
 ORIG.           5" PRINT:   Origin of data
 UWI .     49025103650000:   Unique Well ID
 DICO. A2D TECHNOLOGIES, INC.:   Digitizing Company
~OTHER INFORMATION
~A   DEPT      SPR       RILM        RILD        SGRD       CALD       RHOB      DCOR        GRD  
# ...
 1668.0000   -45.3730     9.5580     7.6760    11.7400     8.0820     2.5390     0.0300   105.8450
 1668.5000   -45.3880     9.6950     7.7190    11.6800     8.0760     2.5290     0.0270   106.6610
 1669.0000   -45.4020     9.8450     7.7630    11.6190     8.0700     2.5310     0.0280   107.4590
 1669.5000   -45.4160    10.0700     7.8020    11.5590     8.0620     2.5350     0.0290   108.2790
 1670.0000   -45.4330    10.0260     7.7080    11.4990     8.0640     2.5380     0.0310   109.0630
 1670.5000   -45.4220     9.7570     7.6220    11.4390     8.0730     2.5330     0.0300   109.9130
 1671.0000   -45.3950     9.5500     7.5360    11.3790     8.0810     2.5270     0.0270   110.6800
 1671.5000   -45.3700     9.5160     7.4500    11.3180     8.0890     2.5220     0.0250   111.4230
 1672.0000   -45.3440     9.4830     7.3640    11.2580     8.0970     2.5170     0.0230   109.9180
 1672.5000   -45.3190     9.4500     7.2470    11.1970     8.1050     2.5110     0.0200   107.8210
 1673.0000   -45.2940     9.4160     7.2800    11.1370     8.1140     2.5060     0.0190   108.8410
 1673.5000   -45.2680     9.3840     7.3320    11.0800     8.1220     2.5060     0.0200   110.2390
 1674.0000   -45.2430     9.4950     7.3840    11.1530     8.1300     2.5070     0.0210   111.6980
 1674.5000   -45.2180     9.7080     7.4360    11.2740     8.1390     2.5080     0.0220   113.2820
 1675.0000   -45.1920    10.2910     7.4880    11.3950     8.1350     2.5070     0.0230   113.4250
 1675.5000   -45.1670    10.2810     7.5530    11.5150     8.1280     2.5060     0.0230   111.6730
 1676.0000   -45.1420    10.2550     7.6370    11.6350     8.1210     2.5100     0.0240   110.1290
 1676.5000   -45.1160    10.2290     7.7210    11.7100     8.1150     2.5150     0.0250   111.1140
 1677.0000   -45.0910    10.2030     7.8050    11.9510     8.1080     2.5200     0.0260   111.2970
 1677.5000   -45.0650    10.1770     7.8890    12.1990     8.1020     2.5250     0.0270   110.5370
 1678.0000   -45.0370    10.1510     7.9730    12.6080     8.0950     2.5210     0.0270   110.1150
 1678.5000   -44.9590    10.1250     8.0570    12.5290     8.0890     2.5150     0.0260   113.0110
 1679.0000   -44.8770    10.1030     8.2460    12.3020     8.0820     2.5090     0.0250   111.3210
 1679.5000   -44.7940     9.8560     8.2040    11.9990     8.0750     2.5030     0.0230   111.4370
 1680.0000   -44.7120     9.6390     8.1660    11.5390     8.0690     2.4920     0.0220   112.8570
 1680.5000   -44.6300     9.4220     8.1290    11.0790     8.0620     2.4820     0.0210   114.2100
 1681.0000   -44.5480     9.2050     8.0960    10.6200     8.0630     2.4640     0.0200   115.5800
 1681.5000   -44.4650     8.9880     7.6840    10.4830     8.0700     2.4430     0.0190   117.0090
 1682.0000   -44.3830     8.5490     7.3120    10.4830     8.0760     2.4220     0.0150   117.3900
 1682.5000   -44.3000     7.8810     6.9400    10.4830     8.0810     2.4000     0.0110   114.9730
 1683.0000   -44.2190     7.2120     6.5680     9.8550     8.0870     2.3780     0.0080   112.6340
 1683.5000   -44.1350     6.5430     6.1950     9.0440     8.0930     2.3540     0.0040   110.1780
 1684.0000   -44.0540     5.8740     5.8230     8.0410     8.0990     2.3300     0.0000   108.5410
 1684.5000   -43.9740     5.1030     5.3940     6.8790     8.0970     2.3070    -0.0040   107.4560
 1685.0000   -43.8790     5.0100     5.1030     5.2950     8.0930     2.2800    -0.0080   106.3610
 1685.5000   -43.9240     5.3940     5.1280     5.7010     8.0890     2.2690    -0.0120   105.2230
 1686.0000   -44.1020     6.1570     5.1680     8.3660     8.0850     2.3150    -0.0070   104.0140
 1686.5000   -44.2650     7.2470     5.2720    11.1020     8.0810     2.4280     0.0020   102.8350
 1687.0000   -44.4260     7.6880     5.6110    11.7410     8.0770     2.5420     0.0110   101.5770
 1687.5000   -44.5940     8.2290     5.9500    11.8150     8.0730     2.5300     0.0200   102.7520
 1688.0000   -44.6460     8.6730     6.2890    11.8890     8.0690     2.5390     0.0240   105.3570
 1688.5000   -44.6420     8.9680     6.6280    11.9630     8.0650     2.5460     0.0260   105.4230
 1689.0000   -44.6420     9.2630     6.9680    12.0370     8.0610     2.5570     0.0280   104.3090
 1689.5000   -44.6430     9.5580     7.3070    12.1120     8.0570     2.5670     0.0300   104.4130
 1690.0000   -44.6430     9.8530     7.6590    12.1860     8.0520     2.5860     0.0310   107.3380
 1690.5000   -44.6430    10.1030     8.0050    12.2600     8.0480     2.5930     0.0330   105.1820
 1691.0000   -44.6430    10.1030     8.0960    12.3340     8.0440     2.5880     0.0350   102.7540
 1691.5000   -44.6430    10.1030     8.0960    12.4080     8.0400     2.5840     0.0330   103.6280
 1692.0000   -44.6430    10.1030     8.1460    12.4820     8.0360     2.5800     0.0300   107.0150
 1692.5000   -44.6430    10.1030     8.1900    12.5570     8.0320     2.5760     0.0270   110.0820
 1693.0000   -44.6430    10.1030     8.2350    12.6080     8.0280     2.5720     0.0230   109.9160
 1693.5000   -44.6430    10.1030     8.2790    12.6080     8.0240     2.5680     0.0240   108.8570
 1694.0000   -44.6430    10.1020     8.3230    12.6070     8.0210     2.5640     0.0260   107.7310
 1694.5000   -44.6430    10.1030     8.3680    12.6070     8.0300     2.5680     0.0270   109.5130
 1695.0000   -44.6430    10.1040     8.4000    12.6080     8.0400     2.5770     0.0290   111.3990
 1695.5000   -44.6430    10.0740     8.4000    12.6080     8.0510     2.5860     0.0300   113.1040
 1696.0000   -44.6430    10.0070     8.3990    12.6070     8.0610     2.5910     0.0320   112.3120
 1696.5000   -44.6430     9.9230     8.3990    12.6020     8.0710     2.5880     0.0330   111.7010
 1697.0000   -44.6430     9.9490     8.3990    12.6920     8.0820     2.5830     0.0350   110.8840
 1697.5000   -44.6430    10.0080     8.3810    12.8290     8.0920     2.5920     0.0360   112.0660
 1698.0000   -44.6430    10.0620     8.3590    12.9380     8.0990     2.5880     0.0380   113.4660
 1698.5000   -44.6420    10.1170     8.3370    13.0870     8.0960     2.5770     0.0390   114.9080
 1699.0000   -44.6440    10.1710     8.3140    13.3250     8.0920     2.5710     0.0390   116.4990
 1699.5000   -44.6470    10.2240     8.2920    13.2560     8.0890     2.5710     0.0400   116.4820
 1700.0000   -44.7190    10.2920     8.2700    13.0880     8.0850     2.5700     0.0400   114.3740
 1700.5000   -44.7930    10.2890     8.2480    12.9200     8.0820     2.5710     0.0400   112.2920
 1701.0000   -44.8700    10.2900     8.2260    12.7520     8.0790     2.5730     0.0410   110.5330
 1701.5000   -44.9430    10.2910     8.2030    12.5840     8.0750     2.5750     0.0410   108.5830
 1702.0000   -45.0190    10.2910     8.1810    12.4160     8.0720     2.5770     0.0410   112.0360
 1702.5000   -45.0110    10.2910     8.1600    12.3340     8.0680     2.5800     0.0420   110.9020
 1703.0000   -44.9660    10.2910     8.1380    12.2790     8.0650     2.5820     0.0420   109.8640
 1703.5000   -44.9230    10.2910     8.1160    12.2230     8.0610     2.5790     0.0420   108.4740
 1704.0000   -44.8820    10.2910     8.0960    12.1670     8.0610     2.5730     0.0430   109.4520
 1704.5000   -44.8390    10.2910     8.2450    12.1120     8.0620     2.5680     0.0430   110.3530
 1705.0000   -44.7960    10.2920     8.1760    12.0560     8.0640     2.5630     0.0430   111.5210
 1705.5000   -44.7540    10.2910     8.1040    12.0010     8.0650     2.5580     0.0420   111.8970
 1706.0000   -44.7120    10.2910     8.0300    11.9450     8.0660     2.5530     0.0410   112.3490
 1706.5000   -44.6690    10.2910     7.9560    11.8540     8.0680     2.5480     0.0400   112.6940
 1707.0000   -44.6270    10.2910     7.8820    11.7480     8.0690     2.5460     0.0390   113.1340
 1707.5000   -44.5840    10.2910     7.8080    11.6410     8.0700     2.5440     0.0380   112.5250
 1708.0000   -44.5420     9.3840     7.7350    11.5350     8.0720     2.5430     0.0370   111.5720
