~VERSION INFORMATION
 VERS.                2.0:   CWLS LOG ASCII STANDARD - VERSION 2.0
 WRAP.                 NO:   ONE LINE PER DEPTH STEP
~WELL INFORMATION
#MNEM.UNIT      DATA TYPE    INFORMATION
#----------   ------------   ------------------------------
 STRT.F          594.5000:   START DEPTH
 STOP.F         3015.5000:   STOP DEPTH
 STEP.F            0.5000:   STEP LENGTH
 NULL.          -999.2500:   NO VALUE
 COMP.    FENIX & SCISSON:   COMPANY
 WELL.  FENIX "AX" #35-34:   WELL
 FLD .             NPR #3:   FIELD
 LOC .      S34 T39N R78W:   LOCATION
 CNTY.            NATRONA:   COUNTY
 STAT.            WYOMING:   STATE
 CTRY. UNITED STATES OF AMERICA:   COUNTRY
 SRVC.       SCHLUMBERGER:   SERVICE COMPANY
 DATE.        14-APR-1977:   LOGDATE
 API .     49025103390000:   API NUMBER
~CURVE INFORMATION
#MNEM.UNIT       API CODE    CURVE DESCRIPTION
#----------   ------------   ------------------------------
 DEPT.F                  :   
 CALD.IN     45 280 60 00:   CALIPER FROM DENSITY LOG
 RHOB.G/C3   45 350 01 00:   BULK DENSITY
 DRHO.G/C3   45 356 01 00:   DENSITY CORRECTION
 SPR .MV     07 010 01 00:   SPONTANEOUS POTENTIAL
 RILM.OHMM   07 120 44 00:   INDUCTION LOG MEDIUM RESISTIVITY
 RILD.OHMM   07 120 46 00:   DEEP INDUCTION RESISTIVITY
 LL8 .OHMM   07 220 08 00:   LATEROLOG-8 RES.
 GRD .GAPI   45 310 01 00:   GAMMA RAY FROM DENSITY LOG
~PARAMETER INFORMATION
#MNEM.UNIT          VALUE    DESCRIPTION
#----------   ------------   ------------------------------
 EKB .F         5116.0000:   Kelly bushing
 EGL .F         5104.0000:   Ground level
 EDF .F            0.0000:   Drilling floor
 TD  .F         3017.0000:   Total depth
 DATE.        14-APR-1977:   Date logged
 CLNT.            A2DTECH:   Client Code
 SL  . 2311' FSL & 1550' FWL:   Surface Location
 PD  .                 GL:   Permanent Datum
 EPD .F              5104:   Elevation Permanent Datum
 LMF .                 KB:   Log Measured From
 DMF .                 KB:   Drilling Measured From
 DAPD.F                12:   Feet Above Permanent Datum
 DD  .F              3012:   Depth driller
 DL  .F              3017:   Depth logger
 BLI .F              3011:   Bottom log interval
 TLI .F               600:   Top log interval
 CS1 .IN            8.625:   Casing size
 CBD1.      8.625" @ 601':   Casing driller 1
 CBL1.F               600:   Casing logger 1
 BS1 .IN            7.875:   Bit size
 BSD1.F              3012:   Depth drilled with bit1
 DFT .                FGM:   Type fluid in hole
 DFD .                9.2:   Density
 DFV .                 29:   Viscosity
 MSS .           FLOWLINE:   Source of sample
 RMS .OHMM          0.206:   Rm
 MST .F                60:   Rm Meas. temp.
 RMF .OHMM          0.192:   Rmf
 MFST.F                60:   Rmf Meas. temp.
 MFSS.               MEAS:   Source Rmf.
 RMB .OHMM          0.109:   Rm. at BHT
 BHT .F               113:   BHT.
 TLAB.HRS            0200:   Time logger at bottom
 MRT .F               113:   Maximum recorded temp.
 LUN .               7711:   Logging unit number
 LUL .               CSPR:   Logging unit location
 ENGI.             GEIGER:   Recorded By
 WITN.         PETTINGILL:   Witnessed by
 ORIG.           5" PRINT:   Origin of data
 UWI .     49025103390000:   Unique Well ID
 DICO. A2D TECHNOLOGIES, INC.:   Digitizing Company
~OTHER INFORMATION
~A   DEPT     CALD       RHOB       DRHO        SPR       RILM       RILD        LL8         GRD  
# ...
 1080.5000     9.7120     2.5060     0.0330   -79.0780     7.8600     7.5370     8.0320   107.2210
 1081.0000     9.7030     2.5030     0.0170   -78.9470     7.8030     7.4870     7.9110   106.9210
 1081.5000     9.7050     2.5030     0.0270   -78.5580     7.7470     7.4360     7.9790   108.4090
 1082.0000     9.7120     2.5030     0.0160   -78.1360     7.6960     7.3860     8.0770   110.9600
 1082.5000     9.7190     2.5000     0.0230   -77.7100     7.7580     7.3510     8.1740   108.2170
 1083.0000     9.7160     2.5100     0.0270   -77.2840     7.8150     7.4510     8.2720   102.5100
 1083.5000     9.7110     2.5100     0.0220   -76.8620     7.8710     7.5280     8.3590    97.4280
 1084.0000     9.7060     2.5130     0.0200   -76.5060     7.9270     7.6050     8.3930    97.2710
 1084.5000     9.7000     2.5110     0.0160   -76.4210     7.9840     7.6820     8.4240    99.2380
 1085.0000     9.6820     2.5080     0.0190   -76.3440     8.0400     7.7590     8.4550   100.2540
 1085.5000     9.6640     2.4950     0.0020   -76.5530     8.0970     7.8360     8.4860   101.2440
 1086.0000     9.6460     2.4900     0.0150   -77.1260     8.1530     7.9130     8.5140   105.0140
 1086.5000     9.6410     2.4890     0.0100   -76.7910     8.2090     7.9900     8.5960   107.3140
 1087.0000     9.6410     2.4880     0.0020   -76.6740     8.2660     8.0670     8.6700   104.7360
 1087.5000     9.6420     2.4880     0.0020   -77.3390     8.3510     8.1440     8.7440   100.8630
 1088.0000     9.6860     2.4930     0.0130   -77.9860     8.4490     8.2210     8.8180    98.9020
 1088.5000     9.6860     2.4960     0.0070   -78.6240     8.5470     8.2980     8.8920    98.2900
 1089.0000     9.6640     2.4900     0.0190   -79.0860     8.6450     8.3750     8.9670    99.2610
 1089.5000     9.6680     2.5210     0.0480   -78.9180     8.7430     8.4520     9.0410   100.0110
 1090.0000     9.6770     2.5460     0.0420   -78.7560     8.8400     8.5290     9.1150    99.3310
 1090.5000     9.6640     2.5360     0.0310   -78.8160     8.9380     8.6060     9.1890    99.3780
 1091.0000     9.6380     2.5280     0.0280   -78.9660     9.0360     8.6830     9.2630   101.8710
 1091.5000     9.6290     2.5290     0.0330   -79.1120     9.1630     8.7520     9.3380   102.6520
 1092.0000     9.6490     2.5230     0.0260   -78.8060     9.1370     8.7120     9.4190   102.1390
 1092.5000     9.6680     2.5140     0.0170   -78.3570     9.0990     8.6670     9.3900   102.9880
 1093.0000     9.6750     2.5110     0.0160   -77.9060     9.0620     8.6230     9.3580   104.0980
 1093.5000     9.6610     2.5220     0.0240   -77.4580     9.0240     8.5780     9.3260   105.0810
 1094.0000     9.6470     2.5330     0.0340   -77.1210     8.9870     8.5330     9.2950   105.3860
 1094.5000     9.6500     2.5430     0.0400   -77.1270     8.9490     8.4890     9.2630   105.7010
 1095.0000     9.6650     2.5340     0.0380   -77.0540     8.9120     8.4440     9.2310   107.5310
 1095.5000     9.6810     2.5180     0.0310   -76.7480     8.8740     8.3990     9.1990   107.8360
 1096.0000     9.6970     2.5200     0.0350   -76.4490     8.8370     8.3550     9.1670   107.6050
 1096.5000     9.7000     2.5330     0.0400   -76.1530     8.7990     8.3100     9.1350   108.2650
 1097.0000     9.7010     2.5030     0.0190   -75.9430     8.7620     8.2650     9.1030   108.8700
 1097.5000     9.7140     2.4970     0.0120   -76.1190     8.7240     8.2210     9.0710   108.8170
 1098.0000     9.7390     2.4920     0.0090   -76.2860     8.6870     8.1760     9.0390   107.5360
 1098.5000     9.7260     2.4940     0.0080   -76.6050     8.6490     8.1310     9.0070   106.2420
 1099.0000     9.7060     2.4870     0.0120   -76.9900     8.6110     8.0870     8.9750   104.9310
 1099.5000     9.6810     2.5040     0.0120   -77.3760     8.5900     8.0420     8.9430   103.3250
 1100.0000     9.6750     2.5300     0.0200   -77.7630     8.5840     7.9970     8.9140   100.7170
 1100.5000     9.7300     2.5410     0.0270   -78.1490     8.5780     7.9840     8.9000    98.8740
 1101.0000     9.7850     2.5460     0.0280   -78.5340     8.5720     7.9840     8.8870    99.5490
 1101.5000     9.7990     2.5380     0.0280   -78.9200     8.5670     7.9840     8.8740   100.2220
 1102.0000     9.7990     2.5310     0.0260   -79.1470     8.5610     7.9840     8.8610    99.5400
 1102.5000     9.7890     2.5190     0.0220   -79.2250     8.5550     7.9840     8.8480    99.8280
 1103.0000     9.7800     2.5030     0.0130   -79.3030     8.5490     7.9840     8.8350    98.1730
 1103.5000     9.7800     2.5080     0.0140   -79.2060     8.5430     7.9840     8.8230    98.3370
 1104.0000     9.7800     2.5230     0.0190   -79.0590     8.5380     7.9840     8.8100    98.2980
 1104.5000     9.7800     2.5390     0.0210   -78.6810     8.5320     7.9840     8.7970    98.0130
 1105.0000     9.7980     2.5290     0.0120   -78.3020     8.5260     7.9840     8.7840   100.1540
 1105.5000     9.8190     2.5140     0.0020   -77.9220     8.5200     7.9840     8.7710   102.2370
 1106.0000     9.8380     2.5210     0.0070   -77.5290     8.5140     7.9840     8.7580   104.3810
 1106.5000     9.8180     2.5250     0.0080   -77.0170     8.5090     7.9840     8.7450   106.1020
 1107.0000     9.7970     2.5070     0.0090   -76.4840     8.5030     7.9840     8.7320   107.7240
 1107.5000     9.7760     2.4930     0.0140   -76.0840     8.4970     7.9840     8.7190   107.9800
 1108.0000     9.7590     2.4910     0.0200   -75.9480     8.4910     7.9840     8.7060   105.9220
 1108.5000     9.7600     2.5030     0.0230   -75.8050     8.4850     7.9840     8.6930   105.5740
 1109.0000     9.7600     2.5010     0.0190   -75.8880     8.4800     7.9840     8.6800   106.0430
 1109.5000     9.7610     2.4990     0.0170   -76.1340     8.4740     7.9840     8.6720   106.7430
 1110.0000     9.7820     2.5310     0.0400   -76.3830     8.4680     7.9840     8.7290   107.0420
 1110.5000     9.8040     2.5200     0.0550   -76.6330     8.4620     7.9850     8.7720   104.9600
 1111.0000     9.8230     2.5080     0.0370   -77.0060     8.4560     7.9730     8.8150   100.8650
 1111.5000     9.8320     2.5110     0.0310   -77.4620     8.4510     7.9530     8.8580   100.2640
 1112.0000     9.7920     2.5120     0.0210   -77.9190     8.4450     7.9330     8.9000   101.0280
 1112.5000     9.7600     2.5030     0.0240   -78.3760     8.4390     7.9130     8.9430   102.6380
 1113.0000     9.7380     2.5040     0.0170   -78.8300     8.4190     7.8930     8.9960   103.0350
 1113.5000     9.7310     2.5270     0.0180   -79.1400     8.3870     7.8740     8.9610   102.0910
 1114.0000     9.7240     2.5440     0.0190   -79.2240     8.3560     7.8540     8.9130   101.9670
 1114.5000     9.7590     2.5360     0.0190   -79.3030     8.3240     7.8340     8.8660   102.7190
 1115.0000     9.8220     2.5270     0.0110   -79.2010     8.2920     7.8140     8.8190   102.8980
 1115.5000     9.8200     2.5400     0.0140   -79.0730     8.2610     7.7940     8.7710   101.6120
 1116.0000     9.8190     2.5360     0.0230   -78.7690     8.2290     7.7740     8.7240   100.0510
 1116.5000     9.8250     2.5310     0.0180   -78.5840     8.1980     7.7540     8.6770    98.7660
 1117.0000     9.8340     2.5510     0.0230   -78.1730     8.1660     7.7340     8.6290   100.1900
 1117.5000     9.8500     2.5400     0.0210   -77.6380     8.1340     7.7140     8.5820   103.1950
 1118.0000     9.8800     2.5290     0.0330   -77.1400     8.1030     7.6940     8.5140   103.3960
 1118.5000     9.8990     2.5360     0.0370   -77.1270     8.0580     7.6740     8.5200   101.5650
 1119.0000     9.8990     2.5490     0.0350   -77.1240     8.0660     7.6540     8.5300   101.6900
 1119.5000     9.8980     2.5560     0.0320   -76.9770     8.0790     7.6340     8.5410   101.6800
 1120.0000     9.9460     2.5420     0.0260   -76.3030     8.0930     7.5800     8.5510   101.3400
 1120.5000    10.0140     2.5250     0.0360   -75.9690     8.1070     7.5010     8.5620   102.7490
