~VERSION INFORMATION
 VERS.                2.0:   CWLS LOG ASCII STANDARD - VERSION 2.0
 WRAP.                 NO:   ONE LINE PER DEPTH STEP
~WELL INFORMATION
#MNEM.UNIT      DATA TYPE    INFORMATION
#----------   ------------   ------------------------------
 STRT.F          594.5000:   START DEPTH
 STOP.F         3015.5000:   STOP DEPTH
 STEP.F            0.5000:   STEP LENGTH
 NULL.          -999.2500:   NO VALUE
 COMP.    FENIX & SCISSON:   COMPANY
 WELL.  FENIX "AX" #35-34:   WELL
 FLD .             NPR #3:   FIELD
 LOC .      S34 T39N R78W:   LOCATION
 CNTY.            NATRONA:   COUNTY
 STAT.            WYOMING:   STATE
 CTRY. UNITED STATES OF AMERICA:   COUNTRY
 SRVC.       SCHLUMBERGER:   SERVICE COMPANY
 DATE.        14-APR-1977:   LOGDATE
 API .     49025103390000:   API NUMBER
~CURVE INFORMATION
#MNEM.UNIT       API CODE    CURVE DESCRIPTION
#----------   ------------   ------------------------------
 DEPT.F                  :   
 CALD.IN     45 280 60 00:   CALIPER FROM DENSITY LOG
 RHOB.G/C3   45 350 01 00:   BULK DENSITY
 DRHO.G/C3   45 356 01 00:   DENSITY CORRECTION
 SPR .MV     07 010 01 00:   SPONTANEOUS POTENTIAL
 RILM.OHMM   07 120 44 00:   INDUCTION LOG MEDIUM RESISTIVITY
 RILD.OHMM   07 120 46 00:   DEEP INDUCTION RESISTIVITY
 LL8 .OHMM   07 220 08 00:   LATEROLOG-8 RES.
 GRD .GAPI   45 310 01 00:   GAMMA RAY FROM DENSITY LOG
~PARAMETER INFORMATION
#MNEM.UNIT          VALUE    DESCRIPTION
#----------   ------------   ------------------------------
 EKB .F         5116.0000:   Kelly bushing
 EGL .F         5104.0000:   Ground level
 EDF .F            0.0000:   Drilling floor
 TD  .F         3017.0000:   Total depth
 DATE.        14-APR-1977:   Date logged
 CLNT.            A2DTECH:   Client Code
 SL  . 2311' FSL & 1550' FWL:   Surface Location
 PD  .                 GL:   Permanent Datum
 EPD .F              5104:   Elevation Permanent Datum
 LMF .                 KB:   Log Measured From
 DMF .                 KB:   Drilling Measured From
 DAPD.F                12:   Feet Above Permanent Datum
 DD  .F              3012:   Depth driller
 DL  .F              3017:   Depth logger
 BLI .F              3011:   Bottom log interval
 TLI .F               600:   Top log interval
 CS1 .IN            8.625:   Casing size
 CBD1.      8.625" @ 601':   Casing driller 1
 CBL1.F               600:   Casing logger 1
 BS1 .IN            7.875:   Bit size
 BSD1.F              3012:   Depth drilled with bit1
 DFT .                FGM:   Type fluid in hole
 DFD .                9.2:   Density
 DFV .                 29:   Viscosity
 MSS .           FLOWLINE:   Source of sample
 RMS .OHMM          0.206:   Rm
 MST .F                60:   Rm Meas. temp.
 RMF .OHMM          0.192:   Rmf
 MFST.F                60:   Rmf Meas. temp.
 MFSS.               MEAS:   Source Rmf.
 RMB .OHMM          0.109:   Rm. at BHT
 BHT .F               113:   BHT.
 TLAB.HRS            0200:   Time logger at bottom
 MRT .F               113:   Maximum recorded temp.
 LUN .               7711:   Logging unit number
 LUL .               CSPR:   Logging unit location
 ENGI.             GEIGER:   Recorded By
 WITN.         PETTINGILL:   Witnessed by
 ORIG.           5" PRINT:   Origin of data
 UWI .     49025103390000:   Unique Well ID
 DICO. A2D TECHNOLOGIES, INC.:   Digitizing Company
~OTHER INFORMATION
~A   DEPT     CALD       RHOB       DRHO        SPR       RILM       RILD        LL8         GRD  
# ...
 2012.0000     8.3870     2.4500     0.0150   -81.3120    11.0970    10.3720    12.7530   141.6000
 2012.5000     8.3850     2.4580     0.0150   -81.1040    11.1980    10.4440    13.2740   144.5830
 2013.0000     8.3830     2.4530     0.0100   -80.8750    11.2980    10.5160    14.1460   145.5130
 2013.5000     8.3810     2.4650     0.0100   -80.5900    11.3560    10.5790    15.1840   144.8490
 2014.0000     8.3790     2.4590     0.0110   -80.0930    11.4030    10.6570    15.0310   143.9440
 2014.5000     8.3770     2.4660     0.0050   -79.5990    11.4510    10.7350    14.7790   145.4060
 2015.0000     8.3750     2.4500    -0.0010   -79.3020    11.4980    10.8130    14.5270   147.0580
 2015.5000     8.3730     2.4440     0.0000   -79.0540    11.5450    10.8910    14.2750   144.7650
 2016.0000     8.3710     2.4580     0.0050   -78.8040    11.5920    10.9690    14.0230   141.4250
 2016.5000     8.3730     2.4720     0.0110   -78.5560    11.6400    11.0460    13.9600   137.9920
 2017.0000     8.3510     2.4680     0.0090   -78.4340    11.6870    11.1240    13.9360   135.4100
 2017.5000     8.3580     2.4640     0.0040   -78.3260    11.7340    11.2020    13.9120   133.3890
 2018.0000     8.3660     2.4710     0.0080   -78.5090    12.0260    11.4280    13.8890   135.1230
 2018.5000     8.3710     2.4750     0.0150   -78.6970    12.3650    11.7600    13.8650   139.0950
 2019.0000     8.3780     2.4690     0.0120   -78.8840    12.7030    12.0930    13.8520   143.1890
 2019.5000     8.3860     2.4750     0.0150   -79.0800    13.2220    12.4070    14.8400   141.6110
 2020.0000     8.3900     2.4850     0.0220   -79.2790    13.9390    14.0980    15.8980   135.1640
 2020.5000     8.3690     2.4860     0.0300   -79.4790    14.6560    16.0720    14.9040   128.0310
 2021.0000     8.3520     2.4800     0.0430   -79.6760    15.3240    18.0470    13.4020   123.7520
 2021.5000     8.3750     2.4990     0.0590   -79.5150    16.5290    20.0210    11.8990   122.8870
 2022.0000     8.3980     2.4730     0.0320   -79.3000    17.6570    21.9950    10.8100   124.0920
 2022.5000     8.4210     2.4460     0.0080   -79.0830    19.0480    23.8120    16.0660   126.7580
 2023.0000     8.5250     2.4270     0.0070   -78.8660    20.7260    25.4900    20.1880   130.0610
 2023.5000     8.6780     2.4240     0.0070   -78.6450    22.4040    27.8360    24.3110   138.0590
 2024.0000     8.4730     2.4290     0.0130   -78.3940    23.5950    27.3700    28.7350   146.9510
 2024.5000     8.2940     2.4260     0.0150   -78.1480    21.8120    25.8330    27.9870   153.9680
 2025.0000     8.3010     2.4180     0.0110   -77.9010    20.4310    24.5490    26.9910   159.8730
 2025.5000     8.3140     2.4110     0.0160   -77.4170    19.0500    24.0350    25.9940   161.7640
 2026.0000     8.3250     2.4030     0.0110   -76.9520    17.6690    23.5200    24.9970   157.6500
 2026.5000     8.3310     2.4070     0.0160   -76.4900    17.1090    22.8610    24.0000   154.8900
 2027.0000     8.3310     2.4000     0.0200   -76.0300    17.2760    21.8800    23.0030   151.6880
 2027.5000     8.3230     2.4130     0.0120   -75.5680    17.4260    20.8990    22.2560   148.7320
 2028.0000     8.3120     2.4000     0.0060   -75.3490    17.5870    19.9190    24.2670   145.7860
 2028.5000     8.3110     2.4290     0.0120   -75.3480    17.5870    18.9380    27.0790   138.0670
 2029.0000     8.3110     2.4240     0.0070   -75.3450    17.3350    17.9570    26.1560   131.8200
 2029.5000     8.3110     2.4340     0.0090   -75.3890    17.1120    17.0430    24.4130   129.2830
 2030.0000     8.3040     2.4290     0.0100   -75.4470    16.8890    16.5490    22.6700   129.1330
 2030.5000     8.2930     2.4220     0.0110   -75.5120    16.6650    16.0560    21.3450   130.5040
 2031.0000     8.3120     2.4170     0.0110   -75.7180    16.4420    15.5620    20.0920   131.7610
 2031.5000     8.3300     2.4320     0.0080   -76.3000    16.3420    15.0450    18.7180   132.9210
 2032.0000     8.3040     2.4300     0.0090   -76.8530    16.8960    14.6100    17.1200   134.0310
 2032.5000     8.2730     2.4260     0.0130   -77.3140    18.4600    14.2390    15.5220   132.0350
 2033.0000     8.2840     2.4370     0.0180   -77.2030    19.3950    14.2390    14.5030   121.9140
 2033.5000     8.3010     2.4460     0.0210   -77.7050    18.7080    14.2990    14.6060   118.5960
 2034.0000     8.3190     2.4350     0.0160   -78.2070    18.1580    14.4650    15.2210   123.7100
 2034.5000     8.3280     2.4230     0.0110   -78.6960    17.3340    15.0650    15.8360   130.3560
 2035.0000     8.3140     2.4140     0.0080   -79.0040    18.0390    15.7920    16.8430   135.0020
 2035.5000     8.3010     2.4180     0.0060   -78.5000    20.0770    16.5190    19.6420   137.7090
 2036.0000     8.2920     2.4210     0.0080   -78.1320    21.2900    17.4260    22.4400   138.3000
 2036.5000     8.3210     2.4150     0.0090   -77.7670    20.9450    17.4750    24.8950   135.9910
 2037.0000     8.3540     2.4170     0.0090   -77.3940    20.6700    17.5380    26.1030   132.9160
 2037.5000     8.3700     2.4250     0.0040   -77.4340    20.0490    17.5870    24.1920   132.3360
 2038.0000     8.3350     2.4330     0.0070   -77.5650    19.1970    16.9280    21.7930   133.6410
 2038.5000     8.2940     2.4320     0.0100   -77.7040    18.3450    16.1050    19.3950   137.0090
 2039.0000     8.2940     2.4330     0.0080   -77.5410    17.4930    15.2820    16.9970   135.5210
 2039.5000     8.3060     2.4400     0.0090   -77.3360    16.6400    14.4580    14.6360   132.2110
 2040.0000     8.3160     2.4390     0.0120   -77.4210    15.5210    13.8810    16.0290   134.0500
 2040.5000     8.3270     2.4480     0.0160   -77.5180    15.7500    13.6460    17.4000   133.8050
 2041.0000     8.3380     2.4420     0.0180   -77.6120    16.2090    13.4110    19.2790   133.6380
 2041.5000     8.3490     2.4350     0.0100   -77.6930    16.6670    13.2300    18.8670   133.5470
 2042.0000     8.3590     2.4380     0.0100   -78.1370    17.1090    13.4780    17.9090   133.9510
 2042.5000     8.3710     2.4470     0.0190   -78.6280    16.6970    13.8520    16.7980   134.8260
 2043.0000     8.3620     2.4490     0.0180   -78.9490    16.2980    13.8090    16.8630   132.9580
 2043.5000     8.3490     2.4450     0.0170   -79.1330    15.8990    13.7130    16.9530   129.6440
 2044.0000     8.3360     2.4490     0.0160   -79.3160    15.5010    13.6160    16.7440   125.8310
 2044.5000     8.3230     2.4460     0.0160   -79.4970    15.1020    13.5190    16.4230   122.0300
 2045.0000     8.3120     2.4430     0.0110   -79.6770    15.0260    13.4230    16.1010   118.2220
 2045.5000     8.3340     2.4450     0.0120   -79.8580    14.9830    13.3260    15.6080   115.8270
 2046.0000     8.3580     2.4550     0.0170   -80.0490    14.9400    13.2300    15.6890   114.9430
 2046.5000     8.3670     2.4500     0.0090   -79.9400    14.8970    13.1330    15.8610   114.3540
 2047.0000     8.3530     2.4430     0.0080   -79.7090    14.8540    13.0370    16.0330   115.6590
 2047.5000     8.3390     2.4570     0.0120   -79.4730    14.8110    12.9400    16.1920   121.8760
 2048.0000     8.3340     2.4520     0.0180   -79.1830    14.7720    12.8130    15.9360   124.7630
 2048.5000     8.3380     2.4470     0.0170   -78.7070    14.4540    12.6100    15.6460   127.6980
 2049.0000     8.3430     2.4410     0.0130   -78.2360    14.1870    12.4070    15.3550   130.1420
 2049.5000     8.3470     2.4370     0.0100   -77.7750    13.9210    12.2040    14.6340   132.0900
 2050.0000     8.3510     2.4310     0.0170   -77.7330    13.6540    12.0010    13.8610   133.4000
 2050.5000     8.3510     2.4240     0.0090   -77.4700    13.3880    11.7980    13.4750   130.7180
 2051.0000     8.3510     2.4160     0.0060   -77.1000    13.1210    11.5950    13.9260   127.8500
 2051.5000     8.3510     2.4210     0.0110   -76.7230    12.8550    11.3920    14.3700   125.1740
 2052.0000     8.3510     2.4260     0.0040   -76.4140    12.5880    11.1890    14.2310   123.3800
