~VERSION INFORMATION
 VERS.                2.0:   CWLS LOG ASCII STANDARD - VERSION 2.0
 WRAP.                 NO:   ONE LINE PER DEPTH STEP
~WELL INFORMATION
#MNEM.UNIT      DATA TYPE    INFORMATION
#----------   ------------   ------------------------------
 STRT.F          210.0000:   START DEPTH
 STOP.F         2955.0000:   STOP DEPTH
 STEP.F            0.5000:   STEP LENGTH
 NULL.          -999.2500:   NO VALUE
 COMP.    FENIX & SCISSON:   COMPANY
 WELL.     FENIX A #54-28:   WELL
 FLD .                NPR:   FIELD
 LOC .      S28 T39N R78W:   LOCATION
 CNTY.            NATRONA:   COUNTY
 STAT.            WYOMING:   STATE
 CTRY. UNITED STATES OF AMERICA:   COUNTRY
 SRVC.              WELEX:   SERVICE COMPANY
 DATE.        17-MAY-1977:   LOGDATE
 API .     49025103650000:   API NUMBER
~CURVE INFORMATION
#MNEM.UNIT       API CODE    CURVE DESCRIPTION
#----------   ------------   ------------------------------
 DEPT.F                  :   
 SPR .MV     07 010 01 00:   SPONTANEOUS POTENTIAL
 RILM.OHMM   07 120 44 00:   INDUCTION LOG MEDIUM RESISTIVITY
 RILD.OHMM   07 120 46 00:   INDUCTION LOG DEEP RESISTIVITY
 SGRD.OHMM   07 220 05 00:   SHALLOW GUARD LOG RESISTIVITY
 CALD.IN     45 280 60 00:   CALIPER FROM DENSITY LOG
 RHOB.G/C3   45 350 01 00:   BULK DENSITY
 DCOR.G/C3   45 356 01 00:   DENSITY CORRECTION
 GRD .GAPI   45 310 01 00:   GAMMA RAY FROM DENSITY LOG
~PARAMETER INFORMATION
#MNEM.UNIT          VALUE    DESCRIPTION
#----------   ------------   ------------------------------
 EKB .F         5045.0000:   Kelly bushing
 EGL .F         5035.0000:   Ground level
 EDF .F            0.0000:   Drilling floor
 EPD .F         5035.0000:   Permanent datum
 TD  .F         2956.0000:   Total depth
 DATE.        17-MAY-1977:   Date logged
 CLNT.            A2DTECH:   Client Code
 SL  . 2310' FNL & 2310' FEL:   Surface Location
 PD  .                 GL:   Permanent Datum
 LMF .                 KB:   Log Measured From
 DMF .                 KB:   Drilling Measured From
 DAPD.F                10:   Feet Above Permanent Datum
 DD  .F              2947:   Depth driller
 DL  .F              2956:   Depth logger
 BLI .F              2954:   Bottom log interval
 TLI .F               210:   Top log interval
 CS1 .IN            8.625:   Casing size
 CBD1.      8.625" @ 200':   Casing driller 1
 CBL1.F               216:   Casing logger 1
 BS1 .IN            7.875:   Bit size
 BSD1.F              2947:   Depth drilled with bit1
 DFT .            KCL MUD:   Type fluid in hole
 DFD .                  9:   Density
 DFV .                 32:   Viscosity
 DFPH.                7.5:   pH
 DFL .                5.3:   Fluid loss
 MSS .           FLOWLINE:   Source of sample
 RMS .OHMM            .18:   Rm
 MST .F                84:   Rm Meas. temp.
 RMF .OHMM            .16:   Rmf
 MFST.F                84:   Rmf Meas. temp.
 RMC .OHMM            .62:   Rmc
 MCST.F                84:   Rmc Meas. temp.
 RMB .OHMM            .12:   Rm. at BHT
 BHT .F               124:   BHT.
 TCS .HRS               2:   Time Circ. stopped
 MRT .F               124:   Maximum recorded temp.
 LUN .               9685:   Logging unit number
 LUL .           BRIGHTON:   Logging unit location
 ENGI.           T JOYNER:   Recorded By
 WITN.      W. PETTINGILL:   Witnessed by
 ORIG.           5" PRINT:   Origin of data
 UWI .     49025103650000:   Unique Well ID
 DICO. A2D TECHNOLOGIES, INC.:   Digitizing Company
~OTHER INFORMATION
~A   DEPT      SPR       RILM        RILD        SGRD       CALD       RHOB      DCOR        GRD  
# ...
 1830.0000   -45.0400    11.0420     7.8680    13.8050     8.0600     2.4480    -0.0010   120.8320
 1830.5000   -45.0400    10.8110     7.8850    13.5740     8.0600     2.4490    -0.0030   119.7910
 1831.0000   -45.0390    10.5800     7.9010    13.4900     8.0600     2.4550    -0.0040   121.7160
 1831.5000   -45.0400    10.3120     7.9180    13.4180     8.0600     2.4610    -0.0050   123.3320
 1832.0000   -45.0400    10.3550     7.9350    13.3460     8.0600     2.4670    -0.0030   125.3400
 1832.5000   -45.0630    10.4410     7.9510    13.2740     8.0600     2.4680    -0.0020   125.2880
 1833.0000   -45.0940    10.5270     7.9680    13.2020     8.0600     2.4620    -0.0010   123.5420
 1833.5000   -45.1240    10.6120     7.9840    13.0820     8.0600     2.4680     0.0000   122.0480
 1834.0000   -45.1540    10.6980     8.0010    13.1990     8.0600     2.4700     0.0020   120.4180
 1834.5000   -45.1840    10.7840     8.0170    13.5560     8.0600     2.4640     0.0030   118.9340
 1835.0000   -45.2140    10.8770     8.0340    14.0840     8.0600     2.4590     0.0040   117.4320
 1835.5000   -45.2440    10.7870     8.0510    14.0160     8.0600     2.4530     0.0060   119.4190
 1836.0000   -45.2740    10.6880     8.0670    13.8850     8.0600     2.4520     0.0070   121.8920
 1836.5000   -45.3040    10.5900     8.0860    13.7530     8.0600     2.4610     0.0080   124.3470
 1837.0000   -45.3340    10.4800     8.0910    13.6220     8.0600     2.4690     0.0100   127.3570
 1837.5000   -45.3640    10.4850     8.0730    13.4900     8.0600     2.4780     0.0110   125.8980
 1838.0000   -45.3930    10.4840     8.0570    13.3590     8.0600     2.4860     0.0120   124.2030
 1838.5000   -45.4280    10.4830     8.0400    13.2280     8.0600     2.4940     0.0130   122.2220
 1839.0000   -45.4100    10.4830     8.0230    13.0820     8.0600     2.4930     0.0150   120.5160
 1839.5000   -45.3540    10.4830     8.0070    13.1480     8.0600     2.4920     0.0160   119.0770
 1840.0000   -45.3040    10.4830     7.9900    13.2840     8.0600     2.4950     0.0170   122.8540
 1840.5000   -45.2540    10.4830     7.9730    13.4200     8.0600     2.5020     0.0190   124.0720
 1841.0000   -45.2020    10.4830     7.9560    13.5740     8.0600     2.5060     0.0180   122.9910
 1841.5000   -45.1520    10.4830     7.9470    13.4550     8.0600     2.5040     0.0170   122.0770
 1842.0000   -45.1010    10.4830     7.9480    13.3190     8.0600     2.5030     0.0160   121.1460
 1842.5000   -45.0500    10.4830     7.9480    13.1150     8.0600     2.4970     0.0150   120.1890
 1843.0000   -44.9990    10.4830     7.9470    13.1270     8.0600     2.4920     0.0130   119.2990
 1843.5000   -44.9480    10.4820     7.9480    13.3020     8.0600     2.4860     0.0120   118.2520
 1844.0000   -44.8970    10.4830     7.9490    13.4770     8.0600     2.4820     0.0120   118.6530
 1844.5000   -44.8460    10.4820     7.9970    13.6150     8.0600     2.4850     0.0140   119.9280
 1845.0000   -44.7960    10.4830     8.0570    13.7080     8.0600     2.4850     0.0160   121.1070
 1845.5000   -44.7440    10.4830     8.1160    13.8010     8.0600     2.4830     0.0180   122.2010
 1846.0000   -44.6940    10.5750     8.1750    13.8940     8.0600     2.4830     0.0200   123.5030
 1846.5000   -44.6460    10.6640     8.2340    13.9870     8.0600     2.4860     0.0220   123.5860
 1847.0000   -44.6430    10.7540     8.2930    14.0790     8.0600     2.4890     0.0220   123.6160
 1847.5000   -44.6420    10.8430     8.3530    14.1720     8.0600     2.4920     0.0190   123.5950
 1848.0000   -44.6430    11.0030     8.4120    14.2650     8.0600     2.4880     0.0170   123.5840
 1848.5000   -44.6430    11.2080     8.4710    14.3580     8.0600     2.4860     0.0150   123.8470
 1849.0000   -44.6430    11.4120     8.5300    14.4510     8.0600     2.4760     0.0130   124.5690
 1849.5000   -44.6430    11.6170     8.5890    14.5440     8.0600     2.4630     0.0100   125.1650
 1850.0000   -44.6430    11.8210     8.6480    14.6370     8.0600     2.4490     0.0080   125.9120
 1850.5000   -44.6430    12.0260     8.7080    14.7300     8.0600     2.4470     0.0060   124.9030
 1851.0000   -44.6440    12.2300     8.7670    14.8230     8.0600     2.4460     0.0030   123.4810
 1851.5000   -44.6340    12.4340     8.8260    14.9160     8.0600     2.4470     0.0030   122.1290
 1852.0000   -44.6080    12.6080     8.8850    15.0090     8.0600     2.4490     0.0040   120.7430
 1852.5000   -44.5830    12.5090     8.9440    15.1010     8.0600     2.4510     0.0040   122.1720
 1853.0000   -44.5570    12.4240     9.0440    15.1940     8.0600     2.4530     0.0050   124.4140
 1853.5000   -44.5320    12.3390     9.0180    15.2870     8.0600     2.4520     0.0050   126.6630
 1854.0000   -44.5060    12.2530     8.9370    15.4460     8.0600     2.4490     0.0050   126.1860
 1854.5000   -44.4810    12.1680     8.8560    15.3550     8.0600     2.4450     0.0060   125.7180
 1855.0000   -44.4550    12.0830     8.7750    15.0470     8.0600     2.4410     0.0060   125.3600
 1855.5000   -44.4300    11.9980     8.6710    14.7380     8.0600     2.4440     0.0070   127.1460
 1856.0000   -44.4040    11.9120     8.5050    14.4300     8.0600     2.4550     0.0070   128.7340
 1856.5000   -44.3790    11.8270     8.3400    14.1220     8.0600     2.4660     0.0070   128.5130
 1857.0000   -44.3530    11.7100     8.2340    13.8140     8.0600     2.4620     0.0080   127.3790
 1857.5000   -44.3280    11.7440     8.2050    13.3250     8.0600     2.4700     0.0080   127.3070
 1858.0000   -44.3030    11.7980     8.1760    13.8560     8.0600     2.4670     0.0090   129.4890
 1858.5000   -44.2770    11.8520     8.1480    14.8860     8.0600     2.4620     0.0090   126.9900
 1859.0000   -44.2520    11.9060     8.1190    15.1630     8.0560     2.4600     0.0100   122.2080
 1859.5000   -44.2260    11.9770     8.0960    14.9720     8.0470     2.4690     0.0100   118.4970
 1860.0000   -44.2010    12.0610     8.2080    14.7780     8.0380     2.4870     0.0110   116.6730
 1860.5000   -44.1750    12.1450     8.3540    14.6140     8.0290     2.5030     0.0110   118.0630
 1861.0000   -44.1500    12.2290     8.5010    15.0190     8.0210     2.4980     0.0100   119.3950
 1861.5000   -44.1240    12.3120     8.6470    15.3710     8.0120     2.4900     0.0090   120.9290
 1862.0000   -44.0990    12.3960     8.7940    15.7230     8.0030     2.4810     0.0080   122.3030
 1862.5000   -44.0730    12.4800     8.9400    16.0750     7.9950     2.4730     0.0080   123.7990
 1863.0000   -44.0480    12.6080     9.0710    16.3160     7.9860     2.4650     0.0070   125.1650
 1863.5000   -44.0220    12.5600     9.1640    16.2850     7.9810     2.4570     0.0060   126.6670
 1864.0000   -43.9970    12.4620     9.2570    16.2550     7.9840     2.4480     0.0050   126.2020
 1864.5000   -43.9720    12.3640     9.3840    16.2240     7.9870     2.4440     0.0040   125.5040
 1865.0000   -43.9460    12.2660     9.3670    16.1930     7.9900     2.4480     0.0030   125.9800
 1865.5000   -43.9210    12.1680     9.3420    16.1620     7.9930     2.4510     0.0020   128.2340
 1866.0000   -43.8950    12.0700     9.3160    16.1320     7.9960     2.4490     0.0010   127.2260
 1866.5000   -43.8700    11.9720     9.2910    16.1010     7.9990     2.4450     0.0010   125.9040
 1867.0000   -43.8530    11.8740     9.2650    16.0700     8.0020     2.4400     0.0000   124.7500
 1867.5000   -43.8890    11.7760     9.2400    16.0400     8.0050     2.4390    -0.0010   123.8980
 1868.0000   -43.9200    11.6780     9.2140    15.8240     8.0080     2.4440    -0.0020   123.0450
 1868.5000   -43.9540    11.5800     9.1890    15.4720     8.0120     2.4450    -0.0030   122.0700
 1869.0000   -43.9860    11.4960     9.1640    14.8860     8.0150     2.4410    -0.0040   122.2670
 1869.5000   -44.0190    11.8890     9.1380    15.0190     8.0180     2.4380    -0.0050   122.5050
 1870.0000   -44.0520    12.2320     9.1130    15.4140     8.0210     2.4340    -0.0050   122.7000
