~VERSION INFORMATION
 VERS.                2.0:   CWLS LOG ASCII STANDARD - VERSION 2.0
 WRAP.                 NO:   ONE LINE PER DEPTH STEP
~WELL INFORMATION
#MNEM.UNIT      DATA TYPE    INFORMATION
#----------   ------------   ------------------------------
 STRT.F          198.0000:   START DEPTH
 STOP.F         3034.0000:   STOP DEPTH
 STEP.F            0.5000:   STEP LENGTH
 NULL.          -999.2500:   NO VALUE
 COMP.    FENIX & SCISSON:   COMPANY
 WELL.   FENIX "A" #44-29:   WELL
 FLD .              NPR-3:   FIELD
 LOC .      S29 T39N R78W:   LOCATION
 CNTY.            NATRONA:   COUNTY
 STAT.            WYOMING:   STATE
 CTRY. UNITED STATES OF AMERICA:   COUNTRY
 SRVC.              WELEX:   SERVICE COMPANY
 DATE.        26-MAY-1977:   LOGDATE
 API .     49025103690000:   API NUMBER
~CURVE INFORMATION
#MNEM.UNIT       API CODE    CURVE DESCRIPTION
#----------   ------------   ------------------------------
 DEPT.F                  :   
 SPR .MV     07 010 01 00:   SPONTANEOUS POTENTIAL
 ILD .OHMM   07 120 46 00:   DEEP INDUCTION RESISTIVITY
 ILM .OHMM   07 120 44 00:   INDUCTION LOG MEDIUM RESISTIVITY
 SGRD.OHMM   07 220 05 00:   SHALLOW SHORT GUARD RESISTIVITY
 CALD.IN     45 280 60 00:   CALIPER FROM DENSITY LOG
 GRD .GAPI   45 310 01 00:   GAMMA RAY FROM DENSITY LOG
 RHOB.G/C3   45 350 01 00:   BULK DENSITY
 CORR.G/C3   45 356 01 00:   DENSITY CORRECTION
~PARAMETER INFORMATION
#MNEM.UNIT          VALUE    DESCRIPTION
#----------   ------------   ------------------------------
 EKB .F         5010.0000:   Kelly bushing
 EGL .F         5000.0000:   Ground level
 EDF .F            0.0000:   Drilling floor
 TD  .F         3036.0000:   Total depth
 DATE.        26-MAY-1977:   Date logged
 CLNT.            A2DTECH:   Client Code
 SL  . 2310' FNL & 2310' FWL:   Surface Location
 PD  .                 GL:   Permanent Datum
 EPD .F              5000:   Elevation Permanent Datum
 LMF .                 KB:   Log Measured From
 DMF .                 KB:   Drilling Measured From
 DD  .F              3035:   Depth driller
 DL  .F              3036:   Depth logger
 BLI .F              3034:   Bottom log interval
 TLI .F               210:   Top log interval
 CS1 .IN            8.625:   Casing size
 CBD1.      8.625" @ 245':   Casing driller 1
 CBL1.F               220:   Casing logger 1
 BS1 .IN            7.875:   Bit size
 BSD1.F              3035:   Depth drilled with bit1
 DFT .            KCL MUD:   Type fluid in hole
 DFD .                8.8:   Density
 DFV .                 34:   Viscosity
 DFPH.                7.5:   pH
 DFL .                6.6:   Fluid loss
 MSS .           FLOWLINE:   Source of sample
 RMS .OHMM           0.20:   Rm
 MST .F                89:   Rm Meas. temp.
 RMF .OHMM           0.17:   Rmf
 MFST.F                89:   Rmf Meas. temp.
 RMC .OHMM           0.30:   Rmc
 MCST.F                89:   Rmc Meas. temp.
 MFSS.               FANN:   Source Rmf.
 MCSS.                KIT:   Source Rmc.
 RMB .OHMM           0.16:   Rm. at BHT
 BHT .F               110:   BHT.
 TCS .HRS             2.5:   Time Circ. stopped
 MRT .F               110:   Maximum recorded temp.
 LUN .               8611:   Logging unit number
 LUL .             CASPER:   Logging unit location
 ENGI.            C. DOAK:   Recorded By
 WITN.      B. HARRINGTON:   Witnessed by
 ORIG.           5" PRINT:   Origin of data
 UWI .     49025103690000:   Unique Well ID
 DICO. A2D TECHNOLOGIES, INC.:   Digitizing Company
~OTHER INFORMATION
~A   DEPT      SPR        ILD        ILM       SGRD       CALD         GRD      RHOB       CORR   
# ...
 1494.0000   -33.8870     6.8170     8.9040    12.5110     8.8060   115.2240     2.4960     0.0190
 1494.5000   -33.8870     6.8610     9.0670    12.6370     8.7980   117.4200     2.4950     0.0190
 1495.0000   -33.8870     6.8930     8.9960    12.6370     8.7900   116.4870     2.4950     0.0180
 1495.5000   -33.8870     6.8480     8.9010    12.8710     8.7810   112.9760     2.4940     0.0190
 1496.0000   -33.8870     6.8060     8.7870    11.3180     8.7730   114.0830     2.4940     0.0220
 1496.5000   -33.8870     6.7680     8.6280    13.3520     8.7640   118.1710     2.4940     0.0240
 1497.0000   -33.8870     6.6740     8.5140    12.7960     8.7560   121.8350     2.4950     0.0270
 1497.5000   -33.8870     6.5880     7.9110    11.6530     8.7610   121.0170     2.4960     0.0290
 1498.0000   -33.8870     6.5020     8.3590    11.5280     8.7790   117.1520     2.4970     0.0320
 1498.5000   -33.8870     6.4160     8.2100    11.0110     8.8000   117.1950     2.4940     0.0330
 1499.0000   -33.8870     6.3290     7.9080    11.3180     8.8320   122.6760     2.4860     0.0280
 1499.5000   -33.8870     6.2430     7.6960    11.4220     8.8630   126.8920     2.4800     0.0240
 1500.0000   -33.8870     6.1570     7.6960     9.7720     8.8940   127.4320     2.4750     0.0190
 1500.5000   -33.8870     6.0710     7.6960    10.3250     8.9250   123.3920     2.4700     0.0160
 1501.0000   -33.8870     6.0620     7.7310    10.2310     8.9190   119.4180     2.4650     0.0140
 1501.5000   -33.8870     6.0940     7.7670    10.8100     8.9080   111.6320     2.4600     0.0120
 1502.0000   -33.8870     6.1300     7.7430    10.6130     8.8980   111.6630     2.4640     0.0150
 1502.5000   -33.8870     6.1660     7.6960    10.2310     8.8890   113.0110     2.4690     0.0190
 1503.0000   -33.8870     6.2030     7.6960    10.5010     8.8890   112.6570     2.4740     0.0220
 1503.5000   -33.8870     6.2390     7.7460    11.1660     8.8970   111.5620     2.4790     0.0250
 1504.0000   -33.8870     6.2750     7.8200    11.5280     8.9090   110.4420     2.4850     0.0290
 1504.5000   -33.8870     6.3120     7.8950    11.0520     8.9200   110.5080     2.4890     0.0280
 1505.0000   -33.8870     6.3460     7.9700    10.8100     8.9300   112.0000     2.4800     0.0260
 1505.5000   -33.8870     6.2880     8.0440    11.1230     8.9360   114.6640     2.4690     0.0230
 1506.0000   -33.8870     6.4050     8.1190    11.4950     8.9420   117.2920     2.4580     0.0210
 1506.5000   -33.8870     6.4860     8.1650    11.6340     8.9480   118.4160     2.4550     0.0180
 1507.0000   -33.8870     6.5680     8.2060    11.3690     8.9380   115.6820     2.4620     0.0210
 1507.5000   -33.9070     6.6490     8.2460    11.1120     8.9240   112.9830     2.4700     0.0240
 1508.0000   -33.9550     6.7300     8.2860    11.2150     8.9100   112.2500     2.4760     0.0270
 1508.5000   -34.0040     6.8110     8.3270    11.9590     8.8960   113.1570     2.4820     0.0310
 1509.0000   -34.0520     6.8930     8.3590    12.1570     8.8820   113.2790     2.4840     0.0340
 1509.5000   -34.1010     6.8930     8.6450    12.9890     8.8680   110.5160     2.4910     0.0370
 1510.0000   -34.1490     6.8550     8.9330    11.6340     8.8530   107.7460     2.5000     0.0400
 1510.5000   -34.1980     6.8160     8.9960    12.4070     8.8500   107.1980     2.5130     0.0450
 1511.0000   -34.2460     6.7770     8.6820    12.3770     8.8500   107.7590     2.5260     0.0500
 1511.5000   -34.2950     6.6950     8.3600    12.2930     8.8500   108.1980     2.5380     0.0540
 1512.0000   -34.3440     6.5990     8.2830    11.4670     8.8520   107.5680     2.5500     0.0590
 1512.5000   -34.3920     6.5040     8.2830    10.8100     8.8650   107.2570     2.5490     0.0620
 1513.0000   -34.4400     6.4090     8.2070    10.8100     8.8780   107.8960     2.5510     0.0600
 1513.5000   -34.4700     6.3140     8.1130    11.0750     8.8910   108.4990     2.5570     0.0580
 1514.0000   -34.4590     6.2230     7.8370    11.3180     8.9040   109.1360     2.5500     0.0520
 1514.5000   -34.4490     6.1680     7.5610    10.5160     8.9170   110.8680     2.5350     0.0450
 1515.0000   -34.4380     6.1120     7.2840    10.4200     8.9290   112.5620     2.5200     0.0360
 1515.5000   -34.4280     6.0570     7.1510    10.7170     8.9370   114.0660     2.5060     0.0260
 1516.0000   -34.4180     6.0010     7.1900    10.8100     8.9440   114.4130     2.4980     0.0280
 1516.5000   -34.4080     5.9520     7.2450     9.6820     8.9520   113.3420     2.5010     0.0300
 1517.0000   -34.3970     5.9570     7.3140     9.9500     8.9600   114.0770     2.5050     0.0320
 1517.5000   -34.3870     5.9620     7.4170    10.5470     8.9670   115.5890     2.5080     0.0340
 1518.0000   -34.3770     5.9660     7.5190    10.6130     8.9580   116.1710     2.5080     0.0320
 1518.5000   -34.3660     5.9710     7.6220    10.3740     8.9460   113.9690     2.5010     0.0290
 1519.0000   -34.3560     5.9760     7.6960    10.1640     8.9340   111.8810     2.4950     0.0270
 1519.5000   -34.3460     5.9810     7.4870    10.0440     8.9220   111.8610     2.4890     0.0250
 1520.0000   -34.3360     5.9860     7.6570    10.2580     8.9090   113.7830     2.4840     0.0230
 1520.5000   -34.3250     5.9910     7.7670    10.7180     8.8950   114.3600     2.4810     0.0200
 1521.0000   -34.3150     5.9960     7.7670    11.1790     8.8820   112.7780     2.4770     0.0180
 1521.5000   -34.3050     6.0000     7.7260    11.5280     8.8720   111.3340     2.4800     0.0210
 1522.0000   -34.2950     6.0050     7.6620    10.9660     8.8860   113.4570     2.4850     0.0250
 1522.5000   -34.2840     6.0060     7.6260     9.9530     8.9000   116.1150     2.4910     0.0280
 1523.0000   -34.2740     6.0060     7.5560     9.8620     8.9140   117.4130     2.4960     0.0320
 1523.5000   -34.2640     6.0060     7.7000    10.3510     8.9290   117.9860     2.4960     0.0330
 1524.0000   -34.2530     6.0060     7.7670    10.8290     8.9370   117.2830     2.4910     0.0320
 1524.5000   -34.2430     6.0060     7.7030    11.1120     8.9450   115.7630     2.4920     0.0300
 1525.0000   -34.2330     6.0060     7.6400    10.8650     8.9540   114.2040     2.4940     0.0290
 1525.5000   -34.2230     6.0060     7.5770    10.0440     8.9620   113.8210     2.4960     0.0270
 1526.0000   -34.2120     6.0060     7.4870    10.6130     8.9680   114.6050     2.4930     0.0260
 1526.5000   -34.2020     6.0060     7.5090    10.5560     8.9650   118.1980     2.4900     0.0270
 1527.0000   -34.1920     6.0060     7.5480    10.4070     8.9620   122.3900     2.4880     0.0280
 1527.5000   -34.1820     6.0060     7.5710    10.2590     8.9590   122.4470     2.4870     0.0300
 1528.0000   -34.1710     6.0060     7.6090    10.1100     8.9560   118.8120     2.4940     0.0310
 1528.5000   -34.1610     6.0060     7.6480    10.0440     8.9530   117.7610     2.5010     0.0330
 1529.0000   -34.1510     6.0060     7.6960    10.3410     8.9500   115.5590     2.4950     0.0340
 1529.5000   -34.1400     6.0060     7.5400    10.8740     8.9450   110.4890     2.4880     0.0360
 1530.0000   -34.1300     6.0060     7.3310    11.0110     8.9360   108.7320     2.4880     0.0370
 1530.5000   -34.1200     6.0060     7.1510    10.2870     8.9260   110.5080     2.4900     0.0380
 1531.0000   -34.1100     6.0060     7.1510     9.8620     8.9170   112.2480     2.4890     0.0400
 1531.5000   -34.0990     6.0060     7.1800    10.2310     8.9080   113.0600     2.4860     0.0410
 1532.0000   -34.0890     6.0060     7.2710    10.0250     8.8990   113.1830     2.4940     0.0430
 1532.5000   -34.0870     6.0060     7.3650     9.7720     8.8900   113.3130     2.5010     0.0430
 1533.0000   -34.1040     6.0090     7.4910     9.7720     8.8920   113.6570     2.4950     0.0400
 1533.5000   -34.1210     6.0400     7.6180    11.8500     8.8950   115.0950     2.4830     0.0370
 1534.0000   -34.1370     6.0710     7.7450    11.3540     8.8980   116.5240     2.4710     0.0340
