~VERSION INFORMATION
 VERS.                2.0:   CWLS LOG ASCII STANDARD - VERSION 2.0
 WRAP.                 NO:   ONE LINE PER DEPTH STEP
~WELL INFORMATION
#MNEM.UNIT      DATA TYPE    INFORMATION
#----------   ------------   ------------------------------
 STRT.F          210.0000:   START DEPTH
 STOP.F         2955.0000:   STOP DEPTH
 STEP.F            0.5000:   STEP LENGTH
 NULL.          -999.2500:   NO VALUE
 COMP.    FENIX & SCISSON:   COMPANY
 WELL.     FENIX A #54-28:   WELL
 FLD .                NPR:   FIELD
 LOC .      S28 T39N R78W:   LOCATION
 CNTY.            NATRONA:   COUNTY
 STAT.            WYOMING:   STATE
 CTRY. UNITED STATES OF AMERICA:   COUNTRY
 SRVC.              WELEX:   SERVICE COMPANY
 DATE.        17-MAY-1977:   LOGDATE
 API .     49025103650000:   API NUMBER
~CURVE INFORMATION
#MNEM.UNIT       API CODE    CURVE DESCRIPTION
#----------   ------------   ------------------------------
 DEPT.F                  :   
 SPR .MV     07 010 01 00:   SPONTANEOUS POTENTIAL
 RILM.OHMM   07 120 44 00:   INDUCTION LOG MEDIUM RESISTIVITY
 RILD.OHMM   07 120 46 00:   INDUCTION LOG DEEP RESISTIVITY
 SGRD.OHMM   07 220 05 00:   SHALLOW GUARD LOG RESISTIVITY
 CALD.IN     45 280 60 00:   CALIPER FROM DENSITY LOG
 RHOB.G/C3   45 350 01 00:   BULK DENSITY
 DCOR.G/C3   45 356 01 00:   DENSITY CORRECTION
 GRD .GAPI   45 310 01 00:   GAMMA RAY FROM DENSITY LOG
~PARAMETER INFORMATION
#MNEM.UNIT          VALUE    DESCRIPTION
#----------   ------------   ------------------------------
 EKB .F         5045.0000:   Kelly bushing
 EGL .F         5035.0000:   Ground level
 EDF .F            0.0000:   Drilling floor
 EPD .F         5035.0000:   Permanent datum
 TD  .F         2956.0000:   Total depth
 DATE.        17-MAY-1977:   Date logged
 CLNT.            A2DTECH:   Client Code
 SL  . 2310' FNL & 2310' FEL:   Surface Location
 PD  .                 GL:   Permanent Datum
 LMF .                 KB:   Log Measured From
 DMF .                 KB:   Drilling Measured From
 DAPD.F                10:   Feet Above Permanent Datum
 DD  .F              2947:   Depth driller
 DL  .F              2956:   Depth logger
 BLI .F              2954:   Bottom log interval
 TLI .F               210:   Top log interval
 CS1 .IN            8.625:   Casing size
 CBD1.      8.625" @ 200':   Casing driller 1
 CBL1.F               216:   Casing logger 1
 BS1 .IN            7.875:   Bit size
 BSD1.F              2947:   Depth drilled with bit1
 DFT .            KCL MUD:   Type fluid in hole
 DFD .                  9:   Density
 DFV .                 32:   Viscosity
 DFPH.                7.5:   pH
 DFL .                5.3:   Fluid loss
 MSS .           FLOWLINE:   Source of sample
 RMS .OHMM            .18:   Rm
 MST .F                84:   Rm Meas. temp.
 RMF .OHMM            .16:   Rmf
 MFST.F                84:   Rmf Meas. temp.
 RMC .OHMM            .62:   Rmc
 MCST.F                84:   Rmc Meas. temp.
 RMB .OHMM            .12:   Rm. at BHT
 BHT .F               124:   BHT.
 TCS .HRS               2:   Time Circ. stopped
 MRT .F               124:   Maximum recorded temp.
 LUN .               9685:   Logging unit number
 LUL .           BRIGHTON:   Logging unit location
 ENGI.           T JOYNER:   Recorded By
 WITN.      W. PETTINGILL:   Witnessed by
 ORIG.           5" PRINT:   Origin of data
 UWI .     49025103650000:   Unique Well ID
 DICO. A2D TECHNOLOGIES, INC.:   Digitizing Company
~OTHER INFORMATION
~A   DEPT      SPR       RILM        RILD        SGRD       CALD       RHOB      DCOR        GRD  
# ...
  574.5000   -46.9750    11.7610    10.3760    12.7100     8.4030     2.4820    -0.0080    91.2360
  575.0000   -46.9300    11.7020    10.3580    12.6970     8.4060     2.4800    -0.0060    90.4260
  575.5000   -46.8820    11.6430    10.3400    12.6840     8.4080     2.4780    -0.0050    89.7020
  576.0000   -46.8360    11.5840    10.3220    12.6720     8.4110     2.4690    -0.0030    88.9610
  576.5000   -46.7890    11.5250    10.3030    12.6590     8.4130     2.4570    -0.0020    88.6510
  577.0000   -46.7430    11.4660    10.2870    12.6460     8.4160     2.4450     0.0010    89.7170
  577.5000   -46.6960    11.4070    10.1720    12.6340     8.4190     2.4340     0.0070    90.7600
  578.0000   -46.6490    11.3480    10.0760    12.6200     8.4200     2.4290     0.0130    91.8390
  578.5000   -46.6030    11.2860     9.9770    12.6060     8.4200     2.4220     0.0190    92.9090
  579.0000   -46.5560    11.5670     9.8780    12.5230     8.4200     2.4120     0.0250    94.0000
  579.5000   -46.5090    11.8650     9.7790    12.4350     8.4200     2.3980     0.0310    94.7130
  580.0000   -46.4630    12.1630     9.6800    12.3470     8.4200     2.3850     0.0360    94.3970
  580.5000   -46.4160    12.4610     9.5800    12.2580     8.4200     2.3690     0.0430    94.1350
  581.0000   -46.3700    12.6080     9.4810    12.1690     8.4200     2.3560     0.0450    93.7680
  581.5000   -46.3210    12.0040     9.3820    12.0800     8.4190     2.3310     0.0470    93.5130
  582.0000   -46.2770    11.2860     9.2340    11.9920     8.4300     2.2990     0.0480    93.3380
  582.5000   -46.2370    12.2960     9.3840    11.9370     8.4530     2.2690     0.0510    94.9470
  583.0000   -46.3110    13.7700     9.4560    11.9680     8.4760     2.2400     0.0480    96.7150
  583.5000   -46.3850    15.4460     9.5390    11.9980     8.4990     2.2040     0.0400    96.3470
  584.0000   -46.4650    14.4680     9.6220    12.0290     8.5220     2.1650     0.0330    94.5890
  584.5000   -46.5410    13.3350     9.7050    12.0590     8.5440     2.1170     0.0250    93.0770
  585.0000   -46.6190    12.2020     9.7880    12.0900     8.5670     2.1290     0.0170    91.5860
  585.5000   -46.6960    10.8770     9.8710    12.1210     8.5900     2.1560     0.0200    89.8510
  586.0000   -46.7730    11.0160     9.9180    12.1450     8.6140     2.2280     0.0300    89.8250
  586.5000   -46.8510    11.7310     9.8480    12.2230     8.6130     2.2850     0.0390    91.3410
  587.0000   -46.9280    12.7800     9.7790    12.3520     8.6000     2.2850     0.0430    92.9010
  587.5000   -47.0060    13.8290     9.7110    12.4790     8.5890     2.2760     0.0410    94.3060
  588.0000   -47.0830    14.8860     9.6420    12.6110     8.5770     2.2860     0.0390    94.9120
  588.5000   -47.1600    12.8010     9.5730    12.6050     8.5660     2.2890     0.0370    92.2460
  589.0000   -47.2380    11.4960     9.6750    12.6080     8.5540     2.2920     0.0350    93.4770
  589.5000   -47.3150    14.0840     9.8230    12.6080     8.5420     2.3010     0.0330    92.9450
  590.0000   -47.3920    13.8280     9.9720    12.7150     8.5310     2.3130     0.0320    91.2100
  590.5000   -47.4400    13.1220    10.1210    12.8560     8.5190     2.3250     0.0310    91.4770
  591.0000   -47.4720    12.3770    10.2690    12.9970     8.5070     2.3410     0.0300    92.6400
  591.5000   -47.5030    12.5790    10.4180    13.1380     8.4990     2.3630     0.0280    92.7530
  592.0000   -47.5340    12.7920    10.5660    13.2790     8.5000     2.3470     0.0260    91.0600
  592.5000   -47.5650    13.0060    10.7150    13.4200     8.5000     2.3280     0.0170    89.5410
  593.0000   -47.5960    13.3250    10.8770    13.5740     8.5000     2.3160     0.0080    87.9290
  593.5000   -47.6270    12.8170    10.8770    13.5740     8.5000     2.3110    -0.0010    86.3920
  594.0000   -47.6580    11.7100    10.8770    13.5740     8.5000     2.3230    -0.0040    84.8320
  594.5000   -47.6900    12.1120    10.8770    13.5740     8.5000     2.3540    -0.0020    85.5440
  595.0000   -47.7210    12.9290    10.8770    13.5740     8.5000     2.3820    -0.0010    87.1870
  595.5000   -47.7520    13.7470    10.8770    13.5740     8.5000     2.3870     0.0010    87.3530
  596.0000   -47.7830    14.2420    10.9470    13.6890     8.4980     2.3810     0.0030    86.9130
  596.5000   -47.8140    13.8500    11.0530    13.8610     8.4700     2.3830     0.0020    87.9660
  597.0000   -47.8450    13.4580    11.1580    14.0330     8.4460     2.3950     0.0010    89.5690
  597.5000   -47.8760    13.0820    11.2630    14.2050     8.4210     2.4070     0.0000    91.1470
  598.0000   -47.9080    13.6030    11.3680    14.3760     8.3940     2.4190    -0.0010    92.3530
  598.5000   -47.9390    15.8320    11.4740    14.5480     8.3800     2.4250    -0.0020    92.3990
  599.0000   -47.9700    17.2540    11.5790    14.7200     8.3860     2.4220    -0.0030    92.4900
  599.5000   -48.0010    17.1200    11.6840    14.8920     8.3890     2.4200    -0.0050    95.1690
  600.0000   -48.0320    16.9560    11.7900    15.0640     8.3930     2.4230    -0.0010    97.8190
  600.5000   -48.0630    16.7910    11.8950    15.2360     8.3970     2.4430     0.0080    96.4920
  601.0000   -48.0940    16.6260    12.0000    15.4080     8.4000     2.4640     0.0160    95.6370
  601.5000   -48.1270    16.4620    12.1510    15.4460     8.4040     2.4970     0.0250    95.2920
  602.0000   -48.1550    16.3250    12.0730    15.3840     8.4080     2.5090     0.0310    95.0520
  602.5000   -48.1890    15.7230    11.9380    15.2780     8.4120     2.4930     0.0340    94.8040
  603.0000   -48.2240    14.9380    11.8030    15.1710     8.4150     2.4800     0.0360    94.5660
  603.5000   -48.3590    14.1530    11.6670    15.0640     8.4190     2.4630     0.0380    94.2880
  604.0000   -48.4770    12.8420    11.5320    14.9570     8.4230     2.4430     0.0390    94.0510
  604.5000   -48.6030    13.0400    11.3970    14.8860     8.4270     2.4230     0.0330    93.0150
  605.0000   -48.7250    13.7590    11.2620    14.8610     8.4300     2.4000     0.0270    91.5500
  605.5000   -48.8480    14.5850    11.1260    14.8340     8.4340     2.3850     0.0170    90.8950
  606.0000   -48.9720    15.4120    10.9910    14.8070     8.4380     2.3780     0.0030    91.5090
  606.5000   -49.0940    16.3250    10.8560    14.7800     8.4420     2.3840    -0.0110    91.9690
  607.0000   -49.2150    15.5250    10.6780    14.7530     8.4460     2.3940    -0.0210    92.4680
  607.5000   -49.3470    14.6310    10.7230    14.7260     8.4490     2.4050    -0.0230    92.9760
  608.0000   -49.3910    13.7380    10.7880    14.6990     8.4530     2.4220    -0.0240    93.4640
  608.5000   -49.3390    13.0820    10.8540    14.6720     8.4560     2.4470    -0.0260    93.9680
  609.0000   -49.2990    13.5110    10.9190    14.6450     8.4570     2.4710    -0.0270    94.4640
  609.5000   -49.2560    14.3460    10.9850    14.6140     8.4240     2.4850    -0.0290    94.9520
  610.0000   -49.2130    14.2030    11.0510    14.7720     8.3940     2.4840    -0.0300    95.4820
  610.5000   -49.1700    13.8260    11.1160    14.9600     8.3610     2.4840    -0.0310    95.2800
  611.0000   -49.1280    13.8260    11.1820    15.1480     8.3300     2.4840    -0.0330    94.1950
  611.5000   -49.0840    14.0910    11.2470    15.4460     8.2990     2.4840    -0.0330    93.1660
  612.0000   -49.0420    14.3460    11.2860    15.2260     8.2680     2.4870    -0.0330    92.0950
  612.5000   -49.0140    14.0570    11.2860    14.6930     8.2340     2.4940    -0.0330    91.0440
  613.0000   -49.0720    13.5740    11.2860    14.1600     8.2210     2.4940    -0.0330    90.0270
  613.5000   -49.1210    12.3060    11.2860    13.6270     8.2270     2.4900    -0.0330    88.8280
  614.0000   -49.1740    11.0290    11.2860    13.0820     8.2300     2.4860    -0.0330    89.0960
  614.5000   -49.2250    10.4150    10.9730    12.9740     8.2340     2.4890    -0.0340    90.9360
