~VERSION INFORMATION
 VERS.                2.0:   CWLS LOG ASCII STANDARD - VERSION 2.0
 WRAP.                 NO:   ONE LINE PER DEPTH STEP
~WELL INFORMATION
#MNEM.UNIT      DATA TYPE    INFORMATION
#----------   ------------   ------------------------------
 STRT.F          210.0000:   START DEPTH
 STOP.F         2955.0000:   STOP DEPTH
 STEP.F            0.5000:   STEP LENGTH
 NULL.          -999.2500:   NO VALUE
 COMP.    FENIX & SCISSON:   COMPANY
 WELL.     FENIX A #54-28:   WELL
 FLD .                NPR:   FIELD
 LOC .      S28 T39N R78W:   LOCATION
 CNTY.            NATRONA:   COUNTY
 STAT.            WYOMING:   STATE
 CTRY. UNITED STATES OF AMERICA:   COUNTRY
 SRVC.              WELEX:   SERVICE COMPANY
 DATE.        17-MAY-1977:   LOGDATE
 API .     49025103650000:   API NUMBER
~CURVE INFORMATION
#MNEM.UNIT       API CODE    CURVE DESCRIPTION
#----------   ------------   ------------------------------
 DEPT.F                  :   
 SPR .MV     07 010 01 00:   SPONTANEOUS POTENTIAL
 RILM.OHMM   07 120 44 00:   INDUCTION LOG MEDIUM RESISTIVITY
 RILD.OHMM   07 120 46 00:   INDUCTION LOG DEEP RESISTIVITY
 SGRD.OHMM   07 220 05 00:   SHALLOW GUARD LOG RESISTIVITY
 CALD.IN     45 280 60 00:   CALIPER FROM DENSITY LOG
 RHOB.G/C3   45 350 01 00:   BULK DENSITY
 DCOR.G/C3   45 356 01 00:   DENSITY CORRECTION
 GRD .GAPI   45 310 01 00:   GAMMA RAY FROM DENSITY LOG
~PARAMETER INFORMATION
#MNEM.UNIT          VALUE    DESCRIPTION
#----------   ------------   ------------------------------
 EKB .F         5045.0000:   Kelly bushing
 EGL .F         5035.0000:   Ground level
 EDF .F            0.0000:   Drilling floor
 EPD .F         5035.0000:   Permanent datum
 TD  .F         2956.0000:   Total depth
 DATE.        17-MAY-1977:   Date logged
 CLNT.            A2DTECH:   Client Code
 SL  . 2310' FNL & 2310' FEL:   Surface Location
 PD  .                 GL:   Permanent Datum
 LMF .                 KB:   Log Measured From
 DMF .                 KB:   Drilling Measured From
 DAPD.F                10:   Feet Above Permanent Datum
 DD  .F              2947:   Depth driller
 DL  .F              2956:   Depth logger
 BLI .F              2954:   Bottom log interval
 TLI .F               210:   Top log interval
 CS1 .IN            8.625:   Casing size
 CBD1.      8.625" @ 200':   Casing driller 1
 CBL1.F               216:   Casing logger 1
 BS1 .IN            7.875:   Bit size
 BSD1.F              2947:   Depth drilled with bit1
 DFT .            KCL MUD:   Type fluid in hole
 DFD .                  9:   Density
 DFV .                 32:   Viscosity
 DFPH.                7.5:   pH
 DFL .                5.3:   Fluid loss
 MSS .           FLOWLINE:   Source of sample
 RMS .OHMM            .18:   Rm
 MST .F                84:   Rm Meas. temp.
 RMF .OHMM            .16:   Rmf
 MFST.F                84:   Rmf Meas. temp.
 RMC .OHMM            .62:   Rmc
 MCST.F                84:   Rmc Meas. temp.
 RMB .OHMM            .12:   Rm. at BHT
 BHT .F               124:   BHT.
 TCS .HRS               2:   Time Circ. stopped
 MRT .F               124:   Maximum recorded temp.
 LUN .               9685:   Logging unit number
 LUL .           BRIGHTON:   Logging unit location
 ENGI.           T JOYNER:   Recorded By
 WITN.      W. PETTINGILL:   Witnessed by
 ORIG.           5" PRINT:   Origin of data
 UWI .     49025103650000:   Unique Well ID
 DICO. A2D TECHNOLOGIES, INC.:   Digitizing Company
~OTHER INFORMATION
~A   DEPT      SPR       RILM        RILD        SGRD       CALD       RHOB      DCOR        GRD  
  210.0000  -999.2500  -999.2500    66.3850     0.2090     8.0600     2.0790    -0.4320    76.4000
  210.5000  -999.2500  -999.2500   190.1020     0.2090     8.0800     2.0870    -0.4000    77.1250
  211.0000  -999.2500  -999.2500  2000.0000     0.2090     8.1020     2.1020    -0.3390    78.5610
  211.5000  -999.2500  -999.2500  2000.0000     0.2090     8.1250     2.1270    -0.2770    79.9960
  212.0000  -999.2500  -999.2500  2000.0000     0.2090     8.1340     2.1610    -0.2150    80.8130
  212.5000  -999.2500  -999.2500  2000.0000     0.2090     8.1130     2.1950    -0.1680    81.3870
  213.0000  -999.2500  -999.2500  2000.0000     0.2090     8.0930     2.2290    -0.1350    82.0000
  213.5000  -999.2500  1935.2850  2000.0000     0.2120     8.0900     2.2450    -0.1200    83.0000
  214.0000  -999.2500  1617.5050  2000.0000     0.2090     8.0630     2.2630    -0.0890    85.5870
  214.5000  -999.2500   894.5240  1249.1689     1.4900     8.0790     2.2500    -0.0940    87.2120
  215.0000  -999.2500   339.0460   704.0710     3.2770     8.1360     2.2570    -0.0950    86.8720
  215.5000  -999.2500   116.1610   266.1670     5.9150     8.2770     2.3090    -0.0920    91.9920
  216.0000  -999.2500     3.1580     2.0280     6.1500     8.4160     2.3760    -0.0880    95.6980
  216.5000  -999.2500     3.4210     0.6110     6.4150     8.5580     2.4110    -0.0840    94.7760
  217.0000    -2.3260     4.3840     0.5050     6.6800     8.6830     2.4030    -0.0810    98.1530
  217.5000    -5.4120     5.1230     0.3640     6.9840     8.7710     2.3970    -0.0780    95.3190
  218.0000    -8.4990     5.1980     0.3090     7.1610     8.8600     2.3910    -0.0790    92.2870
  218.5000   -10.8440     5.6400     0.4490     7.3700     8.9460     2.3850    -0.0800    92.8810
  219.0000   -12.9170     6.0260     0.6700     7.5790     9.0370     2.3840    -0.0810    93.1600
  219.5000   -14.9910     6.4870     0.9340     7.9490     9.1210     2.3810    -0.0810    91.4060
  220.0000   -16.8650     7.2300     2.3880     8.4190     9.2110     2.3810    -0.0790    89.2500
  220.5000   -17.3630     8.1490     4.1870     8.8890     9.1550     2.3810    -0.0780    89.3890
  221.0000   -18.1760     8.7860     6.2520     9.3590     9.0870     2.4020    -0.0760    91.0510
  221.5000   -18.8700     8.9700     6.9430     9.7320     9.0130     2.4230    -0.0740    91.2340
  222.0000   -19.3910     9.1540     7.6480    10.0350     8.9440     2.4370    -0.0720    91.6790
  222.5000   -19.8410     9.3370     8.7160    10.2910     8.8720     2.4370    -0.0700    94.5530
  223.0000   -20.3030    11.4190     8.6490    10.3620     8.8010     2.4330    -0.0690    97.6350
  223.5000   -20.7620    14.7590     8.4560    10.4570     8.7400     2.4260    -0.0680   100.2710
  224.0000   -21.2230    14.4800     8.2460    10.3880     8.7180     2.4180    -0.0670    99.4720
  224.5000   -21.6110    13.9220     8.1330    10.2590     8.7020     2.4160    -0.0660    98.8300
  225.0000   -21.7910    13.3640     7.9470    10.1290     8.7190     2.4180    -0.0660    98.1260
  225.5000   -22.0500    13.0820     7.9840    10.0000     8.7340     2.4190    -0.0650    99.1200
  226.0000   -22.2910    13.0820     8.0580     9.8700     8.7510     2.4120    -0.0640   100.1840
  226.5000   -22.5360    12.0030     8.1320     9.7410     8.7670     2.4040    -0.0630    97.9570
  227.0000   -22.7830    10.7750     8.2460     9.6110     8.7830     2.3900    -0.0620    95.5440
  227.5000   -23.0310     9.5480     7.9860     9.4820     8.7990     2.3770    -0.0620    92.8970
  228.0000   -23.2130     8.3200     7.4120     9.3840     8.8150     2.3480    -0.0660    90.4540
  228.5000   -23.2100     6.4790     6.8560     8.7950     8.8310     2.3240    -0.0720    88.6800
  229.0000   -23.2120     6.8920     6.8560     8.0930     8.8470     2.2970    -0.0820    91.1710
  229.5000   -23.0790    10.2840     6.8560     7.1140     8.8600     2.2740    -0.0960    93.4570
  230.0000   -22.9230    13.6770     6.8560     8.4450     8.8600     2.2510    -0.1010    95.2100
  230.5000   -22.6230    15.7330     7.0270    10.6410     8.8600     2.2660    -0.0950    94.4480
  231.0000   -22.1270    11.1350     7.3820    12.8370     8.8600     2.3210    -0.0770    91.9270
  231.5000   -21.4920     9.6710     7.6890    14.3460     8.8600     2.4460    -0.0590    89.8330
  232.0000   -20.8020     9.3240     8.1420    14.1160     8.8600     2.4400    -0.0470    87.7480
  232.5000   -20.1130     9.2120     8.7430    13.7080     8.8620     2.4440    -0.0460    88.2070
  233.0000   -19.4230     9.7040     9.3430    13.3000     8.8720     2.4440    -0.0440    88.7610
  233.5000   -18.5230    10.2220     9.9440    12.8920     8.8820     2.4460    -0.0410    88.7930
  234.0000   -17.6770    10.6780    10.5450    12.4850     8.8910     2.4470    -0.0380    86.9770
  234.5000   -17.4370    11.5180    11.1460    12.0770     8.9010     2.4390    -0.0340    85.2910
  235.0000   -17.2500    12.2670    11.7460    11.7100     8.9110     2.4320    -0.0300    83.7090
  235.5000   -17.0320    13.0170    12.6080    12.5340     8.9210     2.4240    -0.0260    82.8450
  236.0000   -16.8120    13.7660    12.5520    13.2820     8.9300     2.4120    -0.0230    78.9000
  236.5000   -15.7760    14.6140    12.4380    13.6710     8.9400     2.3940    -0.0190    74.3500
  237.0000   -14.8300    13.6440    12.3770    13.1020     8.9500     2.3670    -0.0210    69.8140
  237.5000   -13.2260    12.5270    11.8030    12.5330     8.9600     2.3360    -0.0240    65.1690
  238.0000   -11.7080    11.4110    11.2620    11.9640     8.9690     2.3050    -0.0290    60.7740
  238.5000   -10.1540    10.1030    10.7210    11.3950     8.9790     2.2750    -0.0340    55.9200
  239.0000    -8.6280     9.5500    10.1790    10.8260     8.9640     2.2460    -0.0390    54.9520
  239.5000    -7.0020     8.8840     9.6380    10.2570     8.9460     2.2170    -0.0440    54.0130
  240.0000    -5.8010     7.9470     9.0970     9.7820     8.9270     2.1890    -0.0480    54.1600
  240.5000    -5.1720     7.9790     8.8010     9.4450     8.9080     2.1750    -0.0530    54.2240
  241.0000    -4.4450     8.0310     8.6700     9.1080     8.9020     2.1660    -0.0570    54.3840
  241.5000    -3.7320     8.0830     8.5400     8.5560     8.9090     2.1680    -0.0570    54.5050
  242.0000    -3.0320     7.7030     8.4100     8.6220     8.9140     2.1740    -0.0570    54.6330
  242.5000    -2.3160     6.8560     8.2790     8.8020     8.9200     2.1790    -0.0550    54.7650
  243.0000    -1.6050     6.9000     8.4200     8.9830     8.9250     2.1830    -0.0530    54.8930
  243.5000    -0.9960     7.0280     8.6520     9.1630     8.9310     2.1880    -0.0500    55.0260
  244.0000    -0.7480     7.2210     9.0690     9.6360     8.9370     2.2020    -0.0470    55.1520
  244.5000    -0.5280     7.6500     9.5550    10.1120     8.9380     2.2120    -0.0440    55.2830
  245.0000    -0.3010     8.6480    10.0410    10.4880     8.9320     2.2200    -0.0420    55.4210
  245.5000    -0.1900     9.7370    10.4830    11.3200     8.9270     2.2330    -0.0390    55.5150
  246.0000    -0.2010    10.8230    12.4270    12.6170     8.9210     2.2480    -0.0360    55.9420
  246.5000    -0.1980    11.8190    14.0840    14.3460     8.9160     2.2600    -0.0340    56.6470
  247.0000    -0.1990    12.5460    13.2610    13.9240     8.9100     2.2520    -0.0310    57.3080
  247.5000    -0.1940    13.1380    12.2600    13.2900     8.9050     2.2380    -0.0290    57.9720
  248.0000    -0.2500    13.8260    10.9790    12.6560     8.9020     2.2210    -0.0300    58.6440
  248.5000    -0.3470    13.5660     9.7370    12.0220     8.9190     2.2040    -0.0310    59.3090
  249.0000    -0.4350    12.9610     9.3840    11.3880     8.9330     2.1850    -0.0310    59.9780
  249.5000    -0.5240    11.3230     9.3840    10.7540     8.9490     2.1740    -0.0320    60.6430
  250.0000    -0.6140    10.5330     9.3840    10.1200     8.9640     2.1730    -0.0320    61.3130
