~VERSION INFORMATION
 VERS.                2.0:   CWLS LOG ASCII STANDARD - VERSION 2.0
 WRAP.                 NO:   ONE LINE PER DEPTH STEP
~WELL INFORMATION
#MNEM.UNIT      DATA TYPE    INFORMATION
#----------   ------------   ------------------------------
 STRT.F          594.5000:   START DEPTH
 STOP.F         3015.5000:   STOP DEPTH
 STEP.F            0.5000:   STEP LENGTH
 NULL.          -999.2500:   NO VALUE
 COMP.    FENIX & SCISSON:   COMPANY
 WELL.  FENIX "AX" #35-34:   WELL
 FLD .             NPR #3:   FIELD
 LOC .      S34 T39N R78W:   LOCATION
 CNTY.            NATRONA:   COUNTY
 STAT.            WYOMING:   STATE
 CTRY. UNITED STATES OF AMERICA:   COUNTRY
 SRVC.       SCHLUMBERGER:   SERVICE COMPANY
 DATE.        14-APR-1977:   LOGDATE
 API .     49025103390000:   API NUMBER
~CURVE INFORMATION
#MNEM.UNIT       API CODE    CURVE DESCRIPTION
#----------   ------------   ------------------------------
 DEPT.F                  :   
 CALD.IN     45 280 60 00:   CALIPER FROM DENSITY LOG
 RHOB.G/C3   45 350 01 00:   BULK DENSITY
 DRHO.G/C3   45 356 01 00:   DENSITY CORRECTION
 SPR .MV     07 010 01 00:   SPONTANEOUS POTENTIAL
 RILM.OHMM   07 120 44 00:   INDUCTION LOG MEDIUM RESISTIVITY
 RILD.OHMM   07 120 46 00:   DEEP INDUCTION RESISTIVITY
 LL8 .OHMM   07 220 08 00:   LATEROLOG-8 RES.
 GRD .GAPI   45 310 01 00:   GAMMA RAY FROM DENSITY LOG
~PARAMETER INFORMATION
#MNEM.UNIT          VALUE    DESCRIPTION
#----------   ------------   ------------------------------
 EKB .F         5116.0000:   Kelly bushing
 EGL .F         5104.0000:   Ground level
 EDF .F            0.0000:   Drilling floor
 TD  .F         3017.0000:   Total depth
 DATE.        14-APR-1977:   Date logged
 CLNT.            A2DTECH:   Client Code
 SL  . 2311' FSL & 1550' FWL:   Surface Location
 PD  .                 GL:   Permanent Datum
 EPD .F              5104:   Elevation Permanent Datum
 LMF .                 KB:   Log Measured From
 DMF .                 KB:   Drilling Measured From
 DAPD.F                12:   Feet Above Permanent Datum
 DD  .F              3012:   Depth driller
 DL  .F              3017:   Depth logger
 BLI .F              3011:   Bottom log interval
 TLI .F               600:   Top log interval
 CS1 .IN            8.625:   Casing size
 CBD1.      8.625" @ 601':   Casing driller 1
 CBL1.F               600:   Casing logger 1
 BS1 .IN            7.875:   Bit size
 BSD1.F              3012:   Depth drilled with bit1
 DFT .                FGM:   Type fluid in hole
 DFD .                9.2:   Density
 DFV .                 29:   Viscosity
 MSS .           FLOWLINE:   Source of sample
 RMS .OHMM          0.206:   Rm
 MST .F                60:   Rm Meas. temp.
 RMF .OHMM          0.192:   Rmf
 MFST.F                60:   Rmf Meas. temp.
 MFSS.               MEAS:   Source Rmf.
 RMB .OHMM          0.109:   Rm. at BHT
 BHT .F               113:   BHT.
 TLAB.HRS            0200:   Time logger at bottom
 MRT .F               113:   Maximum recorded temp.
 LUN .               7711:   Logging unit number
 LUL .               CSPR:   Logging unit location
 ENGI.             GEIGER:   Recorded By
 WITN.         PETTINGILL:   Witnessed by
 ORIG.           5" PRINT:   Origin of data
 UWI .     49025103390000:   Unique Well ID
 DICO. A2D TECHNOLOGIES, INC.:   Digitizing Company
~OTHER INFORMATION
~A   DEPT     CALD       RHOB       DRHO        SPR       RILM       RILD        LL8         GRD  
# ...
 1566.5000    10.5860     2.5500     0.0320   -79.4550     6.6450     6.3580     7.6050    99.6680
 1567.0000    10.5990     2.5540     0.0340   -79.0900     6.6160     6.2880     7.4250   100.4170
 1567.5000    10.6130     2.5350     0.0240   -78.5700     6.5900     6.2660     7.2440   101.5480
 1568.0000    10.6260     2.5150     0.0210   -78.2810     6.5640     6.2450     7.0640   102.6850
 1568.5000    10.6400     2.5230     0.0300   -78.2040     6.5380     6.2240     6.8300   103.6360
 1569.0000    10.6540     2.5160     0.0250   -78.1190     6.5120     6.2040     6.9010   104.2010
 1569.5000    10.6670     2.5240     0.0190   -77.7300     6.4860     6.1830     7.0430   104.7670
 1570.0000    10.6810     2.5320     0.0240   -77.2970     6.4600     6.1630     7.1840   104.1860
 1570.5000    10.6920     2.5340     0.0220   -76.8480     6.4340     6.1420     7.2840   102.8550
 1571.0000    10.6610     2.5430     0.0190   -76.8230     6.4050     6.1210     7.0860   102.8580
 1571.5000    10.6050     2.5510     0.0180   -76.9310     6.4470     6.1010     6.9340   102.4070
 1572.0000    10.5500     2.5460     0.0210   -77.0930     6.4930     6.0800     6.7810   101.6080
 1572.5000    10.5270     2.5360     0.0260   -77.2700     6.5390     6.0620     6.6450   101.3060
 1573.0000    10.5650     2.5390     0.0310   -77.6750     6.5850     6.1070     6.8540   102.2810
 1573.5000    10.6020     2.5260     0.0210   -78.1670     6.6310     6.1580     7.0450   103.5450
 1574.0000    10.6280     2.5140     0.0180   -78.6620     6.6780     6.2090     7.2170   102.5810
 1574.5000    10.5940     2.5260     0.0300   -79.0190     6.7240     6.2600     6.8670   101.6470
 1575.0000    10.5900     2.5500     0.0430   -79.2400     6.7700     6.3110     6.6450   101.9100
 1575.5000    10.6320     2.5330     0.0290   -79.4630     6.8300     6.3460     7.2250   101.2580
 1576.0000    10.6700     2.5130     0.0170   -79.6940     6.7840     6.3010     7.6720    99.6140
 1576.5000    10.6330     2.5160     0.0120   -79.8090     6.7180     6.2590     7.9840    99.3880
 1577.0000    10.5920     2.5390     0.0270   -79.9230     6.6520     6.2180     7.5390   103.8060
 1577.5000    10.5550     2.5590     0.0340   -80.0380     6.5860     6.1760     7.1960   104.7940
 1578.0000    10.5700     2.5620     0.0400   -79.8840     6.5200     6.1350     6.9310   105.2310
 1578.5000    10.5870     2.5520     0.0340   -79.4610     6.4540     6.0930     6.8440   105.6540
 1579.0000    10.6040     2.5460     0.0250   -79.0380     6.3870     6.0520     6.7570   104.7880
 1579.5000    10.6120     2.5480     0.0160   -78.6150     6.2880     6.0060     6.6450   103.8720
 1580.0000    10.5960     2.5480     0.0090   -78.2630     6.3190     6.0350     6.7190   103.9990
 1580.5000    10.5780     2.5400     0.0200   -78.0880     6.3800     6.0770     6.8250   104.2160
 1581.0000    10.5740     2.5450     0.0430   -77.8920     6.4420     6.1180     6.9310   103.1640
 1581.5000    10.5740     2.5490     0.0390   -77.2270     6.5030     6.1600     7.0370   101.6820
 1582.0000    10.5720     2.5330     0.0310   -76.5590     6.5650     6.2010     7.1430   101.4510
 1582.5000    10.5450     2.5440     0.0240   -76.7920     6.6260     6.2430     7.2170   102.4460
 1583.0000    10.5030     2.5410     0.0160   -77.1630     6.7060     6.2880     7.2170   102.1350
 1583.5000    10.5090     2.5350     0.0140   -77.5350     6.6730     6.2570     7.2170   103.4490
 1584.0000    10.5230     2.5310     0.0190   -77.7210     6.6070     6.2130     7.2170   104.5890
 1584.5000    10.5290     2.5370     0.0190   -77.7200     6.5410     6.1680     7.2170   102.4700
 1585.0000    10.5090     2.5330     0.0150   -77.7270     6.4750     6.1240     7.2170    99.8570
 1585.5000    10.4900     2.5280     0.0190   -78.1120     6.4090     6.0790     7.1820   102.1890
 1586.0000    10.4760     2.5360     0.0260   -78.5450     6.3430     6.0350     7.0660   105.6170
 1586.5000    10.4850     2.5460     0.0330   -78.9920     6.2770     5.9900     6.9500   105.9440
 1587.0000    10.4960     2.5520     0.0340   -79.1060     6.2310     5.9460     6.8340   104.4530
 1587.5000    10.5050     2.5370     0.0250   -79.1100     6.2560     5.8970     6.7060   104.4290
 1588.0000    10.5130     2.5250     0.0190   -79.1040     6.2850     5.9230     6.6450   103.8760
 1588.5000    10.5020     2.5170     0.0130   -79.3250     6.3130     5.9610     6.7710   103.6540
 1589.0000    10.4920     2.5120     0.0100   -79.6300     6.3420     5.9980     7.0250   105.0660
 1589.5000    10.4820     2.5180     0.0140   -79.8800     6.3700     6.0350     7.2780   106.0620
 1590.0000    10.4680     2.5270     0.0140   -79.4960     6.3990     6.0730     7.5310   103.9870
 1590.5000    10.4350     2.5290     0.0090   -79.0100     6.4270     6.1100     7.9110   102.7480
 1591.0000    10.4190     2.5170     0.0070   -78.4170     6.4550     6.1480     7.8190   103.0550
 1591.5000    10.4310     2.5240     0.0190   -78.0170     6.5170     6.1740     7.6360   101.7610
 1592.0000    10.4430     2.5290     0.0130   -77.8070     6.5920     6.0530     7.4520   102.2010
 1592.5000    10.4550     2.5180     0.0070   -77.5970     6.7060     6.0060     7.2690   103.6200
 1593.0000    10.4200     2.5250     0.0110   -77.3900     6.6270     6.0310     7.0850   103.5000
 1593.5000    10.4450     2.5230     0.0140   -77.0130     6.4680     6.0510     6.9570   103.2790
 1594.0000    10.4810     2.5170     0.0150   -76.5650     6.2310     6.0700     7.0790   103.6790
 1594.5000    10.4850     2.5240     0.0090   -76.4700     6.2530     6.0890     7.1730   104.2340
 1595.0000    10.4710     2.5280     0.0120   -76.7280     6.2980     6.1090     7.2660   102.2100
 1595.5000    10.4570     2.5160     0.0150   -76.9920     6.3460     6.1280     7.3510   102.4990
 1596.0000    10.4510     2.5200     0.0120   -77.2790     6.3690     6.1470     7.3200   104.5490
 1596.5000    10.4470     2.5300     0.0050   -77.3590     6.4010     6.1670     7.2920   106.5900
 1597.0000    10.4430     2.5380     0.0080   -77.8260     6.4340     6.1860     7.2640   106.9730
 1597.5000    10.4400     2.5450     0.0130   -78.2830     6.4660     6.2050     7.2370   106.2810
 1598.0000    10.4360     2.5630     0.0250   -78.6060     6.4990     6.2250     7.2170   102.5790
 1598.5000    10.4310     2.5530     0.0310   -78.7920     6.5310     6.2440     7.2700    98.5380
 1599.0000    10.4250     2.5370     0.0220   -78.9790     6.5640     6.2630     7.3110    99.4380
 1599.5000    10.4190     2.5320     0.0160   -79.1640     6.5960     6.2880     7.3520   101.2930
 1600.0000    10.4140     2.5320     0.0100   -79.3500     6.6280     6.2770     7.3930   102.2990
 1600.5000    10.4080     2.5350     0.0210   -79.5370     6.6450     6.2540     7.4340    99.1420
 1601.0000    10.4020     2.5300     0.0170   -79.6880     6.5870     6.2300     7.4870    99.5130
 1601.5000    10.3960     2.5350     0.0300   -79.4120     6.5340     6.2070     7.4050   101.1140
 1602.0000    10.4070     2.5470     0.0330   -79.1370     6.4820     6.1840     7.2880   102.2350
 1602.5000    10.4230     2.5420     0.0180   -78.4820     6.4290     6.1610     7.1710   101.5790
 1603.0000    10.4400     2.5390     0.0140   -77.9790     6.3770     6.1380     7.0210   100.9130
 1603.5000    10.4540     2.5270     0.0110   -77.6880     6.3240     6.1140     7.0930   101.1570
 1604.0000    10.4460     2.5200     0.0090   -77.3970     6.2880     6.0910     7.1940   102.5860
 1604.5000    10.4390     2.5190     0.0100   -77.1160     6.3440     6.0620     7.2700   102.4280
 1605.0000    10.4340     2.5200     0.0120   -76.7250     6.3940     6.0820     7.1010   102.2270
 1605.5000    10.4150     2.5100     0.0100   -76.3410     6.4440     6.1100     6.9780   104.7310
 1606.0000    10.4310     2.5040     0.0080   -76.3940     6.4930     6.1390     7.2100   105.5610
 1606.5000    10.4660     2.5180     0.0050   -76.5210     6.5430     6.1670     7.4350   104.5340
