~VERSION INFORMATION
 VERS.                2.0:   CWLS LOG ASCII STANDARD - VERSION 2.0
 WRAP.                 NO:   ONE LINE PER DEPTH STEP
~WELL INFORMATION
#MNEM.UNIT      DATA TYPE    INFORMATION
#----------   ------------   ------------------------------
 STRT.F          198.0000:   START DEPTH
 STOP.F         3034.0000:   STOP DEPTH
 STEP.F            0.5000:   STEP LENGTH
 NULL.          -999.2500:   NO VALUE
 COMP.    FENIX & SCISSON:   COMPANY
 WELL.   FENIX "A" #44-29:   WELL
 FLD .              NPR-3:   FIELD
 LOC .      S29 T39N R78W:   LOCATION
 CNTY.            NATRONA:   COUNTY
 STAT.            WYOMING:   STATE
 CTRY. UNITED STATES OF AMERICA:   COUNTRY
 SRVC.              WELEX:   SERVICE COMPANY
 DATE.        26-MAY-1977:   LOGDATE
 API .     49025103690000:   API NUMBER
~CURVE INFORMATION
#MNEM.UNIT       API CODE    CURVE DESCRIPTION
#----------   ------------   ------------------------------
 DEPT.F                  :   
 SPR .MV     07 010 01 00:   SPONTANEOUS POTENTIAL
 ILD .OHMM   07 120 46 00:   DEEP INDUCTION RESISTIVITY
 ILM .OHMM   07 120 44 00:   INDUCTION LOG MEDIUM RESISTIVITY
 SGRD.OHMM   07 220 05 00:   SHALLOW SHORT GUARD RESISTIVITY
 CALD.IN     45 280 60 00:   CALIPER FROM DENSITY LOG
 GRD .GAPI   45 310 01 00:   GAMMA RAY FROM DENSITY LOG
 RHOB.G/C3   45 350 01 00:   BULK DENSITY
 CORR.G/C3   45 356 01 00:   DENSITY CORRECTION
~PARAMETER INFORMATION
#MNEM.UNIT          VALUE    DESCRIPTION
#----------   ------------   ------------------------------
 EKB .F         5010.0000:   Kelly bushing
 EGL .F         5000.0000:   Ground level
 EDF .F            0.0000:   Drilling floor
 TD  .F         3036.0000:   Total depth
 DATE.        26-MAY-1977:   Date logged
 CLNT.            A2DTECH:   Client Code
 SL  . 2310' FNL & 2310' FWL:   Surface Location
 PD  .                 GL:   Permanent Datum
 EPD .F              5000:   Elevation Permanent Datum
 LMF .                 KB:   Log Measured From
 DMF .                 KB:   Drilling Measured From
 DD  .F              3035:   Depth driller
 DL  .F              3036:   Depth logger
 BLI .F              3034:   Bottom log interval
 TLI .F               210:   Top log interval
 CS1 .IN            8.625:   Casing size
 CBD1.      8.625" @ 245':   Casing driller 1
 CBL1.F               220:   Casing logger 1
 BS1 .IN            7.875:   Bit size
 BSD1.F              3035:   Depth drilled with bit1
 DFT .            KCL MUD:   Type fluid in hole
 DFD .                8.8:   Density
 DFV .                 34:   Viscosity
 DFPH.                7.5:   pH
 DFL .                6.6:   Fluid loss
 MSS .           FLOWLINE:   Source of sample
 RMS .OHMM           0.20:   Rm
 MST .F                89:   Rm Meas. temp.
 RMF .OHMM           0.17:   Rmf
 MFST.F                89:   Rmf Meas. temp.
 RMC .OHMM           0.30:   Rmc
 MCST.F                89:   Rmc Meas. temp.
 MFSS.               FANN:   Source Rmf.
 MCSS.                KIT:   Source Rmc.
 RMB .OHMM           0.16:   Rm. at BHT
 BHT .F               110:   BHT.
 TCS .HRS             2.5:   Time Circ. stopped
 MRT .F               110:   Maximum recorded temp.
 LUN .               8611:   Logging unit number
 LUL .             CASPER:   Logging unit location
 ENGI.            C. DOAK:   Recorded By
 WITN.      B. HARRINGTON:   Witnessed by
 ORIG.           5" PRINT:   Origin of data
 UWI .     49025103690000:   Unique Well ID
 DICO. A2D TECHNOLOGIES, INC.:   Digitizing Company
~OTHER INFORMATION
~A   DEPT      SPR        ILD        ILM       SGRD       CALD         GRD      RHOB       CORR   
# ...
 2992.5000   -40.0280     4.4210     5.8970     6.5530     7.9160   116.6720     2.4700     0.0270
 2993.0000   -40.0480     4.4110     4.7740     6.2310     7.9270   113.4640     2.4670     0.0260
 2993.5000   -40.0680     4.4010     5.1950     7.6350     7.9400   114.4260     2.4650     0.0240
 2994.0000   -40.0880     4.3680     5.7150     8.0580     7.9530   112.6360     2.4670     0.0240
 2994.5000   -40.1090     4.3020     5.9510     7.0670     7.9660   110.0030     2.4680     0.0250
 2995.0000   -40.1290     4.2370     5.4790     6.4640     7.9790   111.8170     2.4680     0.0250
 2995.5000   -40.2440     4.1720     5.8000     6.7210     7.9910   114.0740     2.4700     0.0260
 2996.0000   -40.4180     4.1060     6.0620     8.4360     8.0040   113.3010     2.4810     0.0310
 2996.5000   -40.5940     4.0410     5.8730     7.9780     8.0170   111.4930     2.4930     0.0360
 2997.0000   -40.7680     3.9730     5.5160     7.1820     8.0300   111.1090     2.5050     0.0410
 2997.5000   -40.9230     3.9370     5.3780     6.3460     8.0430   115.2130     2.5080     0.0470
 2998.0000   -40.8720     3.8550     4.9530     6.0620     8.0560   119.8020     2.5000     0.0520
 2998.5000   -40.5510     3.8270     5.0450     5.8970     8.0690   123.2730     2.4980     0.0560
 2999.0000   -40.2300     3.7980     4.9150     5.8430     8.0810   126.2290     2.4910     0.0540
 2999.5000   -39.9090     3.7690     4.6440     6.0060     8.0940   131.0960     2.4790     0.0490
 3000.0000   -39.9500     3.7410     4.6440     5.1850     8.1010   129.1120     2.4660     0.0440
 3000.5000   -40.3450     3.7260     4.6870     5.1380     8.1030   124.9680     2.4600     0.0390
 3001.0000   -40.7400     3.7740     4.8020     5.5150     8.1060   122.1810     2.4530     0.0340
 3001.5000   -41.1370     3.8190     4.9100     5.9500     8.1080   125.9140     2.4500     0.0280
 3002.0000   -41.5370     3.8650     4.9530     6.3850     8.1100   125.2990     2.4530     0.0260
 3002.5000   -41.8780     3.8370     4.8480     6.8210     8.1120   123.2160     2.4580     0.0270
 3003.0000   -42.1790     3.7590     4.6520     7.0210     8.1140   121.3140     2.4550     0.0280
 3003.5000   -42.4810     3.6810     4.3780     6.5720     8.1170   121.3270     2.4520     0.0290
 3004.0000   -42.7840     3.6030     4.1220     6.0340     8.1190   122.5900     2.4560     0.0310
 3004.5000   -43.0600     3.5250     4.0570     5.1380     8.1280   127.5750     2.4640     0.0360
 3005.0000   -43.0150     3.4480     4.0100     5.0910     8.1550   132.2510     2.4590     0.0410
 3005.5000   -42.7710     3.3680     3.9630     5.2820     8.1820   128.3520     2.4530     0.0460
 3006.0000   -42.7410     3.2420     3.6920     5.1410     8.2090   130.3900     2.4620     0.0510
 3006.5000   -42.9070     3.1290     3.3990     4.8910     8.2350   131.6460     2.4560     0.0490
 3007.0000   -43.0710     3.1290     3.5700     4.7310     8.2590   128.1070     2.4490     0.0470
 3007.5000   -43.2360     3.1420     3.7660     4.7310     8.2580   130.7550     2.4420     0.0440
 3008.0000   -43.4130     3.1570     3.9630     4.9570     8.2580   133.5270     2.4500     0.0420
 3008.5000   -43.1950     3.1720     4.1600     5.1350     8.2580   131.4900     2.4640     0.0390
 3009.0000   -42.8110     3.1870     4.1860     5.3130     8.2590   127.4540     2.4700     0.0370
 3009.5000   -42.4240     3.1630     4.1980     5.4290     8.2440   123.3990     2.4630     0.0340
 3010.0000   -42.0360     3.1380     3.9850     5.3050     8.2270   119.5070     2.4550     0.0320
 3010.5000   -41.6490     3.1130     3.7590     5.0680     8.1090   115.2880     2.4480     0.0290
 3011.0000   -41.3100     3.0880     3.5910     4.8320     7.9670   121.6010     2.4400     0.0260
 3011.5000   -41.2780     3.0620     3.5910     4.6020     7.9470   133.1030     2.4340     0.0240
 3012.0000   -41.2480     3.0370     3.4620     4.6020     7.9350   135.8740     2.4370     0.0220
 3012.5000   -41.2160     3.0080     3.5540     4.6440     7.9210   138.8010     2.4490     0.0250
 3013.0000   -41.1850     2.9600     3.6920     4.4770     7.9080   143.0680     2.4550     0.0270
 3013.5000   -41.1510     2.9080     3.5260     4.5580     7.8950   128.1610     2.4510     0.0300
 3014.0000   -41.1190     2.9020     3.5910     4.8140     7.8820   130.4850     2.4530     0.0320
 3014.5000   -40.8870     2.8950     3.5550     4.9530     7.8680     2.7600     2.4660     0.0350
 3015.0000   -40.4700     2.8880     3.4620     4.7640     7.8550     1.3810     2.4700     0.0370
 3015.5000   -39.9700     2.8810     3.4740     4.5340     7.8420  -999.2500     2.4670     0.0400
 3016.0000   -39.4670     2.8430     3.4940     4.3950     7.8290  -999.2500     2.4690     0.0420
 3016.5000   -38.9590     2.7950     3.4300     4.7740     7.8150  -999.2500     2.4760     0.0450
 3017.0000   -38.7720     2.7460     3.3460     4.2760     7.8020  -999.2500     2.4820     0.0450
 3017.5000   -38.7690     2.6980     3.3370     4.4320     7.7890  -999.2500     2.4730     0.0440
 3018.0000   -38.7690     2.6500     3.3890     4.6020     7.7850  -999.2500     2.4610     0.0420
 3018.5000   -38.7790     2.6010     3.4290     4.1980     7.7850  -999.2500     2.4580     0.0410
 3019.0000   -38.3790     2.5530     3.4620     4.4360     7.7850  -999.2500     2.4610     0.0400
 3019.5000   -37.8390     2.5040     3.2350     4.1400     7.7850  -999.2500     2.4570     0.0390
 3020.0000   -37.2960     2.4560     3.1010     3.8650     7.7850  -999.2500     2.4520     0.0380
 3020.5000   -37.2050     2.4420     3.1230     3.8650     7.7850  -999.2500     2.4470     0.0370
 3021.0000   -37.0020     2.4200     3.1670     4.0420     7.7850  -999.2500     2.4470     0.0360
 3021.5000   -35.8490     2.4200     3.2120     4.4200     7.7850  -999.2500     2.4530     0.0350
 3022.0000   -34.2960     2.3980     3.2460     4.9530     7.7850  -999.2500     2.4580     0.0340
 3022.5000   -32.6640     2.4210     3.2070     4.2870     7.7850  -999.2500     2.4520     0.0330
 3023.0000   -30.7000     2.4610     3.1750     4.0100     7.7850  -999.2500     2.4430     0.0320
 3023.5000   -27.6680     2.5520     3.1430     4.1980     7.7850  -999.2500     2.4340     0.0300
 3024.0000   -22.7440     2.7500     3.1110     4.0530     7.7800  -999.2500     2.4250     0.0290
 3024.5000   -16.9680     3.3900     3.0660     3.8650     7.7610  -999.2500     2.4170     0.0280
 3025.0000    -9.4640     4.5210     3.0410     4.1980     7.7420  -999.2500     2.4140     0.0300
 3025.5000    -3.1590     6.2180     3.0160     3.7580     7.7230  -999.2500     2.4180     0.0330
 3026.0000    -2.0750     8.2660     2.9890     3.4370     7.7060  -999.2500     2.4080     0.0360
 3026.5000    -2.0240     9.5940     3.1480     3.2860     7.6940  -999.2500     2.4170     0.0380
 3027.0000    -1.9950     8.3630     3.3370     3.5680     7.6830  -999.2500     2.4280     0.0410
 3027.5000    -1.9670     7.0520     3.2750     3.3620     7.6720  -999.2500     2.4400     0.0450
 3028.0000    -1.9420  -999.2500     3.2170     3.3370     7.6610  -999.2500     2.4510     0.0500
 3028.5000    -1.9170  -999.2500     3.2920     3.4800     7.6500  -999.2500     2.4590     0.0530
 3029.0000    -1.8920  -999.2500     3.6540     4.3150     7.6390  -999.2500     2.4640     0.0510
 3029.5000    -1.8660  -999.2500     4.0940     4.2760     7.6280  -999.2500     2.4700     0.0490
 3030.0000    -1.8580  -999.2500     4.1220     4.2370     7.6170  -999.2500     2.4710     0.0470
 3030.5000    -2.1020  -999.2500     4.4020     4.5460     7.6070  -999.2500     2.4670     0.0440
 3031.0000    -2.3740  -999.2500     4.5420     4.6330     7.5950  -999.2500     2.4640     0.0480
 3031.5000    -2.6450  -999.2500     4.6440     4.8590     7.5790  -999.2500     2.4730     0.0580
 3032.0000    -2.9190  -999.2500     5.0050     5.3740     7.4940  -999.2500     2.4660     0.0680
 3032.5000    -3.0260  -999.2500     5.8430     5.9770     7.7020  -999.2500     2.4580     0.0790
