~VERSION INFORMATION
 VERS.                2.0:   CWLS LOG ASCII STANDARD - VERSION 2.0
 WRAP.                 NO:   ONE LINE PER DEPTH STEP
~WELL INFORMATION
#MNEM.UNIT      DATA TYPE    INFORMATION
#----------   ------------   ------------------------------
 STRT.F          198.0000:   START DEPTH
 STOP.F         3034.0000:   STOP DEPTH
 STEP.F            0.5000:   STEP LENGTH
 NULL.          -999.2500:   NO VALUE
 COMP.    FENIX & SCISSON:   COMPANY
 WELL.   FENIX "A" #44-29:   WELL
 FLD .              NPR-3:   FIELD
 LOC .      S29 T39N R78W:   LOCATION
 CNTY.            NATRONA:   COUNTY
 STAT.            WYOMING:   STATE
 CTRY. UNITED STATES OF AMERICA:   COUNTRY
 SRVC.              WELEX:   SERVICE COMPANY
 DATE.        26-MAY-1977:   LOGDATE
 API .     49025103690000:   API NUMBER
~CURVE INFORMATION
#MNEM.UNIT       API CODE    CURVE DESCRIPTION
#----------   ------------   ------------------------------
 DEPT.F                  :   
 SPR .MV     07 010 01 00:   SPONTANEOUS POTENTIAL
 ILD .OHMM   07 120 46 00:   DEEP INDUCTION RESISTIVITY
 ILM .OHMM   07 120 44 00:   INDUCTION LOG MEDIUM RESISTIVITY
 SGRD.OHMM   07 220 05 00:   SHALLOW SHORT GUARD RESISTIVITY
 CALD.IN     45 280 60 00:   CALIPER FROM DENSITY LOG
 GRD .GAPI   45 310 01 00:   GAMMA RAY FROM DENSITY LOG
 RHOB.G/C3   45 350 01 00:   BULK DENSITY
 CORR.G/C3   45 356 01 00:   DENSITY CORRECTION
~PARAMETER INFORMATION
#MNEM.UNIT          VALUE    DESCRIPTION
#----------   ------------   ------------------------------
 EKB .F         5010.0000:   Kelly bushing
 EGL .F         5000.0000:   Ground level
 EDF .F            0.0000:   Drilling floor
 TD  .F         3036.0000:   Total depth
 DATE.        26-MAY-1977:   Date logged
 CLNT.            A2DTECH:   Client Code
 SL  . 2310' FNL & 2310' FWL:   Surface Location
 PD  .                 GL:   Permanent Datum
 EPD .F              5000:   Elevation Permanent Datum
 LMF .                 KB:   Log Measured From
 DMF .                 KB:   Drilling Measured From
 DD  .F              3035:   Depth driller
 DL  .F              3036:   Depth logger
 BLI .F              3034:   Bottom log interval
 TLI .F               210:   Top log interval
 CS1 .IN            8.625:   Casing size
 CBD1.      8.625" @ 245':   Casing driller 1
 CBL1.F               220:   Casing logger 1
 BS1 .IN            7.875:   Bit size
 BSD1.F              3035:   Depth drilled with bit1
 DFT .            KCL MUD:   Type fluid in hole
 DFD .                8.8:   Density
 DFV .                 34:   Viscosity
 DFPH.                7.5:   pH
 DFL .                6.6:   Fluid loss
 MSS .           FLOWLINE:   Source of sample
 RMS .OHMM           0.20:   Rm
 MST .F                89:   Rm Meas. temp.
 RMF .OHMM           0.17:   Rmf
 MFST.F                89:   Rmf Meas. temp.
 RMC .OHMM           0.30:   Rmc
 MCST.F                89:   Rmc Meas. temp.
 MFSS.               FANN:   Source Rmf.
 MCSS.                KIT:   Source Rmc.
 RMB .OHMM           0.16:   Rm. at BHT
 BHT .F               110:   BHT.
 TCS .HRS             2.5:   Time Circ. stopped
 MRT .F               110:   Maximum recorded temp.
 LUN .               8611:   Logging unit number
 LUL .             CASPER:   Logging unit location
 ENGI.            C. DOAK:   Recorded By
 WITN.      B. HARRINGTON:   Witnessed by
 ORIG.           5" PRINT:   Origin of data
 UWI .     49025103690000:   Unique Well ID
 DICO. A2D TECHNOLOGIES, INC.:   Digitizing Company
~OTHER INFORMATION
~A   DEPT      SPR        ILD        ILM       SGRD       CALD         GRD      RHOB       CORR   
# ...
 1696.5000   -31.0650     5.7180     8.5480     8.2070     8.9810   117.3810     2.3030     0.1360
 1697.0000   -31.0110     5.7030    10.1370     8.5470     9.0010   118.2130     2.2690     0.1180
 1697.5000   -30.9560     5.6880     9.6440     9.1630     9.0750   121.4460     2.2510     0.0980
 1698.0000   -30.9010     5.6730     8.8920     9.1310     9.1670   123.7400     2.2570     0.0990
 1698.5000   -30.8460     5.6580     8.1390     9.0610     9.2600   122.3540     2.2710     0.1040
 1699.0000   -30.7920     5.6430     7.3870     8.9960     9.3030   120.5880     2.2850     0.1080
 1699.5000   -30.7370     5.6320     7.0860     8.9350     9.2970   119.3460     2.2860     0.1120
 1700.0000   -30.6820     5.6670     8.1950     8.5250     9.1950   121.5350     2.2740     0.1170
 1700.5000   -30.6280     5.6940     9.6980     7.9110     9.1110   126.0120     2.2610     0.1090
 1701.0000   -30.5730     5.7220    10.9100     7.9110     9.0690   126.2070     2.2510     0.0960
 1701.5000   -30.5180     5.7490    10.0220     8.2000     9.1020   126.3320     2.2730     0.0870
 1702.0000   -30.4640     5.7760     8.7790     8.4360     9.1480   126.6270     2.3140     0.0940
 1702.5000   -30.4090     5.8030     7.6200     8.3810     9.2390   127.4430     2.4020     0.1040
 1703.0000   -30.3540     5.8300     7.0330     8.2760     9.2130   128.5870     2.4220     0.1140
 1703.5000   -30.3000     5.8570     6.4460     8.1000     9.0850   131.0250     2.4090     0.1230
 1704.0000   -30.2450     5.8850     5.9510     7.7670     9.0540   132.4830     2.3850     0.1280
 1704.5000   -30.1870     5.9100     6.2190     7.7670     9.0670   128.2220     2.3580     0.1160
 1705.0000   -30.2310     5.9470     7.6070     7.4870     9.0210   123.7570     2.3310     0.0930
 1705.5000   -30.3050     5.9840     8.9950     7.6690     8.9650   122.7350     2.3040     0.0710
 1706.0000   -30.3800     6.0210     9.5940     8.1700     8.8380   121.0430     2.2940     0.0490
 1706.5000   -30.4540     6.0580     8.8830     8.6700     8.6600   116.2100     2.3080     0.0340
 1707.0000   -30.5290     6.0950     8.1320     9.0790     8.4810   115.7880     2.2970     0.0340
 1707.5000   -30.6030     6.1140     8.1030     9.0790     8.3190   118.0950     2.2690     0.0320
 1708.0000   -30.6770     6.0790     8.0650     9.0790     8.3010   120.6670     2.2290     0.0310
 1708.5000   -30.7520     6.0510     7.8750     8.6900     8.3190   123.9280     2.1810     0.0300
 1709.0000   -30.8260     6.0230     7.5670     7.9820     8.3360   122.1360     2.1440     0.0300
 1709.5000   -30.9010     5.9260     7.6180     7.2840     8.3530   120.0250     2.1200     0.0410
 1710.0000   -30.9750     5.7320     7.6960     7.2170     8.3700   122.7990     2.0910     0.0530
 1710.5000   -31.0500     5.5000     7.5560     7.3060     8.3870   124.2690     2.0450     0.0630
 1711.0000   -31.1240     5.1430     7.1160     7.3580     8.4040   121.4420     2.0010     0.0560
 1711.5000   -31.1990     4.7860     6.4140     7.4190     8.4210   121.9310     2.0010     0.0490
 1712.0000   -31.2740     4.4280     5.7130     7.0920     8.4390   122.5290     2.0270     0.0670
 1712.5000   -31.3440     4.0710     5.0120     6.7030     8.4630   120.0440     2.0910     0.0730
 1713.0000   -31.3020     3.7140     4.3680     6.1500     8.3800   116.5980     2.0670     0.0650
 1713.5000   -31.2540     3.4620     3.7340     5.4790     8.2420   112.4310     2.0450     0.0710
 1714.0000   -31.2080     3.4300     3.1000     4.0490     8.3630   112.8110     2.0220     0.0790
 1714.5000   -31.1610     3.4300     2.9890     3.3370     8.5460   119.6640     1.9990     0.0410
 1715.0000   -31.1140     3.4530     3.3620     3.9130     8.6360   126.1380     2.0210     0.0300
 1715.5000   -31.0680     3.5880     4.5060     5.7960     8.6480   124.3840     2.0910     0.0200
 1716.0000   -31.0210     3.7730     5.0210     8.2510     8.6940   121.6620     2.1610     0.0090
 1716.5000   -30.9740     4.0670     5.4010     8.5140     8.7730   124.6450     2.2480     0.0030
 1717.0000   -30.9270     4.4460     5.9330     8.5140     8.8180   128.6570     2.3280     0.0050
 1717.5000   -30.8810     4.8620     6.4650     8.5140     8.7670   129.1480     2.3540     0.0080
 1718.0000   -30.8340     5.2790     6.8370     8.6500     8.7330   124.4180     2.3900     0.0170
 1718.5000   -30.7870     5.6580     6.9010     8.7520     8.7430   122.0310     2.4230     0.0260
 1719.0000   -30.7410     6.0010     6.9650     8.6520     8.7510   121.0550     2.4410     0.0290
 1719.5000   -30.6940     6.2310     7.0300     8.5930     8.7600   120.4730     2.4320     0.0300
 1720.0000   -30.6470     6.2310     7.1260     8.6890     8.7680   122.9530     2.4230     0.0240
 1720.5000   -30.6010     6.2310     7.4140     8.8680     8.7860   126.5860     2.4160     0.0190
 1721.0000   -30.5540     6.2230     7.7360     9.0480     8.8080   130.1940     2.4220     0.0130
 1721.5000   -30.5070     6.2080     8.0700     9.2480     8.8300   130.6380     2.4300     0.0120
 1722.0000   -30.4610     6.1920     8.2830     9.1630     8.8530   125.6750     2.4380     0.0130
 1722.5000   -30.4140     6.1770     8.8600     9.1960     8.8780   122.3670     2.4430     0.0130
 1723.0000   -30.3670     6.0910     8.9960     9.2390     8.9150   122.5820     2.4370     0.0140
 1723.5000   -30.3200     5.9840     8.5020     9.2810     8.9520   125.6810     2.4310     0.0120
 1724.0000   -30.2740     5.8770     7.9960     9.3330     8.9870   126.4340     2.4350     0.0110
 1724.5000   -30.2270     5.7700     7.4870     8.5930     8.9740   124.3040     2.4330     0.0100
 1725.0000   -30.1800     5.6810     8.6300     7.0860     8.9610   120.8230     2.4290     0.0080
 1725.5000   -30.1340     5.6660    11.3290     6.6390     8.9610   118.1760     2.4300     0.0070
 1726.0000   -30.0870     5.6500    24.7940     6.4050     9.0480   119.7490     2.4240     0.0070
 1726.5000   -30.0400     5.6320    46.5510     6.6390     9.1300   122.7910     2.4180     0.0100
 1727.0000   -29.9920     5.7310    39.8800     7.0860     9.2070   124.0480     2.4240     0.0140
 1727.5000   -30.0140     5.8530    29.1250     6.9120     9.3820   123.9870     2.4320     0.0170
 1728.0000   -30.0590     5.9740    18.7550     6.9570     9.4410   126.4200     2.4400     0.0200
 1728.5000   -30.1050     6.0950    16.4920     7.4300     9.2660   128.4460     2.4490     0.0220
 1729.0000   -30.1510     6.2160    14.3080     7.9180     9.0950   125.8030     2.4510     0.0230
 1729.5000   -30.1970     6.3370    12.5780     8.2830     8.9410   123.4080     2.4450     0.0240
 1730.0000   -30.2430     6.4590    12.2860     8.2830     8.8920   124.7220     2.4390     0.0250
 1730.5000   -30.2890     6.5240    12.1440     8.2830     8.8500   125.9920     2.4380     0.0260
 1731.0000   -30.3350     6.5240    11.8640     8.4920     8.8450   126.0270     2.4430     0.0270
 1731.5000   -30.3810     6.4410    11.4250     8.7520     8.8410   125.4710     2.4390     0.0280
 1732.0000   -30.4270     6.3190    10.9860     8.7100     8.8370   123.4350     2.4310     0.0280
 1732.5000   -30.4730     6.1970    10.5470     8.6490     8.8330   121.4720     2.4230     0.0290
 1733.0000   -30.5190     6.0740    10.3250     8.5880     8.8270   119.5310     2.4180     0.0290
 1733.5000   -30.5650     5.9520    10.3250     8.5270     8.8140   118.1360     2.4130     0.0290
 1734.0000   -30.6110     5.8450    10.3600     8.4660     8.8010   119.3580     2.4080     0.0300
 1734.5000   -30.6570     5.8680    10.6900     8.4360     8.7890   122.3440     2.4000     0.0330
 1735.0000   -30.7030     5.8910    11.0200     8.4360     8.7760   125.2910     2.3910     0.0360
 1735.5000   -30.7490     5.9020    11.6540     8.7030     8.7630   128.2360     2.3830     0.0410
 1736.0000   -30.7950     5.9100    12.4040     9.0650     8.7530   132.2080     2.3740     0.0470
 1736.5000   -30.8410     5.9170    12.7530     9.4270     8.7800   132.3790     2.3730     0.0530
