~VERSION INFORMATION
 VERS.                2.0:   CWLS LOG ASCII STANDARD - VERSION 2.0
 WRAP.                 NO:   ONE LINE PER DEPTH STEP
~WELL INFORMATION
#MNEM.UNIT      DATA TYPE    INFORMATION
#----------   ------------   ------------------------------
 STRT.F          198.0000:   START DEPTH
 STOP.F         3034.0000:   STOP DEPTH
 STEP.F            0.5000:   STEP LENGTH
 NULL.          -999.2500:   NO VALUE
 COMP.    FENIX & SCISSON:   COMPANY
 WELL.   FENIX "A" #44-29:   WELL
 FLD .              NPR-3:   FIELD
 LOC .      S29 T39N R78W:   LOCATION
 CNTY.            NATRONA:   COUNTY
 STAT.            WYOMING:   STATE
 CTRY. UNITED STATES OF AMERICA:   COUNTRY
 SRVC.              WELEX:   SERVICE COMPANY
 DATE.        26-MAY-1977:   LOGDATE
 API .     49025103690000:   API NUMBER
~CURVE INFORMATION
#MNEM.UNIT       API CODE    CURVE DESCRIPTION
#----------   ------------   ------------------------------
 DEPT.F                  :   
 SPR .MV     07 010 01 00:   SPONTANEOUS POTENTIAL
 ILD .OHMM   07 120 46 00:   DEEP INDUCTION RESISTIVITY
 ILM .OHMM   07 120 44 00:   INDUCTION LOG MEDIUM RESISTIVITY
 SGRD.OHMM   07 220 05 00:   SHALLOW SHORT GUARD RESISTIVITY
 CALD.IN     45 280 60 00:   CALIPER FROM DENSITY LOG
 GRD .GAPI   45 310 01 00:   GAMMA RAY FROM DENSITY LOG
 RHOB.G/C3   45 350 01 00:   BULK DENSITY
 CORR.G/C3   45 356 01 00:   DENSITY CORRECTION
~PARAMETER INFORMATION
#MNEM.UNIT          VALUE    DESCRIPTION
#----------   ------------   ------------------------------
 EKB .F         5010.0000:   Kelly bushing
 EGL .F         5000.0000:   Ground level
 EDF .F            0.0000:   Drilling floor
 TD  .F         3036.0000:   Total depth
 DATE.        26-MAY-1977:   Date logged
 CLNT.            A2DTECH:   Client Code
 SL  . 2310' FNL & 2310' FWL:   Surface Location
 PD  .                 GL:   Permanent Datum
 EPD .F              5000:   Elevation Permanent Datum
 LMF .                 KB:   Log Measured From
 DMF .                 KB:   Drilling Measured From
 DD  .F              3035:   Depth driller
 DL  .F              3036:   Depth logger
 BLI .F              3034:   Bottom log interval
 TLI .F               210:   Top log interval
 CS1 .IN            8.625:   Casing size
 CBD1.      8.625" @ 245':   Casing driller 1
 CBL1.F               220:   Casing logger 1
 BS1 .IN            7.875:   Bit size
 BSD1.F              3035:   Depth drilled with bit1
 DFT .            KCL MUD:   Type fluid in hole
 DFD .                8.8:   Density
 DFV .                 34:   Viscosity
 DFPH.                7.5:   pH
 DFL .                6.6:   Fluid loss
 MSS .           FLOWLINE:   Source of sample
 RMS .OHMM           0.20:   Rm
 MST .F                89:   Rm Meas. temp.
 RMF .OHMM           0.17:   Rmf
 MFST.F                89:   Rmf Meas. temp.
 RMC .OHMM           0.30:   Rmc
 MCST.F                89:   Rmc Meas. temp.
 MFSS.               FANN:   Source Rmf.
 MCSS.                KIT:   Source Rmc.
 RMB .OHMM           0.16:   Rm. at BHT
 BHT .F               110:   BHT.
 TCS .HRS             2.5:   Time Circ. stopped
 MRT .F               110:   Maximum recorded temp.
 LUN .               8611:   Logging unit number
 LUL .             CASPER:   Logging unit location
 ENGI.            C. DOAK:   Recorded By
 WITN.      B. HARRINGTON:   Witnessed by
 ORIG.           5" PRINT:   Origin of data
 UWI .     49025103690000:   Unique Well ID
 DICO. A2D TECHNOLOGIES, INC.:   Digitizing Company
~OTHER INFORMATION
~A   DEPT      SPR        ILD        ILM       SGRD       CALD         GRD      RHOB       CORR   
# ...
 1129.5000   -32.5130     7.5100     9.3330    12.1050     9.4420   102.6810     2.4430     0.0150
 1130.0000   -32.5080     7.5990     9.5360    11.6340     9.4420   103.2740     2.4450     0.0160
 1130.5000   -32.5020     7.6870     9.7820    11.6340     9.4420   102.7020     2.4560     0.0160
 1131.0000   -32.4970     7.7760    10.0280    12.6430     9.4420   101.1700     2.4640     0.0150
 1131.5000   -32.4910     7.8640    10.2740    13.4740     9.4420   103.4150     2.4590     0.0150
 1132.0000   -32.4850     7.9530    10.3250    13.9800     9.4420   103.3070     2.4460     0.0150
 1132.5000   -32.4800     8.0410    10.3100    13.9800     9.4420   101.2770     2.4390     0.0140
 1133.0000   -32.4740     8.1320    10.2690    13.9800     9.4420    99.2570     2.4390     0.0140
 1133.5000   -32.4690     8.1320    10.2280    13.8790     9.4420    98.1010     2.4430     0.0140
 1134.0000   -32.4630     8.1320    10.1880    13.2680     9.4420    98.4400     2.4470     0.0140
 1134.5000   -32.4570     7.9980    10.1470    12.8710     9.4420    98.9770     2.4460     0.0150
 1135.0000   -32.4520     7.8580     9.9270    13.2300     9.4420    99.5230     2.4410     0.0150
 1135.5000   -32.4460     7.7170     9.6460    12.8030     9.4420   100.0660     2.4370     0.0150
 1136.0000   -32.4410     7.5770     9.3650    12.1810     9.4420   100.7730     2.4330     0.0150
 1136.5000   -32.4350     7.4370     9.0830    12.1810     9.4410   101.7680     2.4380     0.0160
 1137.0000   -32.4290     7.2840     8.8070    12.3690     9.4410   101.0270     2.4440     0.0160
 1137.5000   -32.4240     7.2610     8.5680    12.5210     9.4400    98.5880     2.4420     0.0160
 1138.0000   -32.4180     7.2360     8.2070    12.1350     9.4390    97.1900     2.4360     0.0160
 1138.5000   -32.4130     7.2110     8.2280    11.7420     9.4390    99.3100     2.4310     0.0150
 1139.0000   -32.4070     7.1860     8.2700    11.7420     9.4380   102.6960     2.4320     0.0150
 1139.5000   -32.4010     7.1610     8.3120    11.7420     9.4370   106.0770     2.4360     0.0150
 1140.0000   -32.3960     7.1360     8.3540    11.7420     9.4360   109.4360     2.4400     0.0150
 1140.5000   -32.3900     7.1110     8.3960    12.1140     9.4360   111.8490     2.4360     0.0150
 1141.0000   -32.3850     7.0860     8.4360    12.4660     9.4350   111.5460     2.4280     0.0140
 1141.5000   -32.3790     7.0610     8.3940    12.5210     9.4340   110.6020     2.4230     0.0140
 1142.0000   -32.3740     7.0360     8.3530    12.2180     9.4340   109.2890     2.4350     0.0140
 1142.5000   -32.3680     7.0110     8.3120    11.8550     9.4330   107.9910     2.4490     0.0140
 1143.0000   -32.3620     6.9860     8.2710    11.4220     9.4320   106.8200     2.4530     0.0150
 1143.5000   -32.3570     6.9610     8.2310    11.5390     9.4320   105.8900     2.4480     0.0170
 1144.0000   -32.3510     6.9360     8.1900    11.7420     9.4310   106.7800     2.4530     0.0180
 1144.5000   -32.3460     6.9110     8.1490    11.5100     9.4300   109.7360     2.4600     0.0200
 1145.0000   -32.3400     6.8860     8.1320    11.1120     9.4300   112.6340     2.4670     0.0220
 1145.5000   -32.3340     6.8610     8.1320    11.2510     9.4290   114.1060     2.4740     0.0230
 1146.0000   -32.3290     6.8300     8.1130    11.6340     9.4280   111.9290     2.4690     0.0220
 1146.5000   -32.3290     6.8470     8.0940    11.6340     9.4280   109.6970     2.4610     0.0190
 1147.0000   -32.3580     6.8700     8.0740    11.4440     9.4270   108.7090     2.4530     0.0150
 1147.5000   -32.3860     6.8930     8.0580    11.0110     9.4260   107.8890     2.4480     0.0120
 1148.0000   -32.4140     6.9160     7.9980    11.4670     9.4250   106.0510     2.4540     0.0120
 1148.5000   -32.4430     6.9380     8.1060    11.6340     9.4250   103.0860     2.4530     0.0130
 1149.0000   -32.4710     6.9610     8.2140    11.1120     9.4240   100.4410     2.4480     0.0140
 1149.5000   -32.5000     6.9840     8.3220    11.5120     9.4230   101.3540     2.4440     0.0140
 1150.0000   -32.5280     7.0060     8.4290    12.2110     9.4230   103.1240     2.4420     0.0150
 1150.5000   -32.5570     7.0290     8.5930    11.8500     9.4220   101.1930     2.4400     0.0150
 1151.0000   -32.5850     7.0520     8.5140    11.9490     9.4270    99.2270     2.4390     0.0160
 1151.5000   -32.6140     7.0750     8.3510    12.0690     9.4310   100.1410     2.4400     0.0170
 1152.0000   -32.6420     7.0970     8.1880    11.9790     9.4350   102.1610     2.4460     0.0170
 1152.5000   -32.6710     7.1200     8.1320    11.8440     9.4400   104.1120     2.4530     0.0180
 1153.0000   -32.6990     7.1430     8.1320    11.6910     9.4440   104.5140     2.4590     0.0150
 1153.5000   -32.7260     7.1570     8.6080    11.4810     9.4480   104.8870     2.4500     0.0130
 1154.0000   -32.7520     7.1650     9.1630    11.3180     9.4520   105.6210     2.4370     0.0100
 1154.5000   -32.7780     7.1740     8.8800    11.7570     9.4570   107.5600     2.4250     0.0070
 1155.0000   -32.8040     7.1830     8.4360    12.2930     9.4610   109.4550     2.4220     0.0040
 1155.5000   -32.8300     7.1920     8.4610    12.1810     9.4350   111.3490     2.4220     0.0020
 1156.0000   -32.8560     7.2010     8.5230    12.2320     9.4040   113.2460     2.4290     0.0030
 1156.5000   -32.8810     7.2100     8.5860    12.4070     9.3720   114.9550     2.4360     0.0040
 1157.0000   -32.9070     7.2170     8.6480    12.0820     9.3580   114.5990     2.4440     0.0050
 1157.5000   -32.9330     7.1400     8.7110    11.7480     9.3510   112.9410     2.4510     0.0060
 1158.0000   -32.9590     7.0750     8.7520    11.5280     9.3440   111.3280     2.4530     0.0070
 1158.5000   -32.9850     7.0090     8.5950    11.9590     9.3360   109.7120     2.4460     0.0080
 1159.0000   -33.0110     6.9430     8.3030    11.7760     9.3290   108.0960     2.4400     0.0070
 1159.5000   -33.0360     6.8770     7.9840    11.5280     9.3220   107.9690     2.4330     0.0050
 1160.0000   -33.0620     6.8110     7.8390    11.4200     9.3150   110.0940     2.4260     0.0040
 1160.5000   -33.0890     6.7450     7.7670    11.0650     9.3080   112.2220     2.4190     0.0020
 1161.0000   -33.1280     6.6450     7.9010    10.8100     9.3050   113.8750     2.4140     0.0010
 1161.5000   -33.2080     6.6550     8.0510    10.8100     9.3080   113.6730     2.4120     0.0000
 1162.0000   -33.2860     6.6780     8.2830    11.5640     9.3110   110.1420     2.4110    -0.0020
 1162.5000   -33.3630     6.7000     8.2570    12.6370     9.3140   106.6360     2.4060    -0.0030
 1163.0000   -33.4400     6.7230     8.1990    12.6370     9.3180   103.1600     2.4010    -0.0030
 1163.5000   -33.4940     6.7460     8.1420    11.9190     9.3210   101.1450     2.4060    -0.0010
 1164.0000   -33.4770     6.7680     7.8710    11.3420     9.3180   104.9450     2.4170     0.0020
 1164.5000   -33.4620     6.7780     7.6260    10.7640     9.2950   110.6160     2.4280     0.0040
 1165.0000   -33.4480     6.8040     7.6260    10.4200     9.2720   115.0240     2.4390     0.0070
 1165.5000   -33.4330     6.8300     8.0580    11.4120     9.2400   112.4530     2.4500     0.0090
 1166.0000   -33.4190     6.9570     7.6440    13.6000     9.1840   109.9640     2.4630     0.0110
 1166.5000   -33.4040     7.0840     7.4190    12.8020     9.1300   107.4780     2.4750     0.0140
 1167.0000   -33.3890     7.2170     7.5330    11.7760     9.0860   107.6680     2.4800     0.0160
 1167.5000   -33.3740     7.1860     8.1700    11.5280     9.0860   111.0510     2.4690     0.0180
 1168.0000   -33.3600     7.1540     8.4360    11.9640     9.1060   113.5100     2.4570     0.0210
 1168.5000   -33.3450     7.1220     8.4110    12.4070     9.1280   111.2050     2.4520     0.0210
 1169.0000   -33.3300     7.0890     8.3770    12.3490     9.1510   108.3170     2.4520     0.0190
 1169.5000   -33.3160     7.0570     8.3420    12.2690     9.1730   105.6070     2.4490     0.0170
