~VERSION INFORMATION
 VERS.                2.0:   CWLS LOG ASCII STANDARD - VERSION 2.0
 WRAP.                 NO:   ONE LINE PER DEPTH STEP
~WELL INFORMATION
#MNEM.UNIT      DATA TYPE    INFORMATION
#----------   ------------   ------------------------------
 STRT.F          210.0000:   START DEPTH
 STOP.F         2955.0000:   STOP DEPTH
 STEP.F            0.5000:   STEP LENGTH
 NULL.          -999.2500:   NO VALUE
 COMP.    FENIX & SCISSON:   COMPANY
 WELL.     FENIX A #54-28:   WELL
 FLD .                NPR:   FIELD
 LOC .      S28 T39N R78W:   LOCATION
 CNTY.            NATRONA:   COUNTY
 STAT.            WYOMING:   STATE
 CTRY. UNITED STATES OF AMERICA:   COUNTRY
 SRVC.              WELEX:   SERVICE COMPANY
 DATE.        17-MAY-1977:   LOGDATE
 API .     49025103650000:   API NUMBER
~CURVE INFORMATION
#MNEM.UNIT       API CODE    CURVE DESCRIPTION
#----------   ------------   ------------------------------
 DEPT.F                  :   
 SPR .MV     07 010 01 00:   SPONTANEOUS POTENTIAL
 RILM.OHMM   07 120 44 00:   INDUCTION LOG MEDIUM RESISTIVITY
 RILD.OHMM   07 120 46 00:   INDUCTION LOG DEEP RESISTIVITY
 SGRD.OHMM   07 220 05 00:   SHALLOW GUARD LOG RESISTIVITY
 CALD.IN     45 280 60 00:   CALIPER FROM DENSITY LOG
 RHOB.G/C3   45 350 01 00:   BULK DENSITY
 DCOR.G/C3   45 356 01 00:   DENSITY CORRECTION
 GRD .GAPI   45 310 01 00:   GAMMA RAY FROM DENSITY LOG
~PARAMETER INFORMATION
#MNEM.UNIT          VALUE    DESCRIPTION
#----------   ------------   ------------------------------
 EKB .F         5045.0000:   Kelly bushing
 EGL .F         5035.0000:   Ground level
 EDF .F            0.0000:   Drilling floor
 EPD .F         5035.0000:   Permanent datum
 TD  .F         2956.0000:   Total depth
 DATE.        17-MAY-1977:   Date logged
 CLNT.            A2DTECH:   Client Code
 SL  . 2310' FNL & 2310' FEL:   Surface Location
 PD  .                 GL:   Permanent Datum
 LMF .                 KB:   Log Measured From
 DMF .                 KB:   Drilling Measured From
 DAPD.F                10:   Feet Above Permanent Datum
 DD  .F              2947:   Depth driller
 DL  .F              2956:   Depth logger
 BLI .F              2954:   Bottom log interval
 TLI .F               210:   Top log interval
 CS1 .IN            8.625:   Casing size
 CBD1.      8.625" @ 200':   Casing driller 1
 CBL1.F               216:   Casing logger 1
 BS1 .IN            7.875:   Bit size
 BSD1.F              2947:   Depth drilled with bit1
 DFT .            KCL MUD:   Type fluid in hole
 DFD .                  9:   Density
 DFV .                 32:   Viscosity
 DFPH.                7.5:   pH
 DFL .                5.3:   Fluid loss
 MSS .           FLOWLINE:   Source of sample
 RMS .OHMM            .18:   Rm
 MST .F                84:   Rm Meas. temp.
 RMF .OHMM            .16:   Rmf
 MFST.F                84:   Rmf Meas. temp.
 RMC .OHMM            .62:   Rmc
 MCST.F                84:   Rmc Meas. temp.
 RMB .OHMM            .12:   Rm. at BHT
 BHT .F               124:   BHT.
 TCS .HRS               2:   Time Circ. stopped
 MRT .F               124:   Maximum recorded temp.
 LUN .               9685:   Logging unit number
 LUL .           BRIGHTON:   Logging unit location
 ENGI.           T JOYNER:   Recorded By
 WITN.      W. PETTINGILL:   Witnessed by
 ORIG.           5" PRINT:   Origin of data
 UWI .     49025103650000:   Unique Well ID
 DICO. A2D TECHNOLOGIES, INC.:   Digitizing Company
~OTHER INFORMATION
~A   DEPT      SPR       RILM        RILD        SGRD       CALD       RHOB      DCOR        GRD  
# ...
  372.0000   -31.0560    16.0260    13.0530    16.0170     8.7000     2.3850     0.0190    76.6250
  372.5000   -31.4350    15.9510    12.9420    15.9810     8.7000     2.3880     0.0180    76.6400
  373.0000   -31.8110    15.8310    12.8300    15.7740     8.7000     2.3880     0.0170    77.4080
  373.5000   -32.1870    15.7100    12.7180    15.5670     8.6930     2.3860     0.0150    77.9500
  374.0000   -32.4720    15.5900    12.6080    15.3600     8.6840     2.3840     0.0140    78.7170
  374.5000   -32.6940    15.4460    12.5640    15.1530     8.6740     2.3860     0.0120    77.3500
  375.0000   -32.9140    15.1680    12.5200    14.9460     8.6650     2.3830     0.0110    77.6230
  375.5000   -33.1350    14.8230    12.4770    14.6140     8.6560     2.3770     0.0100    77.9820
  376.0000   -33.3550    14.6140    12.4340    14.6240     8.6470     2.3760     0.0080    78.3910
  376.5000   -33.5760    14.1280    12.3900    14.6510     8.6380     2.3780     0.0070    78.6980
  377.0000   -33.7960    13.6370    12.3470    14.6790     8.6290     2.3830     0.0060    77.5280
  377.5000   -34.0170    13.1470    12.3040    14.7060     8.6200     2.3900     0.0040    76.1070
  378.0000   -34.2370    12.8130    12.2600    14.7330     8.6110     2.3970     0.0030    76.1850
  378.5000   -34.4580    12.7360    12.2170    14.7600     8.6020     2.4040     0.0040    77.5810
  379.0000   -34.6780    12.6590    12.1740    14.7870     8.5930     2.4050     0.0060    78.8470
  379.5000   -34.9000    12.5810    12.1300    14.8140     8.5840     2.4000     0.0080    80.0820
  380.0000   -35.1160    12.5040    12.0870    14.8410     8.5750     2.4030     0.0100    81.0680
  380.5000   -35.3440    12.4270    12.0430    14.8860     8.5660     2.4040     0.0110    79.9250
  381.0000   -35.5370    12.3770    12.0000    14.7880     8.5570     2.3990     0.0130    78.9270
  381.5000   -35.8320    12.4690    11.9570    14.5100     8.5480     2.3980     0.0150    77.6180
  382.0000   -36.0820    12.5650    11.9280    14.2330     8.5400     2.4010     0.0170    78.0620
  382.5000   -36.3460    12.6620    11.8110    13.9550     8.5450     2.4000     0.0190    80.1840
  383.0000   -36.6020    12.7590    11.6870    13.6780     8.5550     2.3980     0.0190    82.1290
  383.5000   -36.8610    12.8420    11.5620    13.4000     8.5630     2.3960     0.0170    83.1360
  384.0000   -37.1210    12.7490    11.4380    13.2700     8.5720     2.3930     0.0150    83.6230
  384.5000   -37.3790    12.6670    11.3140    13.1950     8.5800     2.3890     0.0130    84.1390
  385.0000   -37.6380    12.5850    11.1900    13.1200     8.5890     2.3830     0.0110    84.5920
  385.5000   -37.8970    12.5030    11.0800    13.0450     8.5980     2.3780     0.0090    85.1100
  386.0000   -38.1560    12.4210    11.0800    12.9700     8.6060     2.3730     0.0070    83.8210
  386.5000   -38.4150    12.3390    11.0800    12.8950     8.6160     2.3680     0.0050    82.1330
  387.0000   -38.6730    12.2570    11.0800    12.8420     8.6170     2.3630     0.0030    80.4320
  387.5000   -38.9320    12.1750    11.0800    12.5990     8.6060     2.3570     0.0040    78.8170
  388.0000   -39.1910    11.9360    11.0240    12.3290     8.5970     2.3610     0.0060    76.9770
  388.5000   -39.4470    11.6280    10.8380    12.0590     8.5880     2.3750     0.0080    77.1050
  389.0000   -39.7130    11.3210    10.6530    11.7900     8.5780     2.3860     0.0100    78.6730
  389.5000   -39.9600    11.0140    10.4670    11.5200     8.5690     2.3980     0.0110    80.0580
  390.0000   -40.2550    10.7060    10.2810    11.2500     8.5590     2.4010     0.0130    80.5960
  390.5000   -40.3500    10.3990    10.0950    10.9800     8.5500     2.4030     0.0150    80.8570
  391.0000   -40.4510    10.0920     9.9100    10.7110     8.5410     2.4000     0.0140    81.0460
  391.5000   -40.5400     9.7840     9.7370    10.4410     8.5460     2.3980     0.0130    81.6710
  392.0000   -40.6370     9.3790     9.2220    10.1710     8.5520     2.3930     0.0120    82.6460
  392.5000   -40.7320     8.7000     8.7400     9.9180     8.5580     2.3720     0.0110    83.5720
  393.0000   -40.8250     8.0220     8.2580     9.3410     8.5640     2.3700     0.0100    84.5020
  393.5000   -40.9180     7.3430     7.7760     8.8000     8.5700     2.3640     0.0090    85.4450
  394.0000   -41.0240     6.6640     7.2940     8.2630     8.5760     2.3520     0.0080    86.3620
  394.5000   -41.0350     5.9860     6.8110     7.7260     8.5820     2.3390     0.0070    87.3090
  395.0000   -40.9130     5.3070     6.2520     7.1900     8.5880     2.3260     0.0060    87.6230
  395.5000   -40.8090     4.6530     6.1350     6.6530     8.5940     2.3140     0.0050    87.5910
  396.0000   -40.6830     5.4960     5.9150     6.0250     8.6000     2.3000     0.0030    87.7130
  396.5000   -40.5630     6.3090     6.0120     6.2520     8.6060     2.2980     0.0040    88.2820
  397.0000   -40.4190     7.1230     6.2380     8.4820     8.6120     2.3160     0.0060    87.9810
  397.5000   -40.2790     7.9360     6.4640     9.9840     8.6180     2.3470     0.0070    87.1800
  398.0000   -40.1370     8.2970     6.7310    10.6780     8.6140     2.3810     0.0090    86.4550
  398.5000   -39.9950     8.5330     6.9260    10.8370     8.6040     2.4120     0.0110    85.7280
  399.0000   -39.8530     8.7690     7.3960    11.0310     8.5940     2.4210     0.0130    84.9990
  399.5000   -39.7120     9.0050     7.8660    11.2260     8.5840     2.4280     0.0140    84.2490
  400.0000   -39.5690     9.2400     8.3360    11.4210     8.5740     2.4330     0.0150    83.5410
  400.5000   -39.3780     9.3840     8.8070    11.6160     8.5640     2.4300     0.0140    82.8780
  401.0000   -39.1150     9.7780     9.2770    11.8100     8.5540     2.4280     0.0130    83.4350
  401.5000   -38.8450    10.1780     9.5860    12.0050     8.5440     2.4250     0.0120    84.0160
  402.0000   -38.5860    10.5780     9.8470    12.2000     8.5400     2.4230     0.0110    84.6810
  402.5000   -38.3110    10.7620    10.1080    12.3940     8.5400     2.4190     0.0100    85.2460
  403.0000   -38.2550    11.0050    10.3690    12.5890     8.5400     2.4130     0.0090    85.9250
  403.5000   -38.2060    11.2480    10.6300    12.7840     8.5400     2.4080     0.0080    85.3660
  404.0000   -38.1660    11.4910    10.8910    12.9790     8.5400     2.4020     0.0070    84.6000
  404.5000   -38.1190    11.7340    11.1520    13.1730     8.5400     2.4000     0.0070    83.8070
  405.0000   -38.0760    11.9770    11.3340    13.3680     8.5400     2.4040     0.0080    83.0640
  405.5000   -38.0310    12.2200    11.4340    13.5630     8.5400     2.4070     0.0080    82.2460
  406.0000   -37.9870    12.4630    11.5340    13.7570     8.5400     2.4070     0.0090    82.1740
  406.5000   -37.9420    12.8420    11.6340    13.9520     8.5420     2.4060     0.0090    82.5510
  407.0000   -37.8940    12.8110    11.7340    14.1470     8.5440     2.4080     0.0100    82.9030
  407.5000   -37.8020    12.7380    11.8330    14.3420     8.5460     2.4110     0.0100    83.1940
  408.0000   -37.7030    12.6660    11.9330    14.6140     8.5480     2.4140     0.0110    83.5300
  408.5000   -37.6080    12.6080    12.0330    14.4560     8.5490     2.4180     0.0100    82.2900
  409.0000   -37.5090    12.7030    12.1330    14.0840     8.5510     2.4190     0.0090    80.8310
  409.5000   -37.5410    12.8230    12.2330    14.1530     8.5530     2.4170     0.0080    79.2390
  410.0000   -37.5830    12.9440    12.3770    14.2720     8.5550     2.4150     0.0070    77.8020
  410.5000   -37.6300    13.0640    12.3340    14.3910     8.5570     2.4130     0.0070    76.6480
  411.0000   -37.6730    13.1850    12.2570    14.5100     8.5580     2.4110     0.0060    79.1210
  411.5000   -37.7180    13.3050    12.1800    14.6140     8.5600     2.4090     0.0050    81.4270
  412.0000   -37.7630    13.4260    12.1030    14.0840     8.5620     2.4070     0.0040    84.1250
