~VERSION INFORMATION
 VERS.                2.0:   CWLS LOG ASCII STANDARD - VERSION 2.0
 WRAP.                 NO:   ONE LINE PER DEPTH STEP
~WELL INFORMATION
#MNEM.UNIT      DATA TYPE    INFORMATION
#----------   ------------   ------------------------------
 STRT.F          198.0000:   START DEPTH
 STOP.F         3034.0000:   STOP DEPTH
 STEP.F            0.5000:   STEP LENGTH
 NULL.          -999.2500:   NO VALUE
 COMP.    FENIX & SCISSON:   COMPANY
 WELL.   FENIX "A" #44-29:   WELL
 FLD .              NPR-3:   FIELD
 LOC .      S29 T39N R78W:   LOCATION
 CNTY.            NATRONA:   COUNTY
 STAT.            WYOMING:   STATE
 CTRY. UNITED STATES OF AMERICA:   COUNTRY
 SRVC.              WELEX:   SERVICE COMPANY
 DATE.        26-MAY-1977:   LOGDATE
 API .     49025103690000:   API NUMBER
~CURVE INFORMATION
#MNEM.UNIT       API CODE    CURVE DESCRIPTION
#----------   ------------   ------------------------------
 DEPT.F                  :   
 SPR .MV     07 010 01 00:   SPONTANEOUS POTENTIAL
 ILD .OHMM   07 120 46 00:   DEEP INDUCTION RESISTIVITY
 ILM .OHMM   07 120 44 00:   INDUCTION LOG MEDIUM RESISTIVITY
 SGRD.OHMM   07 220 05 00:   SHALLOW SHORT GUARD RESISTIVITY
 CALD.IN     45 280 60 00:   CALIPER FROM DENSITY LOG
 GRD .GAPI   45 310 01 00:   GAMMA RAY FROM DENSITY LOG
 RHOB.G/C3   45 350 01 00:   BULK DENSITY
 CORR.G/C3   45 356 01 00:   DENSITY CORRECTION
~PARAMETER INFORMATION
#MNEM.UNIT          VALUE    DESCRIPTION
#----------   ------------   ------------------------------
 EKB .F         5010.0000:   Kelly bushing
 EGL .F         5000.0000:   Ground level
 EDF .F            0.0000:   Drilling floor
 TD  .F         3036.0000:   Total depth
 DATE.        26-MAY-1977:   Date logged
 CLNT.            A2DTECH:   Client Code
 SL  . 2310' FNL & 2310' FWL:   Surface Location
 PD  .                 GL:   Permanent Datum
 EPD .F              5000:   Elevation Permanent Datum
 LMF .                 KB:   Log Measured From
 DMF .                 KB:   Drilling Measured From
 DD  .F              3035:   Depth driller
 DL  .F              3036:   Depth logger
 BLI .F              3034:   Bottom log interval
 TLI .F               210:   Top log interval
 CS1 .IN            8.625:   Casing size
 CBD1.      8.625" @ 245':   Casing driller 1
 CBL1.F               220:   Casing logger 1
 BS1 .IN            7.875:   Bit size
 BSD1.F              3035:   Depth drilled with bit1
 DFT .            KCL MUD:   Type fluid in hole
 DFD .                8.8:   Density
 DFV .                 34:   Viscosity
 DFPH.                7.5:   pH
 DFL .                6.6:   Fluid loss
 MSS .           FLOWLINE:   Source of sample
 RMS .OHMM           0.20:   Rm
 MST .F                89:   Rm Meas. temp.
 RMF .OHMM           0.17:   Rmf
 MFST.F                89:   Rmf Meas. temp.
 RMC .OHMM           0.30:   Rmc
 MCST.F                89:   Rmc Meas. temp.
 MFSS.               FANN:   Source Rmf.
 MCSS.                KIT:   Source Rmc.
 RMB .OHMM           0.16:   Rm. at BHT
 BHT .F               110:   BHT.
 TCS .HRS             2.5:   Time Circ. stopped
 MRT .F               110:   Maximum recorded temp.
 LUN .               8611:   Logging unit number
 LUL .             CASPER:   Logging unit location
 ENGI.            C. DOAK:   Recorded By
 WITN.      B. HARRINGTON:   Witnessed by
 ORIG.           5" PRINT:   Origin of data
 UWI .     49025103690000:   Unique Well ID
 DICO. A2D TECHNOLOGIES, INC.:   Digitizing Company
~OTHER INFORMATION
~A   DEPT      SPR        ILD        ILM       SGRD       CALD         GRD      RHOB       CORR   
# ...
 1332.0000   -34.4850     6.6850     8.2740    11.3920     9.0670   107.2750     2.4860     0.0330
 1332.5000   -34.4900     6.7060     8.3590    11.3650     9.0790   107.3460     2.4870     0.0360
 1333.0000   -34.4950     6.7110     8.3590    11.3370     9.0910   108.8920     2.4860     0.0340
 1333.5000   -34.5000     6.7170     8.3590    11.3180     9.1040   111.0800     2.4830     0.0290
 1334.0000   -34.5050     6.7230     8.4140    11.2150     9.1160   114.4500     2.4750     0.0250
 1334.5000   -34.5100     6.7290     8.5960    11.1120     9.1280   116.7840     2.4670     0.0200
 1335.0000   -34.5150     6.7350     8.7780    11.7420     9.1410   113.3170     2.4580     0.0190
 1335.5000   -34.5200     6.7410     8.8330    11.3260     9.1490   108.8200     2.4550     0.0190
 1336.0000   -34.5250     6.7470     8.5460    10.9100     9.1540   108.6890     2.4600     0.0180
 1336.5000   -34.5300     6.7540     8.4360    11.7420     9.1590   110.0140     2.4680     0.0180
 1337.0000   -34.5350     6.7600     8.4360    11.4500     9.1640   111.3790     2.4760     0.0240
 1337.5000   -34.5400     6.7660     8.4020    11.0350     9.1690   111.9410     2.4850     0.0290
 1338.0000   -34.5450     6.7720     8.3590    10.9100     9.1740   111.2200     2.4960     0.0340
 1338.5000   -34.5500     6.7780     8.4040    11.5000     9.1790   110.5110     2.5050     0.0400
 1339.0000   -34.5550     6.7840     8.4690    12.0690     9.1840   109.7950     2.5050     0.0400
 1339.5000   -34.5610     6.7900     8.5140    11.7280     9.1890   109.0780     2.4990     0.0400
 1340.0000   -34.5660     6.7960     8.3330    10.9100     9.1940   108.3620     2.4920     0.0370
 1340.5000   -34.5710     6.8020     8.2070    11.0990     9.1990   107.6460     2.4860     0.0350
 1341.0000   -34.5760     6.8080     8.2070    11.4770     9.2040   106.9300     2.4790     0.0320
 1341.5000   -34.5810     6.8140     8.7370    11.7420     9.2000   106.2080     2.4720     0.0290
 1342.0000   -34.5860     6.8200     9.4190    11.0110     9.1780   105.5060     2.4650     0.0260
 1342.5000   -34.5910     6.8260     9.4190    11.5440     9.1550   106.4790     2.4610     0.0230
 1343.0000   -34.5960     6.8300     8.9670    11.9590     9.1330   108.5180     2.4690     0.0210
 1343.5000   -34.6010     6.7680     8.6190    11.7420     9.1110   111.6960     2.4760     0.0200
 1344.0000   -34.6060     6.7210     8.5000    11.7420     9.0890   112.0790     2.4830     0.0190
 1344.5000   -34.6110     6.6740     8.4720    11.9590     9.0660   109.6890     2.4870     0.0190
 1345.0000   -34.6160     6.6260     8.4450    11.4350     9.0440   107.5420     2.4790     0.0190
 1345.5000   -34.6210     6.5790     8.3590    10.9100     9.0280   108.4340     2.4710     0.0190
 1346.0000   -34.6260     6.5310     8.2830    11.7420     9.0380   110.6000     2.4700     0.0180
 1346.5000   -34.6310     6.4840     8.1210    11.4280     9.0480   112.7470     2.4720     0.0180
 1347.0000   -34.6360     6.4360     7.9750    10.8010     9.0580   115.6660     2.4740     0.0190
 1347.5000   -34.6410     6.3890     7.8280    10.4200     9.0680   118.7120     2.4760     0.0210
 1348.0000   -34.6460     6.3460     7.6960    10.5090     9.0780   121.7330     2.4780     0.0230
 1348.5000   -34.6510     6.4000     7.6260    10.6860     9.0860   122.0760     2.4840     0.0250
 1349.0000   -34.6560     6.4490     7.7090    10.8100     9.0760   119.5550     2.4930     0.0260
 1349.5000   -34.6610     6.4980     7.8270    10.5980     9.0670   116.6930     2.5010     0.0280
 1350.0000   -34.6670     6.5470     7.9450    10.5160     9.0570   113.8460     2.5100     0.0300
 1350.5000   -34.6570     6.5960     8.0630    11.6340     9.0470   111.6350     2.5170     0.0320
 1351.0000   -34.6410     6.6450     8.1810    11.3560     9.0380   110.2850     2.5190     0.0340
 1351.5000   -34.6250     6.6940     8.2990    11.1120     9.0280   108.8430     2.5180     0.0320
 1352.0000   -34.6090     6.7430     8.3590    11.9810     9.0180   106.9880     2.5090     0.0310
 1352.5000   -34.5930     6.7680     8.4360    12.8710     9.0080   103.7750     2.4990     0.0290
 1353.0000   -34.5770     6.7680     8.2980    12.1620     9.0110   100.6500     2.4890     0.0280
 1353.5000   -34.5610     6.7680     8.1900    11.5980     9.0150    97.5190     2.4850     0.0260
 1354.0000   -34.5450     6.7680     8.0830    11.0720     9.0190    96.1980     2.4900     0.0270
 1354.5000   -34.5290     6.7680     7.9840    11.0110     9.0220    98.9810     2.4970     0.0300
 1355.0000   -34.5130     6.7680     8.0000    11.0110     9.0260   102.2520     2.5020     0.0320
 1355.5000   -34.4970     6.7680     8.0240    11.0110     9.0390   105.5010     2.5010     0.0350
 1356.0000   -34.4810     6.7680     8.0480    11.0110     9.0790   108.2740     2.4880     0.0340
 1356.5000   -34.4650     6.7680     8.0710    11.7210     9.1180   108.2690     2.4720     0.0310
 1357.0000   -34.4490     6.7680     8.0950    12.0690     9.1210   106.1410     2.4620     0.0280
 1357.5000   -34.4330     6.7680     8.1190    11.6510     9.1070   103.0690     2.4510     0.0260
 1358.0000   -34.4170     6.7680     8.1420    11.1700     9.0930   106.1360     2.4400     0.0230
 1358.5000   -34.4010     6.7680     8.1660    11.0110     9.0720   110.1320     2.4300     0.0220
 1359.0000   -34.3850     6.7680     8.1900    11.3080     9.0460   114.0160     2.4290     0.0240
 1359.5000   -34.3690     6.7680     8.2170    11.5280     9.0200   111.5700     2.4360     0.0260
 1360.0000   -34.3530     6.7680     8.2550    11.1360     8.9950   107.6450     2.4420     0.0280
 1360.5000   -34.3370     6.7680     8.2930    11.0110     8.9690   109.9850     2.4460     0.0300
 1361.0000   -34.3210     6.7680     8.3310    12.5210     8.9700   112.8960     2.4510     0.0330
 1361.5000   -34.3050     6.7680     8.3590    11.7290     8.9720   111.9200     2.4560     0.0360
 1362.0000   -34.2890     6.7680     8.4990    11.3180     8.9750   109.7930     2.4610     0.0390
 1362.5000   -34.2730     6.7670     8.6620    11.7420     8.9770   112.1180     2.4660     0.0420
 1363.0000   -34.2570     6.7680     8.7520    11.7420     8.9790   111.6170     2.4710     0.0400
 1363.5000   -34.2410     6.7720     8.7520    12.1810     8.9810   108.0600     2.4700     0.0380
 1364.0000   -34.2250     6.7020     8.6780    12.0080     8.9830   107.1500     2.4690     0.0360
 1364.5000   -34.2090     6.7100     8.5620    11.6180     8.9850   109.3410     2.4680     0.0340
 1365.0000   -34.1930     6.7290     8.4470    11.2290     8.9870   110.6590     2.4660     0.0320
 1365.5000   -34.1770     6.7400     8.3590    11.0110     8.9890   109.2580     2.4650     0.0310
 1366.0000   -34.1620     6.7510     8.5140    11.1380     8.9910   107.0700     2.4690     0.0300
 1366.5000   -34.1460     6.7620     8.9320    11.6760     8.9930   107.2130     2.4750     0.0320
 1367.0000   -34.1300     6.7730     9.0790    12.2150     8.9950   107.7260     2.4800     0.0340
 1367.5000   -34.1140     6.7840     9.0790    12.5210     8.9970   103.6710     2.4800     0.0360
 1368.0000   -34.0970     6.7950     9.0700    11.8000     8.9990    99.5700     2.4800     0.0370
 1368.5000   -34.0830     6.8060     9.0470    11.6340     9.0010    96.7870     2.4880     0.0390
 1369.0000   -34.0870     6.8180     9.0240    11.7830     9.0030    99.2290     2.4960     0.0410
 1369.5000   -34.0930     6.8290     9.0010    11.9280     9.0050   102.1110     2.5010     0.0390
 1370.0000   -34.0980     6.8400     8.5930    12.0690     9.0070   101.4420     2.4980     0.0370
 1370.5000   -34.1040     6.8510     9.0790    11.4710     9.0080    99.6500     2.4910     0.0350
 1371.0000   -34.1090     6.8620     8.4360    11.0110     9.0070   101.5390     2.4850     0.0320
 1371.5000   -34.1150     6.8730     8.6240    11.1770     9.0070   105.6700     2.4810     0.0300
 1372.0000   -34.1200     6.8840     9.1630    11.7690     9.0060   108.7440     2.4910     0.0330
