~VERSION INFORMATION
 VERS.                2.0:   CWLS LOG ASCII STANDARD - VERSION 2.0
 WRAP.                 NO:   ONE LINE PER DEPTH STEP
~WELL INFORMATION
#MNEM.UNIT      DATA TYPE    INFORMATION
#----------   ------------   ------------------------------
 STRT.F          594.5000:   START DEPTH
 STOP.F         3015.5000:   STOP DEPTH
 STEP.F            0.5000:   STEP LENGTH
 NULL.          -999.2500:   NO VALUE
 COMP.    FENIX & SCISSON:   COMPANY
 WELL.  FENIX "AX" #35-34:   WELL
 FLD .             NPR #3:   FIELD
 LOC .      S34 T39N R78W:   LOCATION
 CNTY.            NATRONA:   COUNTY
 STAT.            WYOMING:   STATE
 CTRY. UNITED STATES OF AMERICA:   COUNTRY
 SRVC.       SCHLUMBERGER:   SERVICE COMPANY
 DATE.        14-APR-1977:   LOGDATE
 API .     49025103390000:   API NUMBER
~CURVE INFORMATION
#MNEM.UNIT       API CODE    CURVE DESCRIPTION
#----------   ------------   ------------------------------
 DEPT.F                  :   
 CALD.IN     45 280 60 00:   CALIPER FROM DENSITY LOG
 RHOB.G/C3   45 350 01 00:   BULK DENSITY
 DRHO.G/C3   45 356 01 00:   DENSITY CORRECTION
 SPR .MV     07 010 01 00:   SPONTANEOUS POTENTIAL
 RILM.OHMM   07 120 44 00:   INDUCTION LOG MEDIUM RESISTIVITY
 RILD.OHMM   07 120 46 00:   DEEP INDUCTION RESISTIVITY
 LL8 .OHMM   07 220 08 00:   LATEROLOG-8 RES.
 GRD .GAPI   45 310 01 00:   GAMMA RAY FROM DENSITY LOG
~PARAMETER INFORMATION
#MNEM.UNIT          VALUE    DESCRIPTION
#----------   ------------   ------------------------------
 EKB .F         5116.0000:   Kelly bushing
 EGL .F         5104.0000:   Ground level
 EDF .F            0.0000:   Drilling floor
 TD  .F         3017.0000:   Total depth
 DATE.        14-APR-1977:   Date logged
 CLNT.            A2DTECH:   Client Code
 SL  . 2311' FSL & 1550' FWL:   Surface Location
 PD  .                 GL:   Permanent Datum
 EPD .F              5104:   Elevation Permanent Datum
 LMF .                 KB:   Log Measured From
 DMF .                 KB:   Drilling Measured From
 DAPD.F                12:   Feet Above Permanent Datum
 DD  .F              3012:   Depth driller
 DL  .F              3017:   Depth logger
 BLI .F              3011:   Bottom log interval
 TLI .F               600:   Top log interval
 CS1 .IN            8.625:   Casing size
 CBD1.      8.625" @ 601':   Casing driller 1
 CBL1.F               600:   Casing logger 1
 BS1 .IN            7.875:   Bit size
 BSD1.F              3012:   Depth drilled with bit1
 DFT .                FGM:   Type fluid in hole
 DFD .                9.2:   Density
 DFV .                 29:   Viscosity
 MSS .           FLOWLINE:   Source of sample
 RMS .OHMM          0.206:   Rm
 MST .F                60:   Rm Meas. temp.
 RMF .OHMM          0.192:   Rmf
 MFST.F                60:   Rmf Meas. temp.
 MFSS.               MEAS:   Source Rmf.
 RMB .OHMM          0.109:   Rm. at BHT
 BHT .F               113:   BHT.
 TLAB.HRS            0200:   Time logger at bottom
 MRT .F               113:   Maximum recorded temp.
 LUN .               7711:   Logging unit number
 LUL .               CSPR:   Logging unit location
 ENGI.             GEIGER:   Recorded By
 WITN.         PETTINGILL:   Witnessed by
 ORIG.           5" PRINT:   Origin of data
 UWI .     49025103390000:   Unique Well ID
 DICO. A2D TECHNOLOGIES, INC.:   Digitizing Company
~OTHER INFORMATION
~A   DEPT     CALD       RHOB       DRHO        SPR       RILM       RILD        LL8         GRD  
# ...
 2984.0000     8.0890     2.4560     0.0120   -73.4790     4.2540     3.9610     4.8400   110.1580
 2984.5000     8.0740     2.4580     0.0160   -72.9820     4.3150     4.0100     4.7430   112.8090
 2985.0000     8.0590     2.4700     0.0210   -72.4850     4.2610     3.9700     4.6470   113.4240
 2985.5000     8.0440     2.4830     0.0250   -71.9880     4.2020     3.9260     4.5510   114.2060
 2986.0000     8.0350     2.4950     0.0280   -71.4940     4.1420     3.8830     4.4540   118.9690
 2986.5000     8.0440     2.4950     0.0300   -71.2170     4.0820     3.8390     4.3580   121.6070
 2987.0000     8.0530     2.4860     0.0250   -71.3980     4.0230     3.7960     4.2370   119.9060
 2987.5000     8.0610     2.4780     0.0310   -71.5730     3.9370     3.7520     4.3190   119.2520
 2988.0000     8.0700     2.4780     0.0340   -71.7370     3.9610     3.7090     4.4770   116.8440
 2988.5000     8.0790     2.4890     0.0300   -72.1850     4.0050     3.6650     4.4600   116.0250
 2989.0000     8.0880     2.4800     0.0250   -72.6780     4.0480     3.6220     4.4290   116.8450
 2989.5000     8.0980     2.4690     0.0210   -73.1760     4.0840     3.5780     4.3990   117.9730
 2990.0000     8.1120     2.4600     0.0190   -73.6710     3.9930     3.5340     4.3680   118.2130
 2990.5000     8.1050     2.4650     0.0190   -74.1730     3.9160     3.4910     4.3300   116.9360
 2991.0000     8.0980     2.4590     0.0200   -74.9440     3.8380     3.4470     4.1930   114.7830
 2991.5000     8.0930     2.4690     0.0210   -75.5930     3.7600     3.4040     3.9730   115.6110
 2992.0000     8.0930     2.4820     0.0290   -75.7290     3.7600     3.3600     4.0050   117.9700
 2992.5000     8.0930     2.4880     0.0250   -75.8770     3.7600     3.3170     4.0830   119.9700
 2993.0000     8.0930     2.4830     0.0190   -76.0250     3.7000     3.2730     4.1600   119.3900
 2993.5000     8.0830     2.4640     0.0130   -76.1260     3.6410     3.2300     4.0270   119.7320
 2994.0000     8.0720     2.4450     0.0120   -76.0490     3.5810     3.1870     3.8960   122.0970
 2994.5000     8.0610     2.4250     0.0070   -75.9770     3.5220     3.2140     3.6920   124.4490
 2995.0000     8.0590     2.4350     0.0020   -75.7410     3.4630     3.1860     3.8350   124.6920
 2995.5000     8.0800     2.4480     0.0070   -75.3050     3.4030     3.1380     4.2760   123.2330
 2996.0000     8.0990     2.4490     0.0140   -74.8750     3.3440     3.0900     4.0640   121.4060
 2996.5000     8.1090     2.4680     0.0220   -74.5640     3.2850     3.0420     3.7370   120.1450
 2997.0000     8.0930     2.4630     0.0250   -74.6440     3.2250     2.9940     3.4300   124.2980
 2997.5000     8.0780     2.4790     0.0260   -74.7150     3.1660     2.9460     3.4940   127.1390
 2998.0000     8.0650     2.4720     0.0230   -74.6550     3.1060     2.8980     3.5260   126.3520
 2998.5000     8.0540     2.4600     0.0190   -74.5670     3.0470     2.8500     3.3770   125.2270
 2999.0000     8.1000     2.4480     0.0130   -74.8490     2.9890     2.8020     3.2590   124.3720
 2999.5000     8.0770     2.4240     0.0080   -75.1140     2.9340     2.7540     3.3650   125.9250
 3000.0000     8.0360     2.4320     0.0140   -74.8180     2.8780     2.7020     3.4990   129.1020
 3000.5000     8.0770     2.4430     0.0220   -74.6780     2.8350     2.6980     3.5910   132.3000
 3001.0000     8.0970     2.4480     0.0290   -75.1490     2.8910     2.6930     3.4260   135.2270
 3001.5000     8.0930     2.4410     0.0320   -75.6010     2.9620     2.6880     3.3000   135.2900
 3002.0000     8.0940     2.4580     0.0340   -76.0510     2.9420     2.6840     3.1740   135.2780
 3002.5000     8.0690     2.4730     0.0290   -76.5020     2.9050     2.6790     3.0160   135.2760
 3003.0000     8.0370     2.4580     0.0150   -76.9290     2.8670     2.6660     3.1170   135.2760
 3003.5000     8.0050     2.4460     0.0110   -77.1310     2.8300     2.6360     3.2510   135.2780
 3004.0000     7.9740     2.4340     0.0080   -77.3230     2.7930     2.6060     3.3850   135.3330
 3004.5000     7.9580     2.4200     0.0060   -77.5120     2.7560     2.5760     3.4940   135.3910
 3005.0000     7.9670     2.4280     0.0090   -77.2570     2.7190     2.5460     3.3340   135.4480
 3005.5000     7.9750     2.4340     0.0120   -76.9680     2.6820     2.5160     3.2000   135.5050
 3006.0000     7.9840     2.4270     0.0100   -76.6970     2.6510     2.4860     3.0660   135.5630
 3006.5000     7.9930     2.4180     0.0040   -76.5510     2.6450     2.4560     2.9340   135.6200
 3007.0000     7.9800     2.4110     0.0070   -76.3990     2.6390     2.4260     2.9280   135.6700
 3007.5000     7.9640     2.4180     0.0100   -76.2490     2.6330     2.3960     2.9230   135.6290
 3008.0000     7.9480     2.4250     0.0120   -76.1220     2.6280     2.3660     2.9170   135.5880
 3008.5000     7.9370     2.4260     0.0070   -75.8150     2.6530     2.3360     2.9110   135.5480
 3009.0000     7.9590     2.4270     0.0030   -75.5130     2.6280     2.3330     2.9080   135.5090
 3009.5000     7.9800     2.4200     0.0020   -75.2040     2.5800     2.3330     3.2170   135.4730
 3010.0000     7.9870     2.4140     0.0120   -75.3210     2.5100     2.3330     3.1230   135.4740
 3010.5000     7.9670     2.4430     0.0250   -75.5360     2.4650     2.3330     2.9340   135.4740
 3011.0000     7.9470     2.4720     0.0390   -75.7380  -999.2500  -999.2500     2.7450   135.4740
 3011.5000     7.9270     2.4530     0.0170  -999.2500  -999.2500  -999.2500  -999.2500  -999.2500
 3012.0000     7.9230     2.4210     0.0170  -999.2500  -999.2500  -999.2500  -999.2500  -999.2500
 3012.5000     7.9430     2.4120     0.0180  -999.2500  -999.2500  -999.2500  -999.2500  -999.2500
 3013.0000     7.9400     2.4240     0.0190  -999.2500  -999.2500  -999.2500  -999.2500  -999.2500
 3013.5000     7.9060     2.4300     0.0250  -999.2500  -999.2500  -999.2500  -999.2500  -999.2500
 3014.0000     7.8730     2.4510     0.0370  -999.2500  -999.2500  -999.2500  -999.2500  -999.2500
 3014.5000     7.8390     2.4480     0.0470  -999.2500  -999.2500  -999.2500  -999.2500  -999.2500
 3015.0000     7.7690     2.4610     0.0580  -999.2500  -999.2500  -999.2500  -999.2500  -999.2500
 3015.5000     7.6930     2.4590  -999.2500  -999.2500  -999.2500  -999.2500  -999.2500  -999.2500
