~VERSION INFORMATION
 VERS.                2.0:   CWLS LOG ASCII STANDARD - VERSION 2.0
 WRAP.                 NO:   ONE LINE PER DEPTH STEP
~WELL INFORMATION
#MNEM.UNIT      DATA TYPE    INFORMATION
#----------   ------------   ------------------------------
 STRT.F          198.0000:   START DEPTH
 STOP.F         3034.0000:   STOP DEPTH
 STEP.F            0.5000:   STEP LENGTH
 NULL.          -999.2500:   NO VALUE
 COMP.    FENIX & SCISSON:   COMPANY
 WELL.   FENIX "A" #44-29:   WELL
 FLD .              NPR-3:   FIELD
 LOC .      S29 T39N R78W:   LOCATION
 CNTY.            NATRONA:   COUNTY
 STAT.            WYOMING:   STATE
 CTRY. UNITED STATES OF AMERICA:   COUNTRY
 SRVC.              WELEX:   SERVICE COMPANY
 DATE.        26-MAY-1977:   LOGDATE
 API .     49025103690000:   API NUMBER
~CURVE INFORMATION
#MNEM.UNIT       API CODE    CURVE DESCRIPTION
#----------   ------------   ------------------------------
 DEPT.F                  :   
 SPR .MV     07 010 01 00:   SPONTANEOUS POTENTIAL
 ILD .OHMM   07 120 46 00:   DEEP INDUCTION RESISTIVITY
 ILM .OHMM   07 120 44 00:   INDUCTION LOG MEDIUM RESISTIVITY
 SGRD.OHMM   07 220 05 00:   SHALLOW SHORT GUARD RESISTIVITY
 CALD.IN     45 280 60 00:   CALIPER FROM DENSITY LOG
 GRD .GAPI   45 310 01 00:   GAMMA RAY FROM DENSITY LOG
 RHOB.G/C3   45 350 01 00:   BULK DENSITY
 CORR.G/C3   45 356 01 00:   DENSITY CORRECTION
~PARAMETER INFORMATION
#MNEM.UNIT          VALUE    DESCRIPTION
#----------   ------------   ------------------------------
 EKB .F         5010.0000:   Kelly bushing
 EGL .F         5000.0000:   Ground level
 EDF .F            0.0000:   Drilling floor
 TD  .F         3036.0000:   Total depth
 DATE.        26-MAY-1977:   Date logged
 CLNT.            A2DTECH:   Client Code
 SL  . 2310' FNL & 2310' FWL:   Surface Location
 PD  .                 GL:   Permanent Datum
 EPD .F              5000:   Elevation Permanent Datum
 LMF .                 KB:   Log Measured From
 DMF .                 KB:   Drilling Measured From
 DD  .F              3035:   Depth driller
 DL  .F              3036:   Depth logger
 BLI .F              3034:   Bottom log interval
 TLI .F               210:   Top log interval
 CS1 .IN            8.625:   Casing size
 CBD1.      8.625" @ 245':   Casing driller 1
 CBL1.F               220:   Casing logger 1
 BS1 .IN            7.875:   Bit size
 BSD1.F              3035:   Depth drilled with bit1
 DFT .            KCL MUD:   Type fluid in hole
 DFD .                8.8:   Density
 DFV .                 34:   Viscosity
 DFPH.                7.5:   pH
 DFL .                6.6:   Fluid loss
 MSS .           FLOWLINE:   Source of sample
 RMS .OHMM           0.20:   Rm
 MST .F                89:   Rm Meas. temp.
 RMF .OHMM           0.17:   Rmf
 MFST.F                89:   Rmf Meas. temp.
 RMC .OHMM           0.30:   Rmc
 MCST.F                89:   Rmc Meas. temp.
 MFSS.               FANN:   Source Rmf.
 MCSS.                KIT:   Source Rmc.
 RMB .OHMM           0.16:   Rm. at BHT
 BHT .F               110:   BHT.
 TCS .HRS             2.5:   Time Circ. stopped
 MRT .F               110:   Maximum recorded temp.
 LUN .               8611:   Logging unit number
 LUL .             CASPER:   Logging unit location
 ENGI.            C. DOAK:   Recorded By
 WITN.      B. HARRINGTON:   Witnessed by
 ORIG.           5" PRINT:   Origin of data
 UWI .     49025103690000:   Unique Well ID
 DICO. A2D TECHNOLOGIES, INC.:   Digitizing Company
~OTHER INFORMATION
~A   DEPT      SPR        ILD        ILM       SGRD       CALD         GRD      RHOB       CORR   
# ...
 2061.0000   -34.3790     6.7270    10.4200    10.7110     8.4710   105.3940     2.3570     0.0850
 2061.5000   -34.4540     6.5320    10.5440    10.7110     8.4840   106.0190     2.3430     0.0730
 2062.0000   -34.5300     6.3380    10.9100    11.2150     8.4970   107.0090     2.3390     0.0600
 2062.5000   -34.6450     6.2150    10.5420    10.8460     8.5370   108.0010     2.3820     0.0550
 2063.0000   -34.7580     6.1800    10.1370    10.2310     8.5750   108.9400     2.4180     0.0750
 2063.5000   -34.8730     6.1450    11.4720    10.7110     8.6720   107.6410     2.4250     0.0900
 2064.0000   -34.9870     6.1090    12.7460    10.2120     8.8090   105.5270     2.4140     0.1060
 2064.5000   -35.1010     6.0740    14.0190     9.8620     8.8240   103.4330     2.4050     0.1210
 2065.0000   -35.2150     6.0620    15.7520     9.8620     8.9350   102.8680     2.3980     0.1360
 2065.5000   -35.3300     6.0670    14.9110    10.3290     9.0650   103.8430     2.4000     0.1440
 2066.0000   -35.4440     6.0760    12.9950    10.8850     9.0590   103.5640     2.4040     0.1530
 2066.5000   -35.5580     6.0850    11.4220    11.4220     9.0470   102.0450     2.3990     0.1370
 2067.0000   -35.6730     6.0940    11.7700    11.4220     9.1160   100.5270     2.3890     0.1210
 2067.5000   -35.7870     6.1030    12.4550     9.9950     9.1150    99.0010     2.3790     0.1050
 2068.0000   -35.9010     6.1170    11.1920     9.1990     9.0180    97.6540     2.3700     0.0880
 2068.5000   -36.0150     6.0460     9.0810     8.8870     8.9180    97.9400     2.3610     0.0710
 2069.0000   -36.1300     5.8780     6.9690     8.6380     8.7840    99.1350     2.3680     0.0500
 2069.5000   -36.2440     5.7110     5.8970     8.4030     8.5380   100.3270     2.3740     0.0340
 2070.0000   -36.3580     5.5430     5.6800     8.1680     8.2860    99.0100     2.3800     0.0240
 2070.5000   -36.4720     5.4790     5.6320     7.9840     8.0130    96.1820     2.3850     0.0240
 2071.0000   -36.5900     5.4790     5.6320     7.9110     8.0200    96.5660     2.3900     0.0220
 2071.5000   -36.6120     5.4790     5.6320     8.0350     8.0890    97.6260     2.3940     0.0310
 2072.0000   -36.6010     5.4790     5.6320     8.8110     8.1520    98.6760     2.4050     0.0390
 2072.5000   -36.5890     5.4790     6.2570    10.5740     8.2160    98.7640     2.4170     0.0480
 2073.0000   -36.5770     5.4790     7.0210    11.6910     8.2680    97.8870     2.4290     0.0540
 2073.5000   -36.5650     5.3770     7.4120    12.0690     8.3230    97.0020     2.4340     0.0510
 2074.0000   -36.5530     5.2510     7.4870    10.5160     8.3310    96.1650     2.4330     0.0490
 2074.5000   -36.5410     5.1250     7.4190    10.2000     8.3220    96.4440     2.4380     0.0490
 2075.0000   -36.5290     4.9990     6.7680     9.3760     8.3130    98.3450     2.4550     0.0530
 2075.5000   -36.5170     4.8720     6.0900     8.4270     8.3040   100.4410     2.4490     0.0570
 2076.0000   -36.5060     4.7460     5.4120     7.4780     8.2880   102.5030     2.4340     0.0590
 2076.5000   -36.4940     4.6380     5.1380     6.5240     8.2520   105.9120     2.4180     0.0530
 2077.0000   -36.4820     4.6060     5.3440     6.5240     8.2170   109.1630     2.4030     0.0480
 2077.5000   -36.4700     4.5600     5.7900     7.4640     8.2300   111.2660     2.3990     0.0430
 2078.0000   -36.4580     4.5690     6.4010     8.4130     8.2910   107.3440     2.4010     0.0380
 2078.5000   -36.4460     4.5860     7.0210     9.3610     8.3540   103.0940     2.4060     0.0350
 2079.0000   -36.4330     4.6020     7.0860    10.3250     8.2930   102.3280     2.4050     0.0340
 2079.5000   -36.3920     4.6710     6.6120     9.1860     8.2180   103.5480     2.3960     0.0320
 2080.0000   -36.2630     4.7410     6.1170     6.8930     8.2200   104.8190     2.3820     0.0270
 2080.5000   -36.1380     4.8110     6.1740     7.9460     8.2470   104.9560     2.3680     0.0210
 2081.0000   -36.0130     4.8810     6.0620     9.0790     8.2770   102.0330     2.3670     0.0210
 2081.5000   -35.8870     4.9530     6.1740     8.5600     8.2830   102.8070     2.3730     0.0290
 2082.0000   -35.7620     5.1350     6.3920     8.2830     8.2870   107.5550     2.3910     0.0380
 2082.5000   -35.6370     5.3120     6.8230     8.4460     8.2920   111.9610     2.4090     0.0460
 2083.0000   -35.5120     5.4890     7.2540     8.8850     8.2960   116.3310     2.4130     0.0510
 2083.5000   -35.4500     5.6660     7.6850     9.8230     8.3010   118.4810     2.4140     0.0540
 2084.0000   -35.4500     5.8430     8.1320    11.6210     8.3060   116.6980     2.4080     0.0560
 2084.5000   -35.4490     6.0620     8.2860    13.4750     8.3100   111.6930     2.4020     0.0560
 2085.0000   -35.4490     6.0380     8.4250    12.8070     8.3150   107.7820     2.4020     0.0520
 2085.5000   -35.4490     6.0080     8.6900     9.6820     8.3150   103.6180     2.4030     0.0480
 2086.0000   -35.4490     5.9780     9.3330     9.7360     8.3090    98.8910     2.4150     0.0440
 2086.5000   -35.4490     5.9480     9.2920     9.8860     8.3030    96.8310     2.4290     0.0460
 2087.0000   -35.4490     5.9170     9.1770    10.0230     8.2950    95.5610     2.4430     0.0460
 2087.5000   -35.4490     5.8870     9.0790    10.2310     8.3520    95.3660     2.4570     0.0460
 2088.0000   -35.4490     5.8570     9.0790    10.2310     8.7110    97.4340     2.4700     0.0460
 2088.5000   -35.4490     5.8430     9.2670     9.7720     8.7550    99.5190     2.4760     0.0420
 2089.0000   -35.4490     5.8900     9.4640     9.7720     8.6610    99.6030     2.4770     0.0380
 2089.5000   -35.4490     5.9260     9.7560     9.9750     8.4010    97.4560     2.4640     0.0340
 2090.0000   -35.4490     5.9610    10.2300    10.1910     8.3950    95.0470     2.4530     0.0310
 2090.5000   -35.4490     5.9960    10.7030    10.4200     8.4280    92.7080     2.4510     0.0270
 2091.0000   -35.4490     6.0310    11.1650    10.1690     8.4740    92.5840     2.4510     0.0260
 2091.5000   -35.4490     6.0660    11.4220    10.0440     8.5190    94.4440     2.4500     0.0240
 2092.0000   -35.4490     6.1020    11.4220    10.5160     8.5650    96.2440     2.4410     0.0280
 2092.5000   -35.4490     6.1370    10.8750    10.2700     8.6100    98.0280     2.4320     0.0340
 2093.0000   -35.4490     6.1720    10.7110    10.0440     8.6330    99.8130     2.4230     0.0410
 2093.5000   -35.4490     6.2070    10.9100    10.4460     8.6320   101.6150     2.4140     0.0480
 2094.0000   -35.4490     6.2310    11.1830    11.2070     8.5580   103.4370     2.4050     0.0550
 2094.5000   -35.4490     6.1730    11.3880    11.9690     8.4740   102.7450     2.4000     0.0490
 2095.0000   -35.4490     6.1300    11.0280    12.1810     8.3890   100.1320     2.3960     0.0430
 2095.5000   -35.4740     5.9820    10.4710    11.2860     8.3000   102.4430     2.3900     0.0350
 2096.0000   -35.5230     5.7940     9.9150    10.6080     8.3670   104.7190     2.3940     0.0410
 2096.5000   -35.5710     5.6060     9.3580     9.9310     8.4680   106.3110     2.3980     0.0510
 2097.0000   -35.6200     5.4180     8.7520     9.2530     8.4840   106.1170     2.3830     0.0550
 2097.5000   -35.6440     5.2300     8.0780     8.5140     8.3870   105.8900     2.3720     0.0570
 2098.0000   -35.6440     5.1170     7.3510     8.3810     8.2880   108.8530     2.3560     0.0580
 2098.5000   -35.6450     5.0760     7.2170     8.2340     8.1890   112.7450     2.3640     0.0540
 2099.0000   -35.6450     5.0350     7.2840     8.1320     8.0910   116.3210     2.3820     0.0470
 2099.5000   -35.6450     5.0010     8.0560     8.0580     8.0210   119.7030     2.4000     0.0400
 2100.0000   -35.6450     5.0270     8.9960    11.8500     8.1540   122.1970     2.4050     0.0320
 2100.5000   -35.6450     5.0530     8.9960    11.5830     8.2870   119.7260     2.4080     0.0320
 2101.0000   -35.6450     5.0790     8.5100    10.5970     8.3850   116.3730     2.4040     0.0250
