~VERSION INFORMATION
 VERS.                2.0:   CWLS LOG ASCII STANDARD - VERSION 2.0
 WRAP.                 NO:   ONE LINE PER DEPTH STEP
~WELL INFORMATION
#MNEM.UNIT      DATA TYPE    INFORMATION
#----------   ------------   ------------------------------
 STRT.F          210.0000:   START DEPTH
 STOP.F         2955.0000:   STOP DEPTH
 STEP.F            0.5000:   STEP LENGTH
 NULL.          -999.2500:   NO VALUE
 COMP.    FENIX & SCISSON:   COMPANY
 WELL.     FENIX A #54-28:   WELL
 FLD .                NPR:   FIELD
 LOC .      S28 T39N R78W:   LOCATION
 CNTY.            NATRONA:   COUNTY
 STAT.            WYOMING:   STATE
 CTRY. UNITED STATES OF AMERICA:   COUNTRY
 SRVC.              WELEX:   SERVICE COMPANY
 DATE.        17-MAY-1977:   LOGDATE
 API .     49025103650000:   API NUMBER
~CURVE INFORMATION
#MNEM.UNIT       API CODE    CURVE DESCRIPTION
#----------   ------------   ------------------------------
 DEPT.F                  :   
 SPR .MV     07 010 01 00:   SPONTANEOUS POTENTIAL
 RILM.OHMM   07 120 44 00:   INDUCTION LOG MEDIUM RESISTIVITY
 RILD.OHMM   07 120 46 00:   INDUCTION LOG DEEP RESISTIVITY
 SGRD.OHMM   07 220 05 00:   SHALLOW GUARD LOG RESISTIVITY
 CALD.IN     45 280 60 00:   CALIPER FROM DENSITY LOG
 RHOB.G/C3   45 350 01 00:   BULK DENSITY
 DCOR.G/C3   45 356 01 00:   DENSITY CORRECTION
 GRD .GAPI   45 310 01 00:   GAMMA RAY FROM DENSITY LOG
~PARAMETER INFORMATION
#MNEM.UNIT          VALUE    DESCRIPTION
#----------   ------------   ------------------------------
 EKB .F         5045.0000:   Kelly bushing
 EGL .F         5035.0000:   Ground level
 EDF .F            0.0000:   Drilling floor
 EPD .F         5035.0000:   Permanent datum
 TD  .F         2956.0000:   Total depth
 DATE.        17-MAY-1977:   Date logged
 CLNT.            A2DTECH:   Client Code
 SL  . 2310' FNL & 2310' FEL:   Surface Location
 PD  .                 GL:   Permanent Datum
 LMF .                 KB:   Log Measured From
 DMF .                 KB:   Drilling Measured From
 DAPD.F                10:   Feet Above Permanent Datum
 DD  .F              2947:   Depth driller
 DL  .F              2956:   Depth logger
 BLI .F              2954:   Bottom log interval
 TLI .F               210:   Top log interval
 CS1 .IN            8.625:   Casing size
 CBD1.      8.625" @ 200':   Casing driller 1
 CBL1.F               216:   Casing logger 1
 BS1 .IN            7.875:   Bit size
 BSD1.F              2947:   Depth drilled with bit1
 DFT .            KCL MUD:   Type fluid in hole
 DFD .                  9:   Density
 DFV .                 32:   Viscosity
 DFPH.                7.5:   pH
 DFL .                5.3:   Fluid loss
 MSS .           FLOWLINE:   Source of sample
 RMS .OHMM            .18:   Rm
 MST .F                84:   Rm Meas. temp.
 RMF .OHMM            .16:   Rmf
 MFST.F                84:   Rmf Meas. temp.
 RMC .OHMM            .62:   Rmc
 MCST.F                84:   Rmc Meas. temp.
 RMB .OHMM            .12:   Rm. at BHT
 BHT .F               124:   BHT.
 TCS .HRS               2:   Time Circ. stopped
 MRT .F               124:   Maximum recorded temp.
 LUN .               9685:   Logging unit number
 LUL .           BRIGHTON:   Logging unit location
 ENGI.           T JOYNER:   Recorded By
 WITN.      W. PETTINGILL:   Witnessed by
 ORIG.           5" PRINT:   Origin of data
 UWI .     49025103650000:   Unique Well ID
 DICO. A2D TECHNOLOGIES, INC.:   Digitizing Company
~OTHER INFORMATION
~A   DEPT      SPR       RILM        RILD        SGRD       CALD       RHOB      DCOR        GRD  
# ...
 2194.5000   -49.4030     8.0960     8.4680    13.6570     8.0020     2.4030     0.0240   111.6460
 2195.0000   -49.4050     8.0490     8.3950    13.7700     8.0050     2.4090     0.0260   113.6440
 2195.5000   -49.4050     8.0020     8.3230    14.8860     8.0090     2.4190     0.0270   115.5470
 2196.0000   -49.4050     7.9470     8.2510    14.0840     8.0130     2.4280     0.0280   117.7190
 2196.5000   -49.4050     7.7660     8.1780    13.3920     8.0170     2.4380     0.0300   118.6630
 2197.0000   -49.4050     7.5480     8.1060    13.0150     8.0210     2.4470     0.0310   116.2450
 2197.5000   -49.4050     7.2470     8.0330    12.7200     8.0250     2.4550     0.0320   113.0460
 2198.0000   -49.4050     7.3520     7.9470    12.4320     8.0280     2.4580     0.0330   109.9550
 2198.5000   -49.4050     7.5190     7.8860    12.1510     8.0320     2.4600     0.0350   106.8410
 2199.0000   -49.4050     7.4710     7.8100    12.6200     8.0360     2.4610     0.0350   104.4970
 2199.5000   -49.4050     7.4220     7.7340    13.0820     8.0400     2.4570     0.0350   104.8210
 2200.0000   -49.4050     7.3740     7.6580    12.8720     8.0440     2.4530     0.0340   105.1150
 2200.5000   -49.4050     7.3260     7.5820    12.3770     8.0480     2.4500     0.0340   104.1280
 2201.0000   -49.4050     7.2780     7.5190    12.5090     8.0510     2.4520     0.0340   102.7320
 2201.5000   -49.4050     7.1400     7.3530    12.8420     8.0550     2.4530     0.0330   101.3430
 2202.0000   -49.4050     6.8430     7.1350    12.0520     8.0590     2.4540     0.0330   100.0070
 2202.5000   -49.3970     6.5450     6.9170    10.4830     8.0560     2.4560     0.0330    98.5600
 2203.0000   -49.3710     6.2470     6.7000     9.9990     8.0500     2.4550     0.0320    98.0260
 2203.5000   -49.3470     5.9150     6.4820     9.4720     8.0440     2.4540     0.0320    98.2570
 2204.0000   -49.3220     5.9940     6.3490     8.6830     8.0380     2.4540     0.0320    98.3870
 2204.5000   -49.2960     6.1590     6.3080     8.7160     8.0320     2.4480     0.0310    98.5330
 2205.0000   -49.2710     6.3240     6.2520    10.0780     8.0260     2.4380     0.0300    98.7410
 2205.5000   -49.2460     6.4890     6.3560    11.6740     8.0210     2.4270     0.0290    98.3580
 2206.0000   -49.2210     6.6550     6.5200    12.6080     8.0150     2.4190     0.0280    96.8940
 2206.5000   -49.1960     6.8200     6.6830    12.3290     8.0090     2.4150     0.0260    95.4460
 2207.0000   -49.1710     6.9850     6.8470    12.0530     8.0030     2.4150     0.0250    94.0470
 2207.5000   -49.1460     7.1500     6.9840    11.7780     7.9970     2.4140     0.0240    92.4930
 2208.0000   -49.1220     7.3150     7.2370    11.7100     7.9910     2.4110     0.0230    92.0790
 2208.5000   -49.0960     7.4800     7.4550    11.7100     7.9860     2.4050     0.0220    91.6240
 2209.0000   -49.0710     7.6590     7.6730    12.3250     7.9800     2.4030     0.0200    91.2620
 2209.5000   -49.0470     8.3550     7.8900    13.1740     7.9830     2.4020     0.0190    90.9230
 2210.0000   -49.0170     9.2120     8.1080    14.0240     7.9860     2.4010     0.0200    89.6220
 2210.5000   -49.0390     9.2580     8.3260    15.1630     7.9890     2.3990     0.0210    86.7300
 2211.0000   -49.1170     9.3110     8.7380    14.8320     7.9910     2.3970     0.0220    83.7400
 2211.5000   -49.1890     9.3840     9.2500    14.3300     7.9940     2.3980     0.0220    83.8190
 2212.0000   -49.2620     9.2120     9.7630    13.8280     7.9970     2.4060     0.0230    85.9590
 2212.5000   -49.3360     9.5720    10.2750    13.3250     8.0000     2.4140     0.0240    86.4790
 2213.0000   -49.4080    10.2910    10.7880    13.8280     8.0030     2.4230     0.0250    87.0470
 2213.5000   -49.4820    10.6540    11.3000    14.3300     8.0060     2.4310     0.0260    87.4850
 2214.0000   -49.5550    10.9600    12.1510    15.1630     8.0090     2.4320     0.0270    90.7780
 2214.5000   -49.6280    11.2860    12.0770    14.8860     8.0110     2.4110     0.0270    92.6050
 2215.0000   -49.7010    11.0950    11.8600    13.9240     8.0140     2.3970     0.0250    93.4320
 2215.5000   -49.7750    10.8910    11.5380    12.3770     8.0170     2.3860     0.0230    94.3070
 2216.0000   -49.8480    10.6870    10.9810    12.7200     8.0200     2.3800     0.0220    95.1470
 2216.5000   -49.9210    10.4830    10.4250    13.4120     8.0230     2.3810     0.0200    96.7310
 2217.0000   -49.9940    10.2910     9.8680    14.3460     8.0260     2.3830     0.0190    99.1170
 2217.5000   -50.0680     9.7010     9.3110    13.9340     8.0280     2.3720     0.0220   101.3930
 2218.0000   -50.1420     9.1430     8.7540    13.0970     8.0310     2.3690     0.0250   104.4900
 2218.5000   -50.1810     8.5850     8.1980    11.9910     8.0340     2.3750     0.0280   108.1130
 2219.0000   -50.1120     8.0260     7.6410    10.8770     8.0370     2.3710     0.0310   109.6010
 2219.5000   -50.0450     7.4680     7.0840    10.5010     8.0400     2.3630     0.0290   109.6290
 2220.0000   -49.9740     7.0750     6.7310    10.5360     8.0430     2.3560     0.0270   112.4160
 2220.5000   -49.9050     6.9840     6.7310    10.6040     8.0450     2.3480     0.0250   116.7640
 2221.0000   -49.8350     7.5890     6.9510    10.6780     8.0480     2.3400     0.0220   120.4340
 2221.5000   -49.7650     8.1170     7.2470    12.9710     8.0510     2.3410     0.0200   123.7000
 2222.0000   -49.6950     8.6450     7.5440    17.3770     8.0540     2.3370     0.0170   126.8840
 2222.5000   -49.6270     9.1720     7.8400    20.0810     8.0570     2.3330     0.0150   129.7580
 2223.0000   -49.5540     9.5880     8.1370    20.6270     8.0600     2.3350     0.0160   128.4700
 2223.5000   -49.4890     9.7370     8.4340    20.3730     8.0550     2.3360     0.0160   127.1100
 2224.0000   -49.4130     9.6900     8.7300    18.5040     8.0480     2.3380     0.0160   126.6060
 2224.5000   -49.4750     9.6180     9.0270    16.0260     8.0420     2.3390     0.0170   129.2730
 2225.0000   -49.5590     9.5450     9.3840    16.1160     8.0360     2.3410     0.0170   131.8430
 2225.5000   -49.6460     9.4730     9.1660    16.3250     8.0290     2.3380     0.0180   134.5190
 2226.0000   -49.7290     9.4010     8.8920    15.3580     8.0230     2.3380     0.0180   137.1640
 2226.5000   -49.8150     8.2460     8.7160    13.6830     8.0160     2.3410     0.0180   139.7900
 2227.0000   -49.9000     7.8520     8.3340    12.0070     8.0100     2.3430     0.0190   142.4590
 2227.5000   -49.9840     7.4380     7.9260    10.4830     8.0030     2.3460     0.0190   145.0960
 2228.0000   -50.0700     7.0240     7.5180    12.1510     7.9970     2.3470     0.0160   147.6810
 2228.5000   -50.1540     6.4440     7.1100    11.6740     7.9910     2.3510     0.0120   150.5500
 2229.0000   -50.2460     5.4650     6.7010    10.0460     7.9840     2.3550     0.0130   150.7980
 2229.5000   -50.3430     4.6730     6.2930     8.4180     7.9830     2.3720     0.0180   148.7250
 2230.0000   -50.4390     4.4160     5.8850     6.8560     7.9950     2.3920     0.0230   146.9440
 2230.5000   -50.5440     4.1660     5.4770     6.6670     8.0070     2.4180     0.0270   145.1430
 2231.0000   -50.5940     3.9410     5.0690     6.4870     8.0180     2.4420     0.0320   143.1910
 2231.5000   -50.5720     3.9690     4.7400     6.0140     8.0300     2.4650     0.0360   140.9410
 2232.0000   -50.5590     4.0150     4.5860     6.3890     8.0410     2.4730     0.0410   137.8390
 2232.5000   -50.5440     4.0610     4.4580     7.3820     8.0520     2.4780     0.0430   134.6470
 2233.0000   -50.5290     4.1070     4.3220     7.3020     8.0640     2.4830     0.0430   131.4160
 2233.5000   -50.5140     4.1530     4.3980     7.0730     8.0760     2.4880     0.0430   128.2240
 2234.0000   -50.4990     4.2140     4.4780     6.7310     8.0860     2.4930     0.0430   125.2210
 2234.5000   -50.4840     4.3690     4.5580     6.8400     8.0990     2.4960     0.0430   123.2470
