~VERSION INFORMATION
 VERS.                2.0:   CWLS LOG ASCII STANDARD - VERSION 2.0
 WRAP.                 NO:   ONE LINE PER DEPTH STEP
~WELL INFORMATION
#MNEM.UNIT      DATA TYPE    INFORMATION
#----------   ------------   ------------------------------
 STRT.F          594.5000:   START DEPTH
 STOP.F         3015.5000:   STOP DEPTH
 STEP.F            0.5000:   STEP LENGTH
 NULL.          -999.2500:   NO VALUE
 COMP.    FENIX & SCISSON:   COMPANY
 WELL.  FENIX "AX" #35-34:   WELL
 FLD .             NPR #3:   FIELD
 LOC .      S34 T39N R78W:   LOCATION
 CNTY.            NATRONA:   COUNTY
 STAT.            WYOMING:   STATE
 CTRY. UNITED STATES OF AMERICA:   COUNTRY
 SRVC.       SCHLUMBERGER:   SERVICE COMPANY
 DATE.        14-APR-1977:   LOGDATE
 API .     49025103390000:   API NUMBER
~CURVE INFORMATION
#MNEM.UNIT       API CODE    CURVE DESCRIPTION
#----------   ------------   ------------------------------
 DEPT.F                  :   
 CALD.IN     45 280 60 00:   CALIPER FROM DENSITY LOG
 RHOB.G/C3   45 350 01 00:   BULK DENSITY
 DRHO.G/C3   45 356 01 00:   DENSITY CORRECTION
 SPR .MV     07 010 01 00:   SPONTANEOUS POTENTIAL
 RILM.OHMM   07 120 44 00:   INDUCTION LOG MEDIUM RESISTIVITY
 RILD.OHMM   07 120 46 00:   DEEP INDUCTION RESISTIVITY
 LL8 .OHMM   07 220 08 00:   LATEROLOG-8 RES.
 GRD .GAPI   45 310 01 00:   GAMMA RAY FROM DENSITY LOG
~PARAMETER INFORMATION
#MNEM.UNIT          VALUE    DESCRIPTION
#----------   ------------   ------------------------------
 EKB .F         5116.0000:   Kelly bushing
 EGL .F         5104.0000:   Ground level
 EDF .F            0.0000:   Drilling floor
 TD  .F         3017.0000:   Total depth
 DATE.        14-APR-1977:   Date logged
 CLNT.            A2DTECH:   Client Code
 SL  . 2311' FSL & 1550' FWL:   Surface Location
 PD  .                 GL:   Permanent Datum
 EPD .F              5104:   Elevation Permanent Datum
 LMF .                 KB:   Log Measured From
 DMF .                 KB:   Drilling Measured From
 DAPD.F                12:   Feet Above Permanent Datum
 DD  .F              3012:   Depth driller
 DL  .F              3017:   Depth logger
 BLI .F              3011:   Bottom log interval
 TLI .F               600:   Top log interval
 CS1 .IN            8.625:   Casing size
 CBD1.      8.625" @ 601':   Casing driller 1
 CBL1.F               600:   Casing logger 1
 BS1 .IN            7.875:   Bit size
 BSD1.F              3012:   Depth drilled with bit1
 DFT .                FGM:   Type fluid in hole
 DFD .                9.2:   Density
 DFV .                 29:   Viscosity
 MSS .           FLOWLINE:   Source of sample
 RMS .OHMM          0.206:   Rm
 MST .F                60:   Rm Meas. temp.
 RMF .OHMM          0.192:   Rmf
 MFST.F                60:   Rmf Meas. temp.
 MFSS.               MEAS:   Source Rmf.
 RMB .OHMM          0.109:   Rm. at BHT
 BHT .F               113:   BHT.
 TLAB.HRS            0200:   Time logger at bottom
 MRT .F               113:   Maximum recorded temp.
 LUN .               7711:   Logging unit number
 LUL .               CSPR:   Logging unit location
 ENGI.             GEIGER:   Recorded By
 WITN.         PETTINGILL:   Witnessed by
 ORIG.           5" PRINT:   Origin of data
 UWI .     49025103390000:   Unique Well ID
 DICO. A2D TECHNOLOGIES, INC.:   Digitizing Company
~OTHER INFORMATION
~A   DEPT     CALD       RHOB       DRHO        SPR       RILM       RILD        LL8         GRD  
# ...
 1404.5000    10.0580     2.5390     0.0290   -80.3420     8.8930     8.2620     9.6590   102.8470
 1405.0000    10.0570     2.5460     0.0270   -79.9770     8.8520     8.2290     9.7140   101.1910
 1405.5000    10.0640     2.5300     0.0240   -79.5710     8.8100     8.1960     9.7720    99.3570
 1406.0000    10.0720     2.5140     0.0180   -79.1640     8.7690     8.1630     9.4150    97.8540
 1406.5000    10.0760     2.5070     0.0140   -78.9570     8.7280     8.1300     9.0470    97.4920
 1407.0000    10.0630     2.5150     0.0090   -79.0670     8.6870     8.0970     8.6720   100.4790
 1407.5000    10.0530     2.5110     0.0110   -79.3040     8.6460     8.0630     8.7740   104.6290
 1408.0000    10.0440     2.5350     0.0240   -79.6180     8.6040     8.0300     8.9040   103.9470
 1408.5000    10.0430     2.5280     0.0170   -79.9330     8.5630     7.9970     9.0340   103.6060
 1409.0000    10.0600     2.5140     0.0110   -80.2380     8.5220     7.9760     9.1630   103.6250
 1409.5000    10.0760     2.5120     0.0140   -80.5940     8.4900     7.9630     9.1170   100.5170
 1410.0000    10.0930     2.5160     0.0170   -80.9410     8.4610     7.9500     9.0590    97.3760
 1410.5000    10.1090     2.5150     0.0150   -81.2910     8.4310     7.9370     9.0020    95.2020
 1411.0000    10.1010     2.5100     0.0130   -81.6400     8.4020     7.9230     8.9450    94.5280
 1411.5000    10.0710     2.5140     0.0140   -81.8420     8.3730     7.9100     8.8880    96.9380
 1412.0000    10.0820     2.5190     0.0190   -82.0240     8.3430     7.8970     8.8330    99.3440
 1412.5000    10.0880     2.5050     0.0130   -82.2040     8.3140     7.8840     8.8850    99.9270
 1413.0000    10.0950     2.4900     0.0030   -82.3850     8.2840     7.8710     8.9470   101.5100
 1413.5000    10.1020     2.4860     0.0080   -82.3890     8.2550     7.8580     9.0090   101.8600
 1414.0000    10.1090     2.4980     0.0160   -82.2230     8.2250     7.8440     9.0710   101.9060
 1414.5000    10.1170     2.5090     0.0160   -82.0030     8.1960     7.8310     8.9670   103.3190
 1415.0000    10.1090     2.5190     0.0190   -81.4220     8.1670     7.8180     8.8390   103.7220
 1415.5000    10.0980     2.5220     0.0170   -80.8270     8.1370     7.8050     8.7100   103.8220
 1416.0000    10.0870     2.5100     0.0070   -80.6970     8.1080     7.7920     8.5930   104.0660
 1416.5000    10.0770     2.5190     0.0040   -80.6950     8.0780     7.7790     8.4110   105.0410
 1417.0000    10.0680     2.5240     0.0110   -80.6790     8.0580     7.7650     8.2060   106.2220
 1417.5000    10.0580     2.5110     0.0120   -80.0990     8.0580     7.7520     7.9840   107.3160
 1418.0000    10.0700     2.5290     0.0280   -79.4860     8.0580     7.7390     8.4240   104.8980
 1418.5000    10.0840     2.5620     0.0470   -79.1210     8.0580     7.7260     8.7910   102.2340
 1419.0000    10.0970     2.5560     0.0370   -79.2090     8.0600     7.7130     8.9140   102.0220
 1419.5000    10.0910     2.5430     0.0240   -79.2830     8.0680     7.6960     9.3330   102.6530
 1420.0000    10.0840     2.5260     0.0160   -79.6070     8.0760     7.7110     8.9670   103.6590
 1420.5000    10.0780     2.5290     0.0200   -79.9700     8.0840     7.7400     8.2070   105.0530
 1421.0000    10.0860     2.5370     0.0280   -80.3360     8.0920     7.7680     8.3160   106.3890
 1421.5000    10.0940     2.5320     0.0290   -80.7020     8.1000     7.7970     8.5150   106.9490
 1422.0000    10.1030     2.5250     0.0200   -81.0690     8.1080     7.8250     8.7130   104.7940
 1422.5000    10.1120     2.5370     0.0320   -81.4340     8.1160     7.8530     8.9960   101.0170
 1423.0000    10.1210     2.5410     0.0360   -81.5970     8.1240     7.8820     8.9570    98.0930
 1423.5000    10.1320     2.5350     0.0210   -81.7280     8.1320     7.9100     8.8890    97.3650
 1424.0000    10.1430     2.5280     0.0150   -81.8580     8.2220     7.9390     8.8330    98.5120
 1424.5000    10.1550     2.5250     0.0210   -81.9850     8.3140     7.9670     8.8920   100.5150
 1425.0000    10.1490     2.5290     0.0160   -82.0100     8.4060     7.9910     8.9430   101.2800
 1425.5000    10.1410     2.5390     0.0160   -81.7340     8.4970     8.0280     8.9930   101.7460
 1426.0000    10.1310     2.5400     0.0170   -81.4640     8.5890     8.0640     9.0430   101.8370
 1426.5000    10.1220     2.5360     0.0250   -81.1330     8.6810     8.1010     9.0930   100.6170
 1427.0000    10.1130     2.5510     0.0380   -80.5930     8.7620     8.1370     9.1440    99.3160
 1427.5000    10.1040     2.5420     0.0340   -80.0670     8.8060     8.1740     9.1940   100.0990
 1428.0000    10.0930     2.5260     0.0220   -79.5410     8.8510     8.2100     9.2440   101.9610
 1428.5000    10.0750     2.5100     0.0100   -79.1230     8.8950     8.2460     9.2950   102.6530
 1429.0000    10.0560     2.4980     0.0040   -78.7920     8.9400     8.2830     9.3450   101.8430
 1429.5000    10.0380     2.5050     0.0060   -78.4580     8.9850     8.3190     9.3950    99.4480
 1430.0000    10.0460     2.5200     0.0140   -78.3860     9.0290     8.3560     9.4450    97.3250
 1430.5000    10.0540     2.5280     0.0170   -78.4990     9.0740     8.3920     9.4960    96.1940
 1431.0000    10.1090     2.5240     0.0200   -78.6130     9.1180     8.4290     9.5460    97.2990
 1431.5000    10.1600     2.5170     0.0170   -78.7290     9.1630     8.4650     9.5960    98.6730
 1432.0000    10.1660     2.5110     0.0150   -78.8440     9.2070     8.5010     9.6460    99.6010
 1432.5000    10.1740     2.5180     0.0150   -79.0870     9.2480     8.5380     9.6820    96.8360
 1433.0000    10.1820     2.5160     0.0170   -79.5170     9.2480     8.5740     9.6700    95.2200
 1433.5000    10.1900     2.5120     0.0150   -79.9450     9.2480     8.6110     9.6600    95.4360
 1434.0000    10.1940     2.5110     0.0210   -80.3710     9.2480     8.6470     9.6500    95.3010
 1434.5000    10.1810     2.5160     0.0230   -80.7590     9.2480     8.6840     9.6410    94.8600
 1435.0000    10.1950     2.5150     0.0190   -81.0060     9.2480     8.7200     9.6310    94.6320
 1435.5000    10.2250     2.5270     0.0180   -81.2570     9.2480     8.8330     9.6210    94.3960
 1436.0000    10.2540     2.5380     0.0260   -81.4690     9.2480     8.7960     9.6120    96.3720
 1436.5000    10.2750     2.5440     0.0320   -81.1670     9.2490     8.7270     9.6020   101.8030
 1437.0000    10.2680     2.5370     0.0290   -80.8640     9.2290     8.6580     9.5790   105.6540
 1437.5000    10.2610     2.5200     0.0190   -80.5640     9.0970     8.5890     9.4750   107.9950
 1438.0000    10.2600     2.5010     0.0110   -80.2590     8.9650     8.5200     9.3720   109.7290
 1438.5000    10.2770     2.5070     0.0140   -79.9070     8.8340     8.4500     9.2680   107.7840
 1439.0000    10.2930     2.5150     0.0160   -79.5550     8.7020     8.3810     9.1650   103.1990
 1439.5000    10.3100     2.5070     0.0170   -79.2030     8.5930     8.3120     9.0610   101.3640
 1440.0000    10.3260     2.5000     0.0150   -78.8500     8.6100     8.2830     9.0020   102.2180
 1440.5000    10.3350     2.5070     0.0140   -78.4980     8.6250     8.2830     9.0610   101.6380
 1441.0000    10.3350     2.5140     0.0120   -78.1470     8.6400     8.2830     9.1070    99.2450
 1441.5000    10.3370     2.5180     0.0120   -77.9200     8.6540     8.2830     9.1630    99.2730
 1442.0000    10.3670     2.5310     0.0210   -78.0080     8.6720     8.2830     9.1400   100.3350
 1442.5000    10.3950     2.5400     0.0290   -78.0960     8.6550     8.2830     9.1100   100.7170
 1443.0000    10.4010     2.5460     0.0270   -78.2940     8.6340     8.2830     9.0800   100.2370
 1443.5000    10.4060     2.5320     0.0160   -78.4980     8.6130     8.2830     9.0510   101.1540
 1444.0000    10.4120     2.5320     0.0170   -78.8370     8.5930     8.2830     9.0210   102.1770
 1444.5000    10.4090     2.5230     0.0170   -79.2320     8.5720     8.2830     8.9920   101.6380
