~VERSION INFORMATION
 VERS.                2.0:   CWLS LOG ASCII STANDARD - VERSION 2.0
 WRAP.                 NO:   ONE LINE PER DEPTH STEP
~WELL INFORMATION
#MNEM.UNIT      DATA TYPE    INFORMATION
#----------   ------------   ------------------------------
 STRT.F          594.5000:   START DEPTH
 STOP.F         3015.5000:   STOP DEPTH
 STEP.F            0.5000:   STEP LENGTH
 NULL.          -999.2500:   NO VALUE
 COMP.    FENIX & SCISSON:   COMPANY
 WELL.  FENIX "AX" #35-34:   WELL
 FLD .             NPR #3:   FIELD
 LOC .      S34 T39N R78W:   LOCATION
 CNTY.            NATRONA:   COUNTY
 STAT.            WYOMING:   STATE
 CTRY. UNITED STATES OF AMERICA:   COUNTRY
 SRVC.       SCHLUMBERGER:   SERVICE COMPANY
 DATE.        14-APR-1977:   LOGDATE
 API .     49025103390000:   API NUMBER
~CURVE INFORMATION
#MNEM.UNIT       API CODE    CURVE DESCRIPTION
#----------   ------------   ------------------------------
 DEPT.F                  :   
 CALD.IN     45 280 60 00:   CALIPER FROM DENSITY LOG
 RHOB.G/C3   45 350 01 00:   BULK DENSITY
 DRHO.G/C3   45 356 01 00:   DENSITY CORRECTION
 SPR .MV     07 010 01 00:   SPONTANEOUS POTENTIAL
 RILM.OHMM   07 120 44 00:   INDUCTION LOG MEDIUM RESISTIVITY
 RILD.OHMM   07 120 46 00:   DEEP INDUCTION RESISTIVITY
 LL8 .OHMM   07 220 08 00:   LATEROLOG-8 RES.
 GRD .GAPI   45 310 01 00:   GAMMA RAY FROM DENSITY LOG
~PARAMETER INFORMATION
#MNEM.UNIT          VALUE    DESCRIPTION
#----------   ------------   ------------------------------
 EKB .F         5116.0000:   Kelly bushing
 EGL .F         5104.0000:   Ground level
 EDF .F            0.0000:   Drilling floor
 TD  .F         3017.0000:   Total depth
 DATE.        14-APR-1977:   Date logged
 CLNT.            A2DTECH:   Client Code
 SL  . 2311' FSL & 1550' FWL:   Surface Location
 PD  .                 GL:   Permanent Datum
 EPD .F              5104:   Elevation Permanent Datum
 LMF .                 KB:   Log Measured From
 DMF .                 KB:   Drilling Measured From
 DAPD.F                12:   Feet Above Permanent Datum
 DD  .F              3012:   Depth driller
 DL  .F              3017:   Depth logger
 BLI .F              3011:   Bottom log interval
 TLI .F               600:   Top log interval
 CS1 .IN            8.625:   Casing size
 CBD1.      8.625" @ 601':   Casing driller 1
 CBL1.F               600:   Casing logger 1
 BS1 .IN            7.875:   Bit size
 BSD1.F              3012:   Depth drilled with bit1
 DFT .                FGM:   Type fluid in hole
 DFD .                9.2:   Density
 DFV .                 29:   Viscosity
 MSS .           FLOWLINE:   Source of sample
 RMS .OHMM          0.206:   Rm
 MST .F                60:   Rm Meas. temp.
 RMF .OHMM          0.192:   Rmf
 MFST.F                60:   Rmf Meas. temp.
 MFSS.               MEAS:   Source Rmf.
 RMB .OHMM          0.109:   Rm. at BHT
 BHT .F               113:   BHT.
 TLAB.HRS            0200:   Time logger at bottom
 MRT .F               113:   Maximum recorded temp.
 LUN .               7711:   Logging unit number
 LUL .               CSPR:   Logging unit location
 ENGI.             GEIGER:   Recorded By
 WITN.         PETTINGILL:   Witnessed by
 ORIG.           5" PRINT:   Origin of data
 UWI .     49025103390000:   Unique Well ID
 DICO. A2D TECHNOLOGIES, INC.:   Digitizing Company
~OTHER INFORMATION
~A   DEPT     CALD       RHOB       DRHO        SPR       RILM       RILD        LL8         GRD  
# ...
 1728.5000     9.8110     2.5320     0.0060   -77.1560     6.3460     6.0450     6.9840   110.2320
 1729.0000     9.8060     2.5340     0.0100   -77.3130     6.3470     6.0470     6.9570   108.3410
 1729.5000     9.8010     2.5280     0.0170   -77.4800     6.3460     6.0500     6.9570   104.7780
 1730.0000     9.7820     2.5190     0.0140   -77.3480     6.3720     6.0530     6.9570   105.4090
 1730.5000     9.7570     2.5410     0.0260   -77.0870     6.4240     6.0550     6.9570   105.0260
 1731.0000     9.7330     2.5470     0.0300   -76.8210     6.4750     6.0580     7.1340   104.1670
 1731.5000     9.7080     2.5500     0.0300   -76.3030     6.5260     6.0610     7.3510   102.2240
 1732.0000     9.6820     2.5450     0.0220   -75.6500     6.5780     6.1020     7.2840   101.0750
 1732.5000     9.6740     2.5390     0.0140   -75.1090     6.6290     6.1840     7.2840   102.1820
 1733.0000     9.6670     2.5330     0.0080   -75.0110     6.6810     6.2660     7.0860   102.7200
 1733.5000     9.6600     2.5270     0.0030   -74.6850     6.7320     6.3470     7.0860    99.6800
 1734.0000     9.6530     2.5280     0.0100   -74.0620     6.7840     6.4290     7.3170   100.4380
 1734.5000     9.6460     2.5350     0.0200   -74.0140     6.8300     6.5100     7.4190   101.7810
 1735.0000     9.6390     2.5430     0.0270   -74.0930     6.8840     6.5840     7.4190   103.2180
 1735.5000     9.6330     2.5500     0.0150   -74.1600     6.9320     6.6290     7.5910   104.6610
 1736.0000     9.6260     2.5600     0.0090   -74.1590     6.9810     6.6700     7.8390   106.1670
 1736.5000     9.6190     2.5730     0.0170   -74.1610     7.0290     6.7110     7.8750   106.9900
 1737.0000     9.6120     2.5560     0.0210   -74.3480     7.0780     6.7520     7.9780   106.6440
 1737.5000     9.6050     2.5300     0.0250   -74.8220     7.1510     6.7930     8.2020   104.0560
 1738.0000     9.5900     2.5460     0.0400   -75.2930     7.1440     6.8300     8.3590   104.8890
 1738.5000     9.5680     2.5630     0.0230   -75.7660     7.1290     6.8130     8.1350   105.8900
 1739.0000     9.5460     2.5550     0.0190   -76.2430     7.1150     6.7970     7.9310   102.7090
 1739.5000     9.5230     2.5480     0.0140   -76.4580     7.1000     6.7810     7.7280   103.8380
 1740.0000     9.5220     2.5390     0.0120   -76.6640     7.0860     6.7650     7.6260   106.4350
 1740.5000     9.5220     2.5310     0.0090   -76.8670     7.0720     6.7490     7.7900   106.3000
 1741.0000     9.5220     2.5220     0.0050   -77.0740     7.0570     6.7330     7.9170   105.2820
 1741.5000     9.5220     2.5180     0.0090   -77.2900     7.0430     6.7170     8.0430   104.6880
 1742.0000     9.5220     2.5280     0.0170   -77.0470     7.0280     6.7060     8.1320   104.5310
 1742.5000     9.5110     2.5480     0.0220   -76.6910     7.0210     6.7480     7.9680   105.6610
 1743.0000     9.4980     2.5510     0.0200   -76.2310     7.0670     6.7810     7.8410   106.6430
 1743.5000     9.4850     2.5470     0.0190   -75.6960     7.1030     6.8140     7.7140   107.4320
 1744.0000     9.4870     2.5510     0.0160   -75.2840     7.1380     6.8470     7.6260   106.5850
 1744.5000     9.4940     2.5390     0.0140   -75.0980     7.1740     6.8790     7.9110   106.1620
 1745.0000     9.5020     2.5440     0.0120   -74.9110     7.2090     6.9120     8.1300   106.0710
 1745.5000     9.4970     2.5470     0.0110   -74.6620     7.2450     6.9450     8.2830   104.4310
 1746.0000     9.4920     2.5480     0.0140   -74.0120     7.2800     6.9780     8.2310   104.3720
 1746.5000     9.4870     2.5560     0.0170   -73.6280     7.3160     7.0100     8.1700   105.3500
 1747.0000     9.4820     2.5610     0.0180   -73.8930     7.3510     7.0430     8.0580   106.3660
 1747.5000     9.4870     2.5490     0.0160   -74.1390     7.3870     7.0860     8.3090   105.3810
 1748.0000     9.4920     2.5430     0.0140   -74.3850     7.4190     7.0500     8.5880   104.1810
 1748.5000     9.4970     2.5380     0.0210   -74.5970     7.3740     6.9980     8.7120   103.3620
 1749.0000     9.5020     2.5490     0.0280   -74.7400     7.3330     6.9470     8.7520   102.6620
 1749.5000     9.4840     2.5630     0.0310   -74.8810     7.2920     6.8950     8.4690   103.9430
 1750.0000     9.4630     2.5520     0.0190   -75.1240     7.2510     6.8440     8.2520   107.7570
 1750.5000     9.4750     2.5390     0.0100   -75.4680     7.2110     6.7930     8.0340   111.4740
 1751.0000     9.4940     2.5310     0.0130   -75.8120     7.1700     6.7410     7.8170   114.3180
 1751.5000     9.5130     2.5360     0.0110   -76.1560     7.1290     6.6900     7.6260   114.1890
 1752.0000     9.5320     2.5310     0.0160   -76.5010     7.0880     6.6380     7.6690   112.3830
 1752.5000     9.5430     2.5380     0.0150   -76.8530     7.0480     6.5840     7.7520   111.5770
 1753.0000     9.5470     2.5430     0.0120   -76.9280     7.0210     6.6240     7.8390   112.2990
 1753.5000     9.5500     2.5270     0.0030   -76.8890     7.0800     6.6680     8.2070   111.3480
 1754.0000     9.5540     2.5350     0.0080   -76.6350     7.1230     6.7110     8.1910   105.7130
 1754.5000     9.5570     2.5500     0.0150   -76.3100     7.1670     6.7540     8.1460   102.7270
 1755.0000     9.5600     2.5480     0.0190   -75.9630     7.2100     6.7970     8.1010   104.1880
 1755.5000     9.5600     2.5490     0.0220   -75.5340     7.2540     6.8400     8.0560   107.9200
 1756.0000     9.5550     2.5460     0.0160   -75.0380     7.2970     6.8840     8.0110   111.3930
 1756.5000     9.5500     2.5470     0.0110   -74.5670     7.3410     6.9270     7.9840   111.7430
 1757.0000     9.5450     2.5510     0.0220   -74.5550     7.3850     6.9700     8.0580   109.7830
 1757.5000     9.5400     2.5600     0.0180   -74.5380     7.4190     7.0210     8.2070   107.1780
 1758.0000     9.5350     2.5650     0.0130   -74.1070     7.3990     7.0150     8.5140   107.1680
 1758.5000     9.5300     2.5620     0.0180   -73.6770     7.3830     7.0070     8.2830   109.2330
 1759.0000     9.5250     2.5720     0.0210   -73.3680     7.3660     7.0000     7.9840   110.7570
 1759.5000     9.5240     2.5780     0.0250   -73.5910     7.3510     6.9920     7.9110   110.8130
 1760.0000     9.5360     2.5660     0.0320   -73.8040     7.4580     6.9850     7.9110   108.2540
 1760.5000     9.5300     2.5430     0.0150   -74.0180     7.5610     6.9770     7.9840   106.2670
 1761.0000     9.5030     2.5480     0.0110   -74.3120     7.6960     6.9700     8.0580   107.5470
 1761.5000     9.4740     2.5510     0.0100   -74.8610     7.6130     6.9620     8.1320   108.1430
 1762.0000     9.4450     2.5510     0.0110   -75.3950     7.4910     6.9540     8.3590   106.7910
 1762.5000     9.4160     2.5490     0.0170   -75.8360     7.3690     6.9420     8.1700   106.1010
 1763.0000     9.3880     2.5480     0.0180   -76.1270     7.2840     6.9300     8.0580   109.7110
 1763.5000     9.3720     2.5530     0.0130   -76.4140     7.2840     6.9190     8.0880   110.5480
 1764.0000     9.3640     2.5550     0.0090   -76.5330     7.2840     6.9070     8.1820   110.1090
 1764.5000     9.3680     2.5470     0.0090   -76.5340     7.2840     6.8950     8.2770   109.3300
 1765.0000     9.3720     2.5530     0.0150   -76.5340     7.2840     6.8840     8.3590   107.4050
 1765.5000     9.3760     2.5590     0.0130   -76.5390     7.2890     6.8720     8.2220   107.4170
 1766.0000     9.3800     2.5560     0.0180   -76.1210     7.3270     6.8610     8.0040   107.9000
 1766.5000     9.3800     2.5630     0.0350   -75.4550     7.3470     6.8490     8.0540   107.2220
 1767.0000     9.3640     2.5720     0.0320   -75.3490     7.3000     6.8380     8.2460   105.0350
 1767.5000     9.3480     2.5730     0.0280   -75.3420     7.2620     6.8300     8.4390   105.2650
 1768.0000     9.3330     2.5800     0.0200   -75.2210     7.2170     6.8450     8.6720   107.2130
 1768.5000     9.3400     2.5870     0.0110   -74.6760     7.2660     6.8830     8.5180   109.1100
