~VERSION INFORMATION
 VERS.                2.0:   CWLS LOG ASCII STANDARD - VERSION 2.0
 WRAP.                 NO:   ONE LINE PER DEPTH STEP
~WELL INFORMATION
#MNEM.UNIT      DATA TYPE    INFORMATION
#----------   ------------   ------------------------------
 STRT.F          594.5000:   START DEPTH
 STOP.F         3015.5000:   STOP DEPTH
 STEP.F            0.5000:   STEP LENGTH
 NULL.          -999.2500:   NO VALUE
 COMP.    FENIX & SCISSON:   COMPANY
 WELL.  FENIX "AX" #35-34:   WELL
 FLD .             NPR #3:   FIELD
 LOC .      S34 T39N R78W:   LOCATION
 CNTY.            NATRONA:   COUNTY
 STAT.            WYOMING:   STATE
 CTRY. UNITED STATES OF AMERICA:   COUNTRY
 SRVC.       SCHLUMBERGER:   SERVICE COMPANY
 DATE.        14-APR-1977:   LOGDATE
 API .     49025103390000:   API NUMBER
~CURVE INFORMATION
#MNEM.UNIT       API CODE    CURVE DESCRIPTION
#----------   ------------   ------------------------------
 DEPT.F                  :   
 CALD.IN     45 280 60 00:   CALIPER FROM DENSITY LOG
 RHOB.G/C3   45 350 01 00:   BULK DENSITY
 DRHO.G/C3   45 356 01 00:   DENSITY CORRECTION
 SPR .MV     07 010 01 00:   SPONTANEOUS POTENTIAL
 RILM.OHMM   07 120 44 00:   INDUCTION LOG MEDIUM RESISTIVITY
 RILD.OHMM   07 120 46 00:   DEEP INDUCTION RESISTIVITY
 LL8 .OHMM   07 220 08 00:   LATEROLOG-8 RES.
 GRD .GAPI   45 310 01 00:   GAMMA RAY FROM DENSITY LOG
~PARAMETER INFORMATION
#MNEM.UNIT          VALUE    DESCRIPTION
#----------   ------------   ------------------------------
 EKB .F         5116.0000:   Kelly bushing
 EGL .F         5104.0000:   Ground level
 EDF .F            0.0000:   Drilling floor
 TD  .F         3017.0000:   Total depth
 DATE.        14-APR-1977:   Date logged
 CLNT.            A2DTECH:   Client Code
 SL  . 2311' FSL & 1550' FWL:   Surface Location
 PD  .                 GL:   Permanent Datum
 EPD .F              5104:   Elevation Permanent Datum
 LMF .                 KB:   Log Measured From
 DMF .                 KB:   Drilling Measured From
 DAPD.F                12:   Feet Above Permanent Datum
 DD  .F              3012:   Depth driller
 DL  .F              3017:   Depth logger
 BLI .F              3011:   Bottom log interval
 TLI .F               600:   Top log interval
 CS1 .IN            8.625:   Casing size
 CBD1.      8.625" @ 601':   Casing driller 1
 CBL1.F               600:   Casing logger 1
 BS1 .IN            7.875:   Bit size
 BSD1.F              3012:   Depth drilled with bit1
 DFT .                FGM:   Type fluid in hole
 DFD .                9.2:   Density
 DFV .                 29:   Viscosity
 MSS .           FLOWLINE:   Source of sample
 RMS .OHMM          0.206:   Rm
 MST .F                60:   Rm Meas. temp.
 RMF .OHMM          0.192:   Rmf
 MFST.F                60:   Rmf Meas. temp.
 MFSS.               MEAS:   Source Rmf.
 RMB .OHMM          0.109:   Rm. at BHT
 BHT .F               113:   BHT.
 TLAB.HRS            0200:   Time logger at bottom
 MRT .F               113:   Maximum recorded temp.
 LUN .               7711:   Logging unit number
 LUL .               CSPR:   Logging unit location
 ENGI.             GEIGER:   Recorded By
 WITN.         PETTINGILL:   Witnessed by
 ORIG.           5" PRINT:   Origin of data
 UWI .     49025103390000:   Unique Well ID
 DICO. A2D TECHNOLOGIES, INC.:   Digitizing Company
~OTHER INFORMATION
~A   DEPT     CALD       RHOB       DRHO        SPR       RILM       RILD        LL8         GRD  
# ...
 2336.0000     9.1130     2.5310     0.0180   -72.1140     6.7120     6.2310     7.1100   117.8710
 2336.5000     9.1220     2.5440     0.0180   -71.8540     6.9270     6.2310     6.8930   117.1980
 2337.0000     9.1170     2.5360     0.0050   -71.5430     6.9820     6.2310     7.4750   117.2390
 2337.5000     9.1050     2.5300     0.0090   -71.0160     7.0110     6.2720     7.9350   117.6310
 2338.0000     9.0920     2.5500     0.0220   -70.4960     7.0400     6.3200     8.4360   115.2250
 2338.5000     9.0890     2.5590     0.0190   -70.1320     7.0860     6.3520     8.4360   111.3560
 2339.0000     9.1040     2.5500     0.0140   -69.9760     7.0420     6.3740     8.4360   108.5610
 2339.5000     9.1210     2.5430     0.0080   -69.8190     6.9400     6.4020     8.1750   108.2160
 2340.0000     9.1170     2.5370     0.0010   -69.6610     6.8380     6.3460     7.7610   110.4340
 2340.5000     9.1050     2.5450     0.0100   -69.7340     6.7370     6.2730     7.3460   114.5000
 2341.0000     9.0920     2.5590     0.0210   -69.9390     6.6350     6.1410     6.7960   115.7160
 2341.5000     9.1000     2.5690     0.0230   -70.1480     6.5330     5.9240     6.9270   115.5210
 2342.0000     9.1300     2.5620     0.0150   -70.3570     6.4320     5.7060     7.1910   113.9770
 2342.5000     9.1610     2.5520     0.0180   -70.5590     6.3300     5.5300     7.3510   113.6320
 2343.0000     9.1590     2.5400     0.0120   -70.8280     6.2880     5.5410     7.1390   115.8290
 2343.5000     9.1520     2.5270     0.0130   -71.2270     6.3360     5.5610     6.9260   118.9440
 2344.0000     9.1460     2.5260     0.0170   -71.8520     6.3840     5.5810     6.6450   116.9730
 2344.5000     9.1500     2.5320     0.0210   -72.4260     6.4050     5.5660     6.8040   115.1280
 2345.0000     9.1570     2.5340     0.0250   -72.5990     6.3620     5.5280     7.0100   115.7820
 2345.5000     9.1620     2.5320     0.0230   -72.7880     6.2850     5.4890     7.2170   116.8670
 2346.0000     9.2150     2.5250     0.0150   -72.9790     6.2090     5.2580     7.3510   114.3590
 2346.5000     9.1720     2.5190     0.0100   -73.1700     6.1530     4.6440     7.0620   110.4390
 2347.0000     9.1940     2.5360     0.0150   -73.3630     6.0050     4.9050     6.7570   107.0490
 2347.5000     9.2270     2.5360     0.0170   -73.5540     5.8570     5.2820     6.4520   105.8340
 2348.0000     9.2600     2.5340     0.0190   -73.3840     5.7100     5.1660     6.1470   108.9200
 2348.5000     9.2480     2.5440     0.0160   -73.1700     5.5620     5.0420     5.8420   112.7230
 2349.0000     9.2290     2.5370     0.0130   -72.6210     5.4140     4.9080     5.6320   114.1130
 2349.5000     9.2540     2.5220     0.0100   -72.0070     5.2660     4.7960     5.7290   115.2000
 2350.0000     9.2810     2.5050     0.0060   -71.8380     5.1180     4.6730     5.8430   113.7940
 2350.5000     9.2690     2.5100     0.0020   -71.6890     5.0030     4.5510     5.7910   112.4780
 2351.0000     9.2580     2.5150     0.0020   -71.5390     4.8650     4.4280     5.6860   111.6300
 2351.5000     9.2470     2.5060     0.0050   -71.3860     4.7270     4.3060     5.5820   112.0140
 2352.0000     9.2560     2.5040     0.0100   -71.2280     4.5880     4.1830     5.4490   112.7500
 2352.5000     9.2730     2.5150     0.0160   -71.2330     4.4500     4.0570     5.1800   114.8850
 2353.0000     9.2850     2.5100     0.0190   -71.2940     4.3120     3.9280     4.9100   116.8970
 2353.5000     9.2900     2.5040     0.0140   -71.3570     4.1600     3.7990     4.6410   121.0980
 2354.0000     9.2940     2.5010     0.0160   -71.6470     4.1280     3.6620     4.2370   126.7400
 2354.5000     9.2990     2.5090     0.0180   -72.1620     4.0840     3.5870     4.3310   125.3770
 2355.0000     9.3040     2.5040     0.0160   -72.6780     4.1410     3.5720     4.5200   123.0810
 2355.5000     9.3180     2.5130     0.0200   -73.1990     4.2180     3.5610     4.7080   120.6490
 2356.0000     9.3340     2.5220     0.0230   -73.7380     4.2820     3.6610     4.9530   119.0300
 2356.5000     9.3400     2.5150     0.0120   -73.8380     4.3470     3.7610     4.7880   117.8530
 2357.0000     9.3290     2.5050     0.0210   -73.9140     4.4110     3.8600     4.4360   118.8820
 2357.5000     9.3180     2.4960     0.0100   -73.9920     4.4760     3.9600     4.7940   120.5660
 2358.0000     9.3080     2.4880     0.0190   -74.0720     4.5400     4.0470     5.5810   120.8490
 2358.5000     9.2960     2.4810     0.0060   -74.1540     4.6050     4.1210     5.5460   119.8750
 2359.0000     9.2850     2.4950     0.0140   -74.0640     4.6700     4.1740     5.5060   119.3110
 2359.5000     9.3040     2.5110     0.0210   -73.9370     4.7340     4.2270     5.4670   120.6750
 2360.0000     9.3230     2.5190     0.0240   -73.3920     4.7990     4.2810     5.4280   122.8090
 2360.5000     9.3120     2.5130     0.0120   -72.8670     4.8870     4.3340     5.3890   123.5410
 2361.0000     9.3000     2.5070     0.0150   -72.3480     4.9860     4.3870     5.3500   122.9050
 2361.5000     9.2880     2.5150     0.0220   -71.9630     5.0850     4.4400     5.3300   122.3610
 2362.0000     9.2880     2.5230     0.0240   -71.7970     5.1840     4.5240     5.6370   124.1160
 2362.5000     9.2950     2.5150     0.0210   -71.5350     5.3230     4.6810     5.8740   125.9320
 2363.0000     9.3020     2.5220     0.0190   -71.1880     5.5030     4.8370     6.1100   125.8710
 2363.5000     9.3090     2.5310     0.0160   -70.8400     5.6820     4.9940     6.3460   127.3190
 2364.0000     9.3160     2.5210     0.0080   -70.5600     5.8620     5.1500     6.5370   128.5710
 2364.5000     9.3230     2.5100     0.0060   -70.4530     6.0410     5.3070     6.7810   124.8620
 2365.0000     9.3190     2.5170     0.0120   -70.5540     6.2210     5.4790     7.0240   123.1440
 2365.5000     9.3150     2.5330     0.0180   -70.8640     6.3460     5.5970     7.2680   122.9570
 2366.0000     9.3100     2.5460     0.0260   -71.1740     6.3760     5.7660     7.4870   122.5250
 2366.5000     9.3050     2.5350     0.0270   -71.4850     6.4180     5.9510     7.3780   121.3550
 2367.0000     9.2990     2.5270     0.0170   -71.7960     6.4610     5.9820     7.2800   120.2170
 2367.5000     9.2920     2.5300     0.0120   -72.1070     6.5030     6.0620     7.1810   118.6080
 2368.0000     9.2850     2.5240     0.0080   -72.4180     6.5460     6.0360     7.1510   116.5260
 2368.5000     9.2940     2.5200     0.0080   -72.6560     6.5840     5.9990     7.4030   115.8210
 2369.0000     9.3080     2.5300     0.0170   -72.8210     6.6430     5.9620     7.6320   116.1440
 2369.5000     9.3230     2.5390     0.0250   -72.9890     6.7290     5.9510     7.8390   114.8830
 2370.0000     9.3350     2.5470     0.0110   -73.1580     6.8140     6.0800     7.5960   115.0040
 2370.5000     9.3360     2.5350     0.0070   -72.9790     6.8990     6.1780     7.3760   119.7210
 2371.0000     9.3090     2.5230     0.0110   -72.7680     6.9840     6.2770     7.1550   124.0980
 2371.5000     9.2850     2.5110     0.0060   -72.5580     7.0700     6.3690     6.9570   128.1870
 2372.0000     9.2940     2.5030     0.0010   -72.1500     7.1550     6.4440     7.8540   131.1860
 2372.5000     9.3050     2.5190     0.0090   -71.7580     7.2400     6.5190     8.6700   133.9330
 2373.0000     9.3160     2.5310     0.0120   -71.3680     7.3510     6.5950     9.0110   133.8910
 2373.5000     9.3210     2.5430     0.0100   -70.9810     7.3150     6.6700     9.0790   132.6480
 2374.0000     9.3150     2.5340     0.0170   -70.5910     7.2430     6.7450     8.7250   132.8410
 2374.5000     9.3090     2.5210     0.0110   -70.3370     7.1720     6.7680     8.4030   132.8760
 2375.0000     9.3030     2.5090     0.0020   -70.1000     7.1000     6.6430     8.0810   129.6620
 2375.5000     9.2990     2.5030    -0.0010   -69.8530     7.0210     6.5470     7.8880   125.9000
 2376.0000     9.2950     2.5140     0.0010   -70.1930     7.0300     6.4520     7.5670   120.3520
