~VERSION INFORMATION
 VERS.                2.0:   CWLS LOG ASCII STANDARD - VERSION 2.0
 WRAP.                 NO:   ONE LINE PER DEPTH STEP
~WELL INFORMATION
#MNEM.UNIT      DATA TYPE    INFORMATION
#----------   ------------   ------------------------------
 STRT.F          594.5000:   START DEPTH
 STOP.F         3015.5000:   STOP DEPTH
 STEP.F            0.5000:   STEP LENGTH
 NULL.          -999.2500:   NO VALUE
 COMP.    FENIX & SCISSON:   COMPANY
 WELL.  FENIX "AX" #35-34:   WELL
 FLD .             NPR #3:   FIELD
 LOC .      S34 T39N R78W:   LOCATION
 CNTY.            NATRONA:   COUNTY
 STAT.            WYOMING:   STATE
 CTRY. UNITED STATES OF AMERICA:   COUNTRY
 SRVC.       SCHLUMBERGER:   SERVICE COMPANY
 DATE.        14-APR-1977:   LOGDATE
 API .     49025103390000:   API NUMBER
~CURVE INFORMATION
#MNEM.UNIT       API CODE    CURVE DESCRIPTION
#----------   ------------   ------------------------------
 DEPT.F                  :   
 CALD.IN     45 280 60 00:   CALIPER FROM DENSITY LOG
 RHOB.G/C3   45 350 01 00:   BULK DENSITY
 DRHO.G/C3   45 356 01 00:   DENSITY CORRECTION
 SPR .MV     07 010 01 00:   SPONTANEOUS POTENTIAL
 RILM.OHMM   07 120 44 00:   INDUCTION LOG MEDIUM RESISTIVITY
 RILD.OHMM   07 120 46 00:   DEEP INDUCTION RESISTIVITY
 LL8 .OHMM   07 220 08 00:   LATEROLOG-8 RES.
 GRD .GAPI   45 310 01 00:   GAMMA RAY FROM DENSITY LOG
~PARAMETER INFORMATION
#MNEM.UNIT          VALUE    DESCRIPTION
#----------   ------------   ------------------------------
 EKB .F         5116.0000:   Kelly bushing
 EGL .F         5104.0000:   Ground level
 EDF .F            0.0000:   Drilling floor
 TD  .F         3017.0000:   Total depth
 DATE.        14-APR-1977:   Date logged
 CLNT.            A2DTECH:   Client Code
 SL  . 2311' FSL & 1550' FWL:   Surface Location
 PD  .                 GL:   Permanent Datum
 EPD .F              5104:   Elevation Permanent Datum
 LMF .                 KB:   Log Measured From
 DMF .                 KB:   Drilling Measured From
 DAPD.F                12:   Feet Above Permanent Datum
 DD  .F              3012:   Depth driller
 DL  .F              3017:   Depth logger
 BLI .F              3011:   Bottom log interval
 TLI .F               600:   Top log interval
 CS1 .IN            8.625:   Casing size
 CBD1.      8.625" @ 601':   Casing driller 1
 CBL1.F               600:   Casing logger 1
 BS1 .IN            7.875:   Bit size
 BSD1.F              3012:   Depth drilled with bit1
 DFT .                FGM:   Type fluid in hole
 DFD .                9.2:   Density
 DFV .                 29:   Viscosity
 MSS .           FLOWLINE:   Source of sample
 RMS .OHMM          0.206:   Rm
 MST .F                60:   Rm Meas. temp.
 RMF .OHMM          0.192:   Rmf
 MFST.F                60:   Rmf Meas. temp.
 MFSS.               MEAS:   Source Rmf.
 RMB .OHMM          0.109:   Rm. at BHT
 BHT .F               113:   BHT.
 TLAB.HRS            0200:   Time logger at bottom
 MRT .F               113:   Maximum recorded temp.
 LUN .               7711:   Logging unit number
 LUL .               CSPR:   Logging unit location
 ENGI.             GEIGER:   Recorded By
 WITN.         PETTINGILL:   Witnessed by
 ORIG.           5" PRINT:   Origin of data
 UWI .     49025103390000:   Unique Well ID
 DICO. A2D TECHNOLOGIES, INC.:   Digitizing Company
~OTHER INFORMATION
~A   DEPT     CALD       RHOB       DRHO        SPR       RILM       RILD        LL8         GRD  
# ...
 2660.0000     9.2900     2.5000     0.0040   -73.9660     5.9960     5.4680     7.3510   127.1770
 2660.5000     9.2820     2.5060     0.0080   -73.7370     5.7900     5.5840     7.0940   123.4600
 2661.0000     9.2780     2.5120     0.0070   -73.5050     6.0320     5.7120     6.7790   120.0710
 2661.5000     9.2750     2.5060     0.0030   -73.1900     6.3290     6.0370     6.4050   120.4070
 2662.0000     9.2710     2.5000     0.0000   -72.7490     6.6260     6.4080     7.8290   120.0570
 2662.5000     9.2680     2.5140     0.0090   -72.3100     6.9240     6.7790     9.5930   112.2040
 2663.0000     9.2630     2.5290    -0.0010   -71.8670     7.2210     7.2170    11.0110   104.3810
 2663.5000     9.2420     2.5510     0.0150   -71.8280     7.5180     7.2110    10.6850    97.6520
 2664.0000     9.2220     2.5680     0.0180   -71.9370     7.8150     7.1960    10.4130    96.6270
 2664.5000     9.2010     2.5380     0.0090   -72.2750     8.1320     7.1810    10.1370    98.0330
 2665.0000     9.1840     2.5450     0.0170   -72.7640     8.1570     7.1660     9.7380   100.2240
 2665.5000     9.1850     2.5550     0.0250   -73.2550     8.1880     7.1510     9.3320   102.3920
 2666.0000     9.1850     2.5580     0.0180   -73.7480     8.2200     7.2280     8.7520   104.5760
 2666.5000     9.1840     2.5490     0.0100   -74.2370     8.2510     7.3630     8.9890   104.7990
 2667.0000     9.1850     2.5370     0.0080   -74.8110     8.2820     7.4970     9.4040   103.6430
 2667.5000     9.1900     2.5410     0.0140   -75.4020     8.3140     7.5560     9.8200   101.8650
 2668.0000     9.2230     2.5510     0.0210   -75.9990     8.3450     7.3920    10.4200   102.1270
 2668.5000     9.2080     2.5470     0.0210   -76.3640     8.3590     7.2200    10.3550   103.7610
 2669.0000     9.1890     2.5460     0.0210   -76.6660     8.0650     7.0490    10.2380   105.4140
 2669.5000     9.2030     2.5480     0.0250   -76.9660     7.8100     6.8770    10.1220   106.4000
 2670.0000     9.1950     2.5420     0.0210   -77.2650     7.5550     6.7060    10.0440   106.2750
 2670.5000     9.1850     2.5300     0.0140   -77.5240     7.2840     6.5240     9.0860   106.1580
 2671.0000     9.1740     2.5250     0.0170   -77.5260     7.1510     6.5990     8.0660   108.7560
 2671.5000     9.1650     2.5330     0.0230   -77.5240     7.1510     6.6790     6.7680   111.2390
 2672.0000     9.1700     2.5390     0.0310   -77.5240     7.1510     6.7590     8.1250   109.2240
 2672.5000     9.1750     2.5330     0.0360   -77.4820     7.1990     6.8400    10.5160   107.1600
 2673.0000     9.1800     2.5410     0.0300   -77.4030     7.3130     6.9200    10.3270   105.6710
 2673.5000     9.1810     2.5570     0.0220   -77.3230     7.5610     7.0000    10.0640   107.0430
 2674.0000     9.1660     2.5710     0.0220   -77.2430     7.8100     7.0810     9.8010   109.9890
 2674.5000     9.1510     2.5570     0.0250   -77.1630     8.0590     7.1610     9.5370   112.0510
 2675.0000     9.1570     2.5420     0.0170   -77.0830     8.2830     7.2170     9.2480   112.8160
 2675.5000     9.1760     2.5350     0.0100   -77.0030     8.2560     7.3310     9.6160   112.5270
 2676.0000     9.1960     2.5290     0.0150   -76.9260     8.2070     7.4340    10.0260   110.9670
 2676.5000     9.1900     2.5320     0.0120   -77.1980     7.9110     7.5370    10.4350   109.0550
 2677.0000     9.1660     2.5460     0.0220   -77.5780     8.0200     7.6400    10.8100   109.1860
 2677.5000     9.1710     2.5460     0.0160   -77.9590     8.1780     7.7430    10.3250   110.0020
 2678.0000     9.1780     2.5460     0.0190   -78.3400     8.3360     7.8390    10.5910   110.6250
 2678.5000     9.1850     2.5510     0.0140   -79.0200     8.4990     7.7180    11.1120   108.8460
 2679.0000     9.1920     2.5410     0.0090   -79.6800     8.4070     7.6060    10.7560   106.7770
 2679.5000     9.1990     2.5340     0.0050   -80.3350     8.2830     7.4940    10.0440   106.3400
 2680.0000     9.1990     2.5340     0.0100   -80.8040     8.1600     7.3820    10.5840   105.9410
 2680.5000     9.1760     2.5460     0.0160   -81.0520     8.0370     7.2700    10.3810   106.0930
 2681.0000     9.1700     2.5530     0.0190   -81.2980     7.9140     7.1570    10.1110   108.1330
 2681.5000     9.1820     2.5570     0.0210   -81.5420     7.7900     7.0450     9.8400   111.0020
 2682.0000     9.1930     2.5490     0.0200   -81.5120     7.6670     6.9050     9.5700   110.9500
 2682.5000     9.2040     2.5390     0.0140   -81.1330     7.5440     6.9630     9.0330   111.5940
 2683.0000     9.1970     2.5410     0.0080   -80.7710     7.3510     7.0710     8.1580   110.4180
 2683.5000     9.1890     2.5420     0.0120   -80.1770     7.4080     7.1790     7.4870   108.8170
 2684.0000     9.1820     2.5310     0.0170   -79.6230     7.5400     7.2870     8.7490   110.2620
 2684.5000     9.1750     2.5210     0.0200   -79.3150     7.6720     7.3950     9.9530   108.3040
 2685.0000     9.1680     2.5140     0.0190   -79.0000     7.8030     7.5030     9.7780   105.9050
 2685.5000     9.1740     2.5300     0.0150   -78.6830     7.9350     7.6110     9.4980   105.7160
 2686.0000     9.1890     2.5430     0.0120   -78.3710     8.0670     7.7200     9.3330   105.6750
 2686.5000     9.2040     2.5370     0.0080   -78.1560     8.1990     7.8280    10.1990   106.9390
 2687.0000     9.2010     2.5330     0.0050   -78.3930     8.3300     7.9360    10.9100   107.6530
 2687.5000     9.1970     2.5430     0.0040   -78.6230     8.4620     8.0440    10.7480   107.7560
 2688.0000     9.1940     2.5380     0.0060   -78.6650     8.5940     8.1520    10.5870   105.9510
 2688.5000     9.1900     2.5260     0.0080   -78.5890     8.7260     8.2830    10.4260   103.7420
 2689.0000     9.1870     2.5270     0.0040   -78.5230     8.8330     8.2420    10.2310   103.6660
 2689.5000     9.1830     2.5350     0.0010   -78.7450     8.7510     8.1910    10.5350   105.4440
 2690.0000     9.1800     2.5400    -0.0010   -78.9810     8.6690     8.1400    10.9220   107.4070
 2690.5000     9.1760     2.5360     0.0050   -79.2170     8.5870     8.0880    11.3180   109.4260
 2691.0000     9.1720     2.5400     0.0100   -79.4550     8.5050     8.0370    10.7940   110.6270
 2691.5000     9.1680     2.5350     0.0040   -79.5300     8.4360     7.9840    10.2580   108.5910
 2692.0000     9.1660     2.5210     0.0070   -79.5760     8.5290     8.1560     9.7210   105.6680
 2692.5000     9.1900     2.5410     0.0130   -79.6210     8.6260     8.3340     9.1630   102.8610
 2693.0000     9.2000     2.5360     0.0090   -79.6640     8.7220     8.5120    10.3760   101.4890
 2693.5000     9.1910     2.5300     0.0100   -79.6760     8.8180     8.6900    11.6400   101.7320
 2694.0000     9.1810     2.5240     0.0040   -79.4900     8.9140     8.8680    12.9040   100.8640
 2694.5000     9.1720     2.5230     0.0030   -79.3050     9.0100     9.0460    14.2390    98.1400
 2695.0000     9.1660     2.5280     0.0050   -79.1080     9.1070     9.1630    13.6300    95.7410
 2695.5000     9.1730     2.5370     0.0020   -78.6460     9.2480     8.7650    12.8100    95.2580
 2696.0000     9.1790     2.5470     0.0080   -78.1530     9.1920     8.4680    11.9910    97.3960
 2696.5000     9.1820     2.5600     0.0150   -77.6460     9.0880     8.1710    11.1120    98.1410
 2697.0000     9.1630     2.5700     0.0120   -77.4800     8.9960     7.9110    10.3760    98.2630
 2697.5000     9.1460     2.5590     0.0170   -77.3060     8.7720     7.8670     9.0790    99.8150
 2698.0000     9.1510     2.5480     0.0130   -77.1420     8.5300     7.8190     9.5590   102.3100
 2698.5000     9.1580     2.5370     0.0100   -76.9790     8.2870     7.7670    10.4200   103.3530
 2699.0000     9.1640     2.5260     0.0100   -76.8150     8.0440     7.5570    10.3720   101.3090
 2699.5000     9.1710     2.5260     0.0100   -76.8210     7.8010     7.3270    10.3250    99.0380
 2700.0000     9.1770     2.5330     0.0070   -76.9920     7.5590     7.0970    12.2930    98.1030
