~VERSION INFORMATION
 VERS.                2.0:   CWLS LOG ASCII STANDARD - VERSION 2.0
 WRAP.                 NO:   ONE LINE PER DEPTH STEP
~WELL INFORMATION
#MNEM.UNIT      DATA TYPE    INFORMATION
#----------   ------------   ------------------------------
 STRT.F          210.0000:   START DEPTH
 STOP.F         2955.0000:   STOP DEPTH
 STEP.F            0.5000:   STEP LENGTH
 NULL.          -999.2500:   NO VALUE
 COMP.    FENIX & SCISSON:   COMPANY
 WELL.     FENIX A #54-28:   WELL
 FLD .                NPR:   FIELD
 LOC .      S28 T39N R78W:   LOCATION
 CNTY.            NATRONA:   COUNTY
 STAT.            WYOMING:   STATE
 CTRY. UNITED STATES OF AMERICA:   COUNTRY
 SRVC.              WELEX:   SERVICE COMPANY
 DATE.        17-MAY-1977:   LOGDATE
 API .     49025103650000:   API NUMBER
~CURVE INFORMATION
#MNEM.UNIT       API CODE    CURVE DESCRIPTION
#----------   ------------   ------------------------------
 DEPT.F                  :   
 SPR .MV     07 010 01 00:   SPONTANEOUS POTENTIAL
 RILM.OHMM   07 120 44 00:   INDUCTION LOG MEDIUM RESISTIVITY
 RILD.OHMM   07 120 46 00:   INDUCTION LOG DEEP RESISTIVITY
 SGRD.OHMM   07 220 05 00:   SHALLOW GUARD LOG RESISTIVITY
 CALD.IN     45 280 60 00:   CALIPER FROM DENSITY LOG
 RHOB.G/C3   45 350 01 00:   BULK DENSITY
 DCOR.G/C3   45 356 01 00:   DENSITY CORRECTION
 GRD .GAPI   45 310 01 00:   GAMMA RAY FROM DENSITY LOG
~PARAMETER INFORMATION
#MNEM.UNIT          VALUE    DESCRIPTION
#----------   ------------   ------------------------------
 EKB .F         5045.0000:   Kelly bushing
 EGL .F         5035.0000:   Ground level
 EDF .F            0.0000:   Drilling floor
 EPD .F         5035.0000:   Permanent datum
 TD  .F         2956.0000:   Total depth
 DATE.        17-MAY-1977:   Date logged
 CLNT.            A2DTECH:   Client Code
 SL  . 2310' FNL & 2310' FEL:   Surface Location
 PD  .                 GL:   Permanent Datum
 LMF .                 KB:   Log Measured From
 DMF .                 KB:   Drilling Measured From
 DAPD.F                10:   Feet Above Permanent Datum
 DD  .F              2947:   Depth driller
 DL  .F              2956:   Depth logger
 BLI .F              2954:   Bottom log interval
 TLI .F               210:   Top log interval
 CS1 .IN            8.625:   Casing size
 CBD1.      8.625" @ 200':   Casing driller 1
 CBL1.F               216:   Casing logger 1
 BS1 .IN            7.875:   Bit size
 BSD1.F              2947:   Depth drilled with bit1
 DFT .            KCL MUD:   Type fluid in hole
 DFD .                  9:   Density
 DFV .                 32:   Viscosity
 DFPH.                7.5:   pH
 DFL .                5.3:   Fluid loss
 MSS .           FLOWLINE:   Source of sample
 RMS .OHMM            .18:   Rm
 MST .F                84:   Rm Meas. temp.
 RMF .OHMM            .16:   Rmf
 MFST.F                84:   Rmf Meas. temp.
 RMC .OHMM            .62:   Rmc
 MCST.F                84:   Rmc Meas. temp.
 RMB .OHMM            .12:   Rm. at BHT
 BHT .F               124:   BHT.
 TCS .HRS               2:   Time Circ. stopped
 MRT .F               124:   Maximum recorded temp.
 LUN .               9685:   Logging unit number
 LUL .           BRIGHTON:   Logging unit location
 ENGI.           T JOYNER:   Recorded By
 WITN.      W. PETTINGILL:   Witnessed by
 ORIG.           5" PRINT:   Origin of data
 UWI .     49025103650000:   Unique Well ID
 DICO. A2D TECHNOLOGIES, INC.:   Digitizing Company
~OTHER INFORMATION
~A   DEPT      SPR       RILM        RILD        SGRD       CALD       RHOB      DCOR        GRD  
# ...
 2923.5000   -47.8490     5.9770     6.4320     8.3420     7.7160     2.4750     0.0280    92.0560
 2924.0000   -48.1530     5.9380     6.3670     8.1730     7.7030     2.4720     0.0270    92.4940
 2924.5000   -48.4570     5.8620     6.3030     8.0040     7.6910     2.4700     0.0290    92.9740
 2925.0000   -48.7650     5.7360     6.2520     7.8350     7.6780     2.4730     0.0310    93.3330
 2925.5000   -49.0100     5.6100     6.0850     7.6660     7.6650     2.4760     0.0330    95.1950
 2926.0000   -49.1040     5.4840     5.9460     7.4970     7.6530     2.4800     0.0350    97.2010
 2926.5000   -49.1870     5.3580     5.8070     7.3290     7.6400     2.4860     0.0370   100.0280
 2927.0000   -49.2680     5.2040     5.6680     7.1600     7.6270     2.4990     0.0390   102.8650
 2927.5000   -49.3500     5.2160     5.5290     7.0910     7.6140     2.5120     0.0410   105.7380
 2928.0000   -49.4320     5.2400     5.3900     7.0590     7.6020     2.5240     0.0430   108.6950
 2928.5000   -49.5140     5.2640     5.2520     7.0270     7.5880     2.5410     0.0460   110.4690
 2929.0000   -49.5950     5.2880     5.1130     6.9950     7.5830     2.5350     0.0470   111.2470
 2929.5000   -49.6760     5.3120     5.0170     6.9650     7.5960     2.5180     0.0500   111.1860
 2930.0000   -49.7630     5.3360     5.0440     6.9370     7.6070     2.5020     0.0520   110.0360
 2930.5000   -49.7910     5.3600     5.0710     6.9080     7.6190     2.5100     0.0540   109.0010
 2931.0000   -49.7540     5.3840     5.0990     6.8790     7.6310     2.5300     0.0540   107.8870
 2931.5000   -49.7250     5.4440     5.1260     6.8560     7.6430     2.5390     0.0520   106.8820
 2932.0000   -49.6940     5.5270     5.1530     7.0200     7.6550     2.5300     0.0500   107.3500
 2932.5000   -49.6620     5.5970     5.1980     7.1580     7.6670     2.5230     0.0480   107.7570
 2933.0000   -49.6310     5.5080     5.1790     7.2470     7.6790     2.5150     0.0460   108.3590
 2933.5000   -49.6000     5.4330     5.1220     6.9530     7.6900     2.5070     0.0430   108.8130
 2934.0000   -49.5690     5.3570     5.0660     6.4870     7.6990     2.5010     0.0380   108.7580
 2934.5000   -49.5380     5.2810     5.0090     6.5220     7.6920     2.5040     0.0320   105.8320
 2935.0000   -49.5070     5.2050     4.9530     6.5920     7.6860     2.5070     0.0260   102.7100
 2935.5000   -49.4760     5.1290     4.8970     6.6620     7.6790     2.5080     0.0200   104.5500
 2936.0000   -49.4450     5.0530     4.8400     6.7320     7.6730     2.5020     0.0180   110.2500
 2936.5000   -49.4130     4.9770     4.7560     6.8020     7.6670     2.4960     0.0150    97.0240
 2937.0000   -49.3820     4.9400     4.7580     6.8480     7.6600     2.4890     0.0120    53.2950
 2937.5000   -49.3510     5.0420     4.8410     6.8090     7.6540     2.4830     0.0120     7.9690
 2938.0000   -49.3200     5.1430     4.9240     6.7710     7.6470     2.4770     0.0140  -999.2500
 2938.5000   -49.2890     5.2440     5.0100     6.7310     7.6410     2.4830     0.0160  -999.2500
 2939.0000   -49.2580     5.3450     4.9980     7.2460     7.6340     2.4900     0.0170  -999.2500
 2939.5000   -49.2270     5.4470     4.9850     7.7790     7.6280     2.4980     0.0190  -999.2500
 2940.0000   -49.1960     5.4940     4.9730     8.2460     7.6210     2.5050     0.0210  -999.2500
 2940.5000   -49.1650     5.2950     4.9600     7.1140     7.6150     2.5120     0.0220  -999.2500
 2941.0000   -49.1330     5.3680     4.9480     6.7310     7.6090     2.5190     0.0240  -999.2500
 2941.5000   -49.1030     5.5980     4.9350     6.8150     7.6020     2.5120     0.0260  -999.2500
 2942.0000   -49.0690     5.8970     4.9180     7.3040     7.5960     2.5050     0.0280  -999.2500
 2942.5000   -49.0430     6.1960     4.9240     8.2700     7.5890     2.4920     0.0290  -999.2500
 2943.0000   -48.9960     6.4870     4.9460     9.2120     7.5820     2.4730     0.0310  -999.2500
 2943.5000   -48.8470     6.2990     4.9690     8.5560     7.5830     2.4680     0.0310  -999.2500
 2944.0000   -48.7130     6.1160     4.9910     7.9080     7.5900     2.4750     0.0290  -999.2500
 2944.5000   -47.9480     5.9330     5.0100     7.2470     7.5960     2.4800     0.0280  -999.2500
 2945.0000   -46.4170     5.7500     5.3500     6.8830     7.6030     2.4860     0.0260  -999.2500
 2945.5000   -45.2150     5.5660     5.5970     6.3680     7.6090     2.4920     0.0250  -999.2500
 2946.0000   -41.4370     5.2950     6.2960     6.4020     7.6150     2.4930     0.0240  -999.2500
 2946.5000   -35.2570     5.3890     7.2420     6.5010     7.6220     2.4820     0.0220  -999.2500
 2947.0000   -25.9700     5.5690    10.6900     6.6000     7.6280     2.4710     0.0210  -999.2500
 2947.5000   -16.7990     5.7490    15.1720     6.6990     7.6350     2.4690     0.0200  -999.2500
 2948.0000    -8.2170     6.4220    27.8820     6.7790     7.6410     2.4660     0.0180  -999.2500
 2948.5000    -0.5370     7.3330   630.7680     6.9570     7.6470     2.4670     0.0170  -999.2500
 2949.0000  -999.2500     9.5690  1330.3430     7.1350     7.6540     2.4720     0.0150  -999.2500
 2949.5000  -999.2500   217.9240  -999.2500     7.3120     7.6600     2.4770     0.0190  -999.2500
 2950.0000  -999.2500   706.7010  -999.2500     7.6470     7.6600     2.4830     0.0230  -999.2500
 2950.5000  -999.2500  1195.4790  -999.2500     8.0810     7.6600     2.4900     0.0280  -999.2500
 2951.0000  -999.2500  1723.8900  -999.2500     8.5560     7.6600     2.4920     0.0330  -999.2500
 2951.5000  -999.2500  -999.2500  -999.2500     8.6340     7.6600     2.4920     0.0370  -999.2500
 2952.0000  -999.2500  -999.2500  -999.2500     8.7160     7.6600     2.4920     0.0390  -999.2500
 2952.5000  -999.2500  -999.2500  -999.2500     8.7160  -999.2500  -999.2500  -999.2500  -999.2500
 2953.0000  -999.2500  -999.2500  -999.2500     8.7160  -999.2500  -999.2500  -999.2500  -999.2500
 2953.5000  -999.2500  -999.2500  -999.2500     8.4170  -999.2500  -999.2500  -999.2500  -999.2500
 2954.0000  -999.2500  -999.2500  -999.2500     8.0700  -999.2500  -999.2500  -999.2500  -999.2500
 2954.5000  -999.2500  -999.2500  -999.2500     7.5270  -999.2500  -999.2500  -999.2500  -999.2500
 2955.0000  -999.2500  -999.2500  -999.2500     6.9840  -999.2500  -999.2500  -999.2500  -999.2500
