~VERSION INFORMATION
 VERS.                2.0:   CWLS LOG ASCII STANDARD - VERSION 2.0
 WRAP.                 NO:   ONE LINE PER DEPTH STEP
~WELL INFORMATION
#MNEM.UNIT      DATA TYPE    INFORMATION
#----------   ------------   ------------------------------
 STRT.F          594.5000:   START DEPTH
 STOP.F         3015.5000:   STOP DEPTH
 STEP.F            0.5000:   STEP LENGTH
 NULL.          -999.2500:   NO VALUE
 COMP.    FENIX & SCISSON:   COMPANY
 WELL.  FENIX "AX" #35-34:   WELL
 FLD .             NPR #3:   FIELD
 LOC .      S34 T39N R78W:   LOCATION
 CNTY.            NATRONA:   COUNTY
 STAT.            WYOMING:   STATE
 CTRY. UNITED STATES OF AMERICA:   COUNTRY
 SRVC.       SCHLUMBERGER:   SERVICE COMPANY
 DATE.        14-APR-1977:   LOGDATE
 API .     49025103390000:   API NUMBER
~CURVE INFORMATION
#MNEM.UNIT       API CODE    CURVE DESCRIPTION
#----------   ------------   ------------------------------
 DEPT.F                  :   
 CALD.IN     45 280 60 00:   CALIPER FROM DENSITY LOG
 RHOB.G/C3   45 350 01 00:   BULK DENSITY
 DRHO.G/C3   45 356 01 00:   DENSITY CORRECTION
 SPR .MV     07 010 01 00:   SPONTANEOUS POTENTIAL
 RILM.OHMM   07 120 44 00:   INDUCTION LOG MEDIUM RESISTIVITY
 RILD.OHMM   07 120 46 00:   DEEP INDUCTION RESISTIVITY
 LL8 .OHMM   07 220 08 00:   LATEROLOG-8 RES.
 GRD .GAPI   45 310 01 00:   GAMMA RAY FROM DENSITY LOG
~PARAMETER INFORMATION
#MNEM.UNIT          VALUE    DESCRIPTION
#----------   ------------   ------------------------------
 EKB .F         5116.0000:   Kelly bushing
 EGL .F         5104.0000:   Ground level
 EDF .F            0.0000:   Drilling floor
 TD  .F         3017.0000:   Total depth
 DATE.        14-APR-1977:   Date logged
 CLNT.            A2DTECH:   Client Code
 SL  . 2311' FSL & 1550' FWL:   Surface Location
 PD  .                 GL:   Permanent Datum
 EPD .F              5104:   Elevation Permanent Datum
 LMF .                 KB:   Log Measured From
 DMF .                 KB:   Drilling Measured From
 DAPD.F                12:   Feet Above Permanent Datum
 DD  .F              3012:   Depth driller
 DL  .F              3017:   Depth logger
 BLI .F              3011:   Bottom log interval
 TLI .F               600:   Top log interval
 CS1 .IN            8.625:   Casing size
 CBD1.      8.625" @ 601':   Casing driller 1
 CBL1.F               600:   Casing logger 1
 BS1 .IN            7.875:   Bit size
 BSD1.F              3012:   Depth drilled with bit1
 DFT .                FGM:   Type fluid in hole
 DFD .                9.2:   Density
 DFV .                 29:   Viscosity
 MSS .           FLOWLINE:   Source of sample
 RMS .OHMM          0.206:   Rm
 MST .F                60:   Rm Meas. temp.
 RMF .OHMM          0.192:   Rmf
 MFST.F                60:   Rmf Meas. temp.
 MFSS.               MEAS:   Source Rmf.
 RMB .OHMM          0.109:   Rm. at BHT
 BHT .F               113:   BHT.
 TLAB.HRS            0200:   Time logger at bottom
 MRT .F               113:   Maximum recorded temp.
 LUN .               7711:   Logging unit number
 LUL .               CSPR:   Logging unit location
 ENGI.             GEIGER:   Recorded By
 WITN.         PETTINGILL:   Witnessed by
 ORIG.           5" PRINT:   Origin of data
 UWI .     49025103390000:   Unique Well ID
 DICO. A2D TECHNOLOGIES, INC.:   Digitizing Company
~OTHER INFORMATION
~A   DEPT     CALD       RHOB       DRHO        SPR       RILM       RILD        LL8         GRD  
# ...
 2174.0000     9.3270     2.4090     0.0620   -73.0880     8.8760     6.1820     6.6930   117.2500
 2174.5000    10.2680     2.4140     0.0820   -73.2760     8.5200     6.1020     7.3510   116.9890
 2175.0000    10.5220     2.4180     0.1250   -73.4650     8.1640     6.0500     6.7810   118.9060
 2175.5000     9.1970     2.4220     0.1550   -73.6540     7.8080     6.0260     5.9700   119.8860
 2176.0000     8.7220     2.4350     0.1120   -73.8420     7.4780     6.0020     5.2330   114.4610
 2176.5000     8.7680     2.4600     0.1480   -73.9180     7.2110     5.9780     5.7640   115.1230
 2177.0000     8.8420     2.4710     0.1740   -73.8000     7.0160     5.9540     6.4050   117.1620
 2177.5000     8.7390     2.4330     0.1070   -73.6850     7.0000     5.8420     6.0110   119.7660
 2178.0000     8.6220     2.4450     0.1180   -73.5610     6.9840     5.7180     5.4790   124.7520
 2178.5000     8.5510     2.4800     0.1310   -73.2100     6.9680     5.5940     5.9490   129.7060
 2179.0000     8.5180     2.4680     0.1150   -72.8390     6.9570     5.4700     6.3850   134.1860
 2179.5000     8.4880     2.4350     0.0600   -72.4620     6.8360     5.3790     6.7060   133.5760
 2180.0000     8.4810     2.4510     0.0710   -72.2580     6.7060     5.3960     5.9970   133.1920
 2180.5000     8.4730     2.4930     0.0910   -72.0270     6.8050     5.4090     5.5810   133.8710
 2181.0000     8.4850     2.4850     0.0690   -72.1790     6.8930     5.4290     6.2210   133.2330
 2181.5000     8.5030     2.4740     0.0460   -72.4440     6.7890     5.3870     6.7300   129.5650
 2182.0000     8.4840     2.4650     0.0290   -72.5930     6.6660     5.2940     7.2390   124.5200
 2182.5000     8.4700     2.4560     0.0550   -72.6310     6.5430     5.2010     7.6260   122.0380
 2183.0000     8.4700     2.4920     0.1000   -72.6700     6.5030     5.1070     6.9080   121.0360
 2183.5000     8.4700     2.5300     0.1220   -72.7080     6.4780     5.0140     6.3290   120.5170
 2184.0000     8.4960     2.5030     0.0670   -72.7450     6.4540     4.9880     5.7500   125.4980
 2184.5000     8.5190     2.4780     0.0520   -72.7590     6.4290     4.9750     5.1850   130.7190
 2185.0000     8.4960     2.4660     0.0450   -72.7020     6.4050     4.9630     5.5870   135.3700
 2185.5000     8.4730     2.4570     0.0380   -72.6470     6.7250     4.9530     5.9800   133.5160
 2186.0000     8.5160     2.4470     0.0360   -72.5940     7.0390     5.3590     6.4780   129.0300
 2186.5000     8.4910     2.4530     0.0440   -72.3940     7.3530     5.6930     7.3690   124.1440
 2187.0000     8.4490     2.4580     0.0510   -72.1250     7.6670     6.0260     8.2590   119.2680
 2187.5000     8.4500     2.4250     0.0250   -71.6160     7.9810     6.3600     9.1500   114.4330
 2188.0000     8.4830     2.4300     0.0110   -70.8130     8.2950     6.6940    10.0440   112.1900
 2188.5000     8.4510     2.4330     0.0150   -70.1020     8.6250     7.0270     9.9650   113.7120
 2189.0000     8.4220     2.4290     0.0160   -70.1280     8.9580     7.3610     9.8850   115.4120
 2189.5000     8.3920     2.4280     0.0130   -70.0450     9.1630     7.6950     9.8050   116.9990
 2190.0000     8.4000     2.4310     0.0110   -69.6830     8.8980     7.7760     9.6630   117.8390
 2190.5000     8.4100     2.4350     0.0120   -69.2830     8.5140     7.7870     9.4770   118.7210
 2191.0000     8.3960     2.4480     0.0190   -68.8820     8.5950     7.7980     9.2480   117.4660
 2191.5000     8.4340     2.4610     0.0250   -69.3320     8.7360     7.8090     9.4100   115.6250
 2192.0000     8.4270     2.4750     0.0360   -69.7660     8.8770     7.8200     9.6210   113.5110
 2192.5000     8.4110     2.4710     0.0130   -70.1880     9.0170     7.8320     9.8320   114.3670
 2193.0000     8.4090     2.4640     0.0080   -70.2960     9.0790     7.8700    10.1370   117.1270
 2193.5000     8.4000     2.4830     0.0120   -70.4040     8.9630     8.0680     9.7770   121.9150
 2194.0000     8.3910     2.4730     0.0110   -70.8230     8.8330     8.2660     8.8330   126.6580
 2194.5000     8.4010     2.4590     0.0170   -71.2600     8.9720     8.4640     9.2240   131.3130
 2195.0000     8.4100     2.4660     0.0150   -71.6950     9.0940     8.6620     9.9410   134.3400
 2195.5000     8.4020     2.4550     0.0130   -71.9920     9.2480     8.8210    10.6570   131.0030
 2196.0000     8.3940     2.4450     0.0150   -72.3360     9.1410     8.7380    11.4220   127.6130
 2196.5000     8.4000     2.4650     0.0160   -72.7110     8.9960     8.6550    10.8710   125.1570
 2197.0000     8.4140     2.4490     0.0090   -73.0870     8.8510     8.5720    10.2790   126.2760
 2197.5000     8.4290     2.4350     0.0100   -73.4750     8.7460     8.4890     9.6860   128.2460
 2198.0000     8.4000     2.4420     0.0140   -73.4230     8.7270     8.4060     9.2190   128.1010
 2198.5000     8.4070     2.4490     0.0140   -72.9380     8.7080     8.3230     9.7020   126.0140
 2199.0000     8.4300     2.4570     0.0130   -72.3490     8.6890     8.2400    10.1840   123.3400
 2199.5000     8.4490     2.4520     0.0080   -71.7580     8.6720     8.1320    10.3250   118.3790
 2200.0000     8.4200     2.4420     0.0020   -71.1660     8.7950     8.2680    10.1370   115.0770
 2200.5000     8.3910     2.4320     0.0040   -70.5560     8.9310     8.4610    10.7820   113.3790
 2201.0000     8.3730     2.4240     0.0080   -70.3510     9.0670     8.6540    11.5280   111.0920
 2201.5000     8.3850     2.4190    -0.0010   -70.2470     9.2410     8.8480    11.2600   108.3610
 2202.0000     8.3950     2.4200    -0.0060   -70.1500     9.5040     9.0410    10.7180   107.1540
 2202.5000     8.4050     2.4380     0.0030   -70.0520     9.7680     9.2340    10.1760   108.7500
 2203.0000     8.4150     2.4550     0.0110   -70.1220    10.0310     9.4270     9.6820   109.8740
 2203.5000     8.4260     2.4730     0.0190   -70.3690    10.2950     9.6210    11.9960   107.4460
 2204.0000     8.4250     2.4900     0.0100   -70.6120    10.3250     9.8140    14.3090   106.0090
 2204.5000     8.4150     2.4890     0.0170   -70.7990    10.3250     9.9530    13.9660   107.4000
 2205.0000     8.4050     2.4780     0.0240   -71.2510    10.2770     9.8200    13.5080   110.8340
 2205.5000     8.3950     2.4600     0.0130   -71.7700    10.2220     9.7160    13.0510   119.5770
 2206.0000     8.3910     2.4510     0.0270   -72.2900    10.1680     9.6120    12.5930   128.8020
 2206.5000     8.3910     2.4440     0.0130   -72.7780    10.1130     9.5090    12.1360   140.1010
 2207.0000     8.3940     2.4280     0.0060   -73.0980    10.0580     9.4050    11.5280   138.6700
 2207.5000     8.4020     2.4320     0.0200   -73.4010    10.0040     9.3010    12.0720   136.2090
 2208.0000     8.4100     2.4420     0.0210   -73.6500     9.9530     9.1980    12.8820   133.7210
 2208.5000     8.3970     2.4520     0.0140   -73.8370     9.7140     9.1630    13.2300   131.2540
 2209.0000     8.4000     2.4440     0.0210   -74.0180     9.9190     9.1630    12.5890   129.4540
 2209.5000     8.4160     2.4310     0.0120   -74.0680    10.2310     9.1630    11.9880   128.6980
 2210.0000     8.4300     2.4370     0.0060   -73.6680    10.2180     9.1630    11.4220   128.0000
 2210.5000     8.4240     2.4490     0.0140   -73.3310    10.2000     9.1790    11.8560   128.9930
 2211.0000     8.4180     2.4440     0.0220   -72.5990    10.1810     9.2120    12.4070   130.7650
 2211.5000     8.4110     2.4390     0.0170   -72.3260    10.1620     9.2460    12.1950   129.4380
 2212.0000     8.4300     2.4340     0.0090   -72.2240    10.1440     9.2790    11.8710   126.8270
 2212.5000     8.4500     2.4380     0.0110   -72.0560    10.1370     9.3130    11.5470   124.2420
 2213.0000     8.4410     2.4430     0.0140   -71.5140    10.3290     9.3460    11.2240   122.7760
 2213.5000     8.4330     2.4480     0.0150   -70.9710    10.8650     9.3800    10.9000   121.5640
 2214.0000     8.4240     2.4530     0.0100   -71.0520    10.6780     9.4130    10.5770   120.3560
