~VERSION INFORMATION
 VERS.                2.0:   CWLS LOG ASCII STANDARD - VERSION 2.0
 WRAP.                 NO:   ONE LINE PER DEPTH STEP
~WELL INFORMATION
#MNEM.UNIT      DATA TYPE    INFORMATION
#----------   ------------   ------------------------------
 STRT.F          198.0000:   START DEPTH
 STOP.F         3034.0000:   STOP DEPTH
 STEP.F            0.5000:   STEP LENGTH
 NULL.          -999.2500:   NO VALUE
 COMP.    FENIX & SCISSON:   COMPANY
 WELL.   FENIX "A" #44-29:   WELL
 FLD .              NPR-3:   FIELD
 LOC .      S29 T39N R78W:   LOCATION
 CNTY.            NATRONA:   COUNTY
 STAT.            WYOMING:   STATE
 CTRY. UNITED STATES OF AMERICA:   COUNTRY
 SRVC.              WELEX:   SERVICE COMPANY
 DATE.        26-MAY-1977:   LOGDATE
 API .     49025103690000:   API NUMBER
~CURVE INFORMATION
#MNEM.UNIT       API CODE    CURVE DESCRIPTION
#----------   ------------   ------------------------------
 DEPT.F                  :   
 SPR .MV     07 010 01 00:   SPONTANEOUS POTENTIAL
 ILD .OHMM   07 120 46 00:   DEEP INDUCTION RESISTIVITY
 ILM .OHMM   07 120 44 00:   INDUCTION LOG MEDIUM RESISTIVITY
 SGRD.OHMM   07 220 05 00:   SHALLOW SHORT GUARD RESISTIVITY
 CALD.IN     45 280 60 00:   CALIPER FROM DENSITY LOG
 GRD .GAPI   45 310 01 00:   GAMMA RAY FROM DENSITY LOG
 RHOB.G/C3   45 350 01 00:   BULK DENSITY
 CORR.G/C3   45 356 01 00:   DENSITY CORRECTION
~PARAMETER INFORMATION
#MNEM.UNIT          VALUE    DESCRIPTION
#----------   ------------   ------------------------------
 EKB .F         5010.0000:   Kelly bushing
 EGL .F         5000.0000:   Ground level
 EDF .F            0.0000:   Drilling floor
 TD  .F         3036.0000:   Total depth
 DATE.        26-MAY-1977:   Date logged
 CLNT.            A2DTECH:   Client Code
 SL  . 2310' FNL & 2310' FWL:   Surface Location
 PD  .                 GL:   Permanent Datum
 EPD .F              5000:   Elevation Permanent Datum
 LMF .                 KB:   Log Measured From
 DMF .                 KB:   Drilling Measured From
 DD  .F              3035:   Depth driller
 DL  .F              3036:   Depth logger
 BLI .F              3034:   Bottom log interval
 TLI .F               210:   Top log interval
 CS1 .IN            8.625:   Casing size
 CBD1.      8.625" @ 245':   Casing driller 1
 CBL1.F               220:   Casing logger 1
 BS1 .IN            7.875:   Bit size
 BSD1.F              3035:   Depth drilled with bit1
 DFT .            KCL MUD:   Type fluid in hole
 DFD .                8.8:   Density
 DFV .                 34:   Viscosity
 DFPH.                7.5:   pH
 DFL .                6.6:   Fluid loss
 MSS .           FLOWLINE:   Source of sample
 RMS .OHMM           0.20:   Rm
 MST .F                89:   Rm Meas. temp.
 RMF .OHMM           0.17:   Rmf
 MFST.F                89:   Rmf Meas. temp.
 RMC .OHMM           0.30:   Rmc
 MCST.F                89:   Rmc Meas. temp.
 MFSS.               FANN:   Source Rmf.
 MCSS.                KIT:   Source Rmc.
 RMB .OHMM           0.16:   Rm. at BHT
 BHT .F               110:   BHT.
 TCS .HRS             2.5:   Time Circ. stopped
 MRT .F               110:   Maximum recorded temp.
 LUN .               8611:   Logging unit number
 LUL .             CASPER:   Logging unit location
 ENGI.            C. DOAK:   Recorded By
 WITN.      B. HARRINGTON:   Witnessed by
 ORIG.           5" PRINT:   Origin of data
 UWI .     49025103690000:   Unique Well ID
 DICO. A2D TECHNOLOGIES, INC.:   Digitizing Company
~OTHER INFORMATION
~A   DEPT      SPR        ILD        ILM       SGRD       CALD         GRD      RHOB       CORR   
# ...
  927.0000   -31.1490     7.8220    10.3250    13.0290     9.2940   101.0250     2.4330     0.0070
  927.5000   -31.1850     7.7410    10.0850    12.9890     9.2900    97.3050     2.4400     0.0060
  928.0000   -31.2210     7.6600     9.6910    13.3410     9.2870    99.5620     2.4490     0.0040
  928.5000   -31.2570     7.5790     9.2960    13.4750     9.2840   101.9230     2.4560     0.0060
  929.0000   -31.2930     7.4980     8.9020    12.6140     9.2710   100.5600     2.4540     0.0110
  929.5000   -31.3300     7.4190     8.6720    11.7270     9.2580    98.8220     2.4540     0.0150
  930.0000   -31.3660     7.4290     9.1630    11.9740     9.2440   101.3200     2.4640     0.0190
  930.5000   -31.4020     7.4400     8.9070    12.4280     9.2300   101.1620     2.4730     0.0240
  931.0000   -31.4380     7.4500     8.7520    12.5210     9.2170    98.4150     2.4830     0.0280
  931.5000   -31.4740     7.4600     8.9870    13.2300     9.2070    96.9410     2.4920     0.0320
  932.0000   -31.5100     7.4710     9.0790    13.1980     9.2220    95.9120     2.4920     0.0370
  932.5000   -31.5430     7.4810     8.4090    13.1220     9.2380    95.4930     2.4870     0.0380
  933.0000   -31.5530     7.4870     8.0900    12.7580     9.2530    96.1770     2.4820     0.0380
  933.5000   -31.5620     7.4510     7.9110    12.3350     9.2680    97.8910     2.4770     0.0370
  934.0000   -31.5710     7.4060     7.9110    12.1810     9.2830   100.3740     2.4750     0.0350
  934.5000   -31.5800     7.3620     8.0700    12.5210     9.2980   102.8770     2.4770     0.0340
  935.0000   -31.5890     7.3170     8.3190    12.3080     9.3130   105.3930     2.4800     0.0360
  935.5000   -31.5980     7.2820     8.3590    12.1020     9.3280   107.4280     2.4740     0.0380
  936.0000   -31.6070     7.2760     8.3400    11.8970     9.3430   104.8510     2.4670     0.0350
  936.5000   -31.6160     7.2690     8.3220    11.7420     9.3580   106.9070     2.4650     0.0330
  937.0000   -31.6250     7.2630     8.3040    11.7420     9.3730   109.1040     2.4700     0.0300
  937.5000   -31.6340     7.2570     8.2830    11.8650     9.3830   108.6730     2.4770     0.0280
  938.0000   -31.6430     7.2510     8.7400    12.0100     9.3830   107.6400     2.4820     0.0250
  938.5000   -31.6520     7.2440     9.2480    12.1560     9.3830   108.6970     2.4810     0.0230
  939.0000   -31.6610     7.2380     9.2480    12.2930     9.3830   109.8750     2.4570     0.0200
  939.5000   -31.6700     7.2320     9.0380    12.0000     9.3820   109.2630     2.4550     0.0180
  940.0000   -31.6800     7.2250     8.7930    12.4070     9.3690   108.6790     2.4550     0.0200
  940.5000   -31.6890     7.2190     8.5480    12.1520     9.3340   109.7100     2.4530     0.0230
  941.0000   -31.6980     7.2120     8.5140    11.6340     9.2950   111.3590     2.4640     0.0250
  941.5000   -31.7070     7.2050     8.5540    11.8030     9.2560   113.0140     2.4640     0.0240
  942.0000   -31.7160     7.1980     8.7030    12.0690     9.2200   110.3960     2.4510     0.0200
  942.5000   -31.7250     7.1910     8.8520    11.6340     9.2250   106.2880     2.4490     0.0170
  943.0000   -31.7340     7.1830     9.0010    12.0550     9.2450   102.4520     2.4590     0.0180
  943.5000   -31.7380     7.1760     9.0790    12.6370     9.2670   103.1720     2.4660     0.0220
  944.0000   -31.7380     7.1690     9.0790    12.6370     9.2890   104.9890     2.4720     0.0270
  944.5000   -31.7380     7.1620     9.0790    12.3850     9.3110   105.6590     2.4640     0.0260
  945.0000   -31.7380     7.1540     9.0350    12.1880     9.3280   105.9080     2.4660     0.0240
  945.5000   -31.7380     7.1470     8.9430    11.9910     9.3380   106.1520     2.4620     0.0220
  946.0000   -31.7380     7.1400     8.7930    11.8500     9.3480   106.7660     2.4550     0.0200
  946.5000   -31.7380     7.1330     8.6160    12.1810     9.3580   108.6590     2.4500     0.0180
  947.0000   -31.7380     7.1250     8.4390    12.0380     9.3680   110.5120     2.4560     0.0170
  947.5000   -31.7380     7.1180     8.2620    11.8500     9.3780   111.7780     2.4620     0.0160
  948.0000   -31.7380     7.1110     8.2030    11.8500     9.3870   108.9960     2.4710     0.0280
  948.5000   -31.7370     7.1040     8.1960    11.9730     9.3970   106.1930     2.4790     0.0380
  949.0000   -31.8150     7.0970     8.1890    12.0690     9.4070   103.4020     2.4850     0.0330
  949.5000   -31.9230     7.0860     8.1830    11.6880     9.4170   101.9530     2.4780     0.0290
  950.0000   -32.0320     7.0910     8.1760    11.4220     9.4160   103.3720     2.4690     0.0260
  950.5000   -32.1220     7.1010     8.1700    11.4850     9.4050   105.3900     2.4670     0.0230
  951.0000   -32.0680     7.1120     8.1630    11.6080     9.3940   105.7470     2.4650     0.0200
  951.5000   -32.0120     7.1220     8.1560    11.7420     9.3820   104.4550     2.4630     0.0200
  952.0000   -31.9560     7.1320     8.1500    11.9870     9.3710   103.1500     2.4620     0.0210
  952.5000   -31.9000     7.1430     8.1440    12.2550     9.3590   104.2230     2.4650     0.0210
  953.0000   -31.8440     7.1530     8.1370    12.5230     9.3480   108.4340     2.4680     0.0220
  953.5000   -31.7890     7.1630     8.0920    12.7240     9.3360   112.4340     2.4660     0.0210
  954.0000   -31.7330     7.1740     7.9690    12.5180     9.3250   112.4270     2.4540     0.0180
  954.5000   -31.6770     7.1840     7.8470    12.3130     9.3140   107.5290     2.4430     0.0150
  955.0000   -31.6220     7.1950     7.7250    12.1980     9.3040   103.7110     2.4310     0.0110
  955.5000   -31.5650     7.2050     7.6260    12.4070     9.3090   101.1320     2.4260     0.0100
  956.0000   -31.5360     7.2150     7.9110    12.2540     9.3140   101.2170     2.4390     0.0130
  956.5000   -31.5240     7.2260     7.5560    12.2030     9.3190   102.8640     2.4520     0.0170
  957.0000   -31.5130     7.2360     7.7030    12.1520     9.3250   104.7370     2.4620     0.0200
  957.5000   -31.5010     7.2460     7.9550    12.0750     9.3330   108.2370     2.4590     0.0220
  958.0000   -31.4890     7.2570     8.0580    12.1210     9.3410   110.3190     2.4490     0.0190
  958.5000   -31.4770     7.2670     7.6960    12.2510     9.3480   111.9550     2.4420     0.0150
  959.0000   -31.4660     7.2840     7.6960    12.4070     9.3560   113.0150     2.4510     0.0120
  959.5000   -31.4540     7.2710     8.0090    12.3600     9.3630   110.4320     2.4680     0.0170
  960.0000   -31.4420     7.2400     8.4360    12.3030     9.3650   106.0290     2.4740     0.0220
  960.5000   -31.4310     7.2090     8.3640    12.2930     9.3670   105.4690     2.4720     0.0280
  961.0000   -31.4190     7.1770     8.1940    12.2930     9.3680   105.6850     2.4700     0.0270
  961.5000   -31.4070     7.1460     8.1320    12.2930     9.3700   106.1270     2.4660     0.0270
  962.0000   -31.3950     7.1150     8.1320    12.2930     9.3720   105.4010     2.4640     0.0260
  962.5000   -31.3840     7.0860     8.7520    12.2930     9.3730   103.9880     2.4630     0.0250
  963.0000   -31.3720     7.1080     8.7520    12.2930     9.3750   105.2450     2.4630     0.0240
  963.5000   -31.3600     7.1290     8.5230    12.2930     9.3770   108.6200     2.4680     0.0250
  964.0000   -31.3490     7.1500     8.2970    12.2930     9.3780   109.5120     2.4730     0.0270
  964.5000   -31.4120     7.1710     8.1320    12.2080     9.3800   102.5500     2.4770     0.0290
  965.0000   -31.4820     7.1930     8.1150    12.1280     9.3820   104.1500     2.4740     0.0270
  965.5000   -31.5510     7.2140     8.0960    12.0480     9.3810   106.3630     2.4670     0.0230
  966.0000   -31.6210     7.2350     8.0770    11.9680     9.3780   105.0140     2.4600     0.0190
  966.5000   -31.6900     7.2560     8.0580    12.0650     9.3740   101.2750     2.4530     0.0150
  967.0000   -31.7600     7.2770     8.0390    12.1830     9.3710   103.2940     2.4540     0.0140
