~VERSION INFORMATION
 VERS.                2.0:   CWLS LOG ASCII STANDARD - VERSION 2.0
 WRAP.                 NO:   ONE LINE PER DEPTH STEP
~WELL INFORMATION
#MNEM.UNIT      DATA TYPE    INFORMATION
#----------   ------------   ------------------------------
 STRT.F          198.0000:   START DEPTH
 STOP.F         3034.0000:   STOP DEPTH
 STEP.F            0.5000:   STEP LENGTH
 NULL.          -999.2500:   NO VALUE
 COMP.    FENIX & SCISSON:   COMPANY
 WELL.   FENIX "A" #44-29:   WELL
 FLD .              NPR-3:   FIELD
 LOC .      S29 T39N R78W:   LOCATION
 CNTY.            NATRONA:   COUNTY
 STAT.            WYOMING:   STATE
 CTRY. UNITED STATES OF AMERICA:   COUNTRY
 SRVC.              WELEX:   SERVICE COMPANY
 DATE.        26-MAY-1977:   LOGDATE
 API .     49025103690000:   API NUMBER
~CURVE INFORMATION
#MNEM.UNIT       API CODE    CURVE DESCRIPTION
#----------   ------------   ------------------------------
 DEPT.F                  :   
 SPR .MV     07 010 01 00:   SPONTANEOUS POTENTIAL
 ILD .OHMM   07 120 46 00:   DEEP INDUCTION RESISTIVITY
 ILM .OHMM   07 120 44 00:   INDUCTION LOG MEDIUM RESISTIVITY
 SGRD.OHMM   07 220 05 00:   SHALLOW SHORT GUARD RESISTIVITY
 CALD.IN     45 280 60 00:   CALIPER FROM DENSITY LOG
 GRD .GAPI   45 310 01 00:   GAMMA RAY FROM DENSITY LOG
 RHOB.G/C3   45 350 01 00:   BULK DENSITY
 CORR.G/C3   45 356 01 00:   DENSITY CORRECTION
~PARAMETER INFORMATION
#MNEM.UNIT          VALUE    DESCRIPTION
#----------   ------------   ------------------------------
 EKB .F         5010.0000:   Kelly bushing
 EGL .F         5000.0000:   Ground level
 EDF .F            0.0000:   Drilling floor
 TD  .F         3036.0000:   Total depth
 DATE.        26-MAY-1977:   Date logged
 CLNT.            A2DTECH:   Client Code
 SL  . 2310' FNL & 2310' FWL:   Surface Location
 PD  .                 GL:   Permanent Datum
 EPD .F              5000:   Elevation Permanent Datum
 LMF .                 KB:   Log Measured From
 DMF .                 KB:   Drilling Measured From
 DD  .F              3035:   Depth driller
 DL  .F              3036:   Depth logger
 BLI .F              3034:   Bottom log interval
 TLI .F               210:   Top log interval
 CS1 .IN            8.625:   Casing size
 CBD1.      8.625" @ 245':   Casing driller 1
 CBL1.F               220:   Casing logger 1
 BS1 .IN            7.875:   Bit size
 BSD1.F              3035:   Depth drilled with bit1
 DFT .            KCL MUD:   Type fluid in hole
 DFD .                8.8:   Density
 DFV .                 34:   Viscosity
 DFPH.                7.5:   pH
 DFL .                6.6:   Fluid loss
 MSS .           FLOWLINE:   Source of sample
 RMS .OHMM           0.20:   Rm
 MST .F                89:   Rm Meas. temp.
 RMF .OHMM           0.17:   Rmf
 MFST.F                89:   Rmf Meas. temp.
 RMC .OHMM           0.30:   Rmc
 MCST.F                89:   Rmc Meas. temp.
 MFSS.               FANN:   Source Rmf.
 MCSS.                KIT:   Source Rmc.
 RMB .OHMM           0.16:   Rm. at BHT
 BHT .F               110:   BHT.
 TCS .HRS             2.5:   Time Circ. stopped
 MRT .F               110:   Maximum recorded temp.
 LUN .               8611:   Logging unit number
 LUL .             CASPER:   Logging unit location
 ENGI.            C. DOAK:   Recorded By
 WITN.      B. HARRINGTON:   Witnessed by
 ORIG.           5" PRINT:   Origin of data
 UWI .     49025103690000:   Unique Well ID
 DICO. A2D TECHNOLOGIES, INC.:   Digitizing Company
~OTHER INFORMATION
~A   DEPT      SPR        ILD        ILM       SGRD       CALD         GRD      RHOB       CORR   
# ...
  765.0000   -30.6230     7.5390     8.9130    12.0640     9.3800   102.3340     2.4470     0.0190
  765.5000   -30.5790     7.5520     8.9960    12.0110     9.3810   101.3790     2.4470     0.0160
  766.0000   -30.5360     7.5650     8.7520    11.9590     9.3820    99.9410     2.4470     0.0140
  766.5000   -30.4920     7.5780     8.7520    12.1420     9.3850    99.2380     2.4420     0.0120
  767.0000   -30.4480     7.5910     8.8840    12.2930     9.3940   101.2810     2.4370     0.0100
  767.5000   -30.4050     7.6040     9.0210    12.2930     9.4020   103.5880     2.4390     0.0120
  768.0000   -30.3810     7.6170     9.2480    12.4790     9.4100   103.8100     2.4380     0.0130
  768.5000   -30.4360     7.6300     9.2250    12.6370     9.4190   102.0130     2.4320     0.0140
  769.0000   -30.4890     7.6430     9.1850    12.6530     9.4270   102.0800     2.4260     0.0120
  769.5000   -30.5410     7.6560     9.1440    12.6820     9.4360   102.9870     2.4200     0.0110
  770.0000   -30.5940     7.6690     9.1040    12.7110     9.4440   103.9050     2.4200     0.0090
  770.5000   -30.6460     7.6820     9.0630    12.7530     9.4530   103.5220     2.4210     0.0080
  771.0000   -30.6990     7.6960     9.0230    12.5880     9.4590   100.5420     2.4220     0.0130
  771.5000   -30.7570     7.6920     8.9820    12.2780     9.4810    97.5150     2.4240     0.0140
  772.0000   -30.6280     7.6870     8.9420    12.0690     9.4800    97.1980     2.4250     0.0160
  772.5000   -30.4680     7.6820     8.9140    12.2920     9.4790    98.2400     2.4270     0.0170
  773.0000   -30.3050     7.6770     8.9330    12.3900     9.4780    99.2830     2.4340     0.0190
  773.5000   -30.1420     7.6720     8.9490    12.4890     9.4780   100.3180     2.4400     0.0200
  774.0000   -29.9800     7.6670     8.9660    12.6370     9.4770   101.3060     2.4380     0.0180
  774.5000   -29.8140     7.6620     8.9820    12.5700     9.4760   103.8680     2.4320     0.0160
  775.0000   -29.8460     7.6570     8.9980    12.4380     9.4750   106.6080     2.4250     0.0140
  775.5000   -29.9200     7.6520     9.0150    12.2930     9.4740   106.9890     2.4190     0.0130
  776.0000   -29.9950     7.6470     9.0310    12.3850     9.4740   102.6380     2.4140     0.0110
  776.5000   -30.0700     7.6420     9.0480    12.5160     9.4730    98.1350     2.4140     0.0100
  777.0000   -30.1450     7.6370     9.0640    12.6370     9.4720    93.5740     2.4160     0.0120
  777.5000   -30.2200     7.6320     9.0790    12.3280     9.4710    93.9280     2.4170     0.0130
  778.0000   -30.2940     7.6270     9.0020    12.1810     9.4700    99.5890     2.4220     0.0140
  778.5000   -30.3750     7.5920     8.9140    12.4850     9.4700   105.4780     2.4260     0.0150
  779.0000   -30.6210     7.5410     8.8330    12.5210     9.4690   107.5210     2.4300     0.0170
  779.5000   -30.8760     7.4900     8.5810    12.0870     9.4680   104.1630     2.4340     0.0180
  780.0000   -31.1300     7.4390     8.3590    11.7420     9.4670    99.1450     2.4270     0.0170
  780.5000   -31.3820     7.3890     8.2830    11.7420     9.4660    99.4360     2.4180     0.0150
  781.0000   -31.4550     7.3510     8.2070    11.7420     9.4650   101.5810     2.4170     0.0140
  781.5000   -31.2070     7.2810     8.5850    11.7420     9.4650   103.1680     2.4220     0.0160
  782.0000   -30.9640     7.2780     8.7520    11.9040     9.4640   102.4510     2.4240     0.0180
  782.5000   -30.7220     7.2740     8.6560    11.9590     9.4630   101.7170     2.4200     0.0160
  783.0000   -30.5640     7.2700     8.4390    11.7370     9.4620   103.5330     2.4150     0.0140
  783.5000   -30.5670     7.2660     8.3590    11.5580     9.4620   106.3310     2.4100     0.0120
  784.0000   -30.5660     7.2630     8.2890    11.5280     9.4620   108.7600     2.4190     0.0140
  784.5000   -30.5660     7.2590     8.2220    11.5770     9.4620   105.6640     2.4280     0.0160
  785.0000   -30.5680     7.2550     8.1540    11.6340     9.4620   108.3140     2.4370     0.0180
  785.5000   -30.6520     7.2520     8.0870    11.5860     9.4610   108.5330     2.4400     0.0200
  786.0000   -30.8980     7.2480     8.0190    11.5280     9.4610   106.7100     2.4420     0.0200
  786.5000   -31.1410     7.2440     7.9510    11.7690     9.4490   109.0810     2.4500     0.0210
  787.0000   -31.3830     7.2410     7.9020    11.9590     9.4270   109.6910     2.4550     0.0220
  787.5000   -31.5460     7.2370     7.8810    11.8230     9.4040   105.1080     2.4490     0.0190
  788.0000   -31.5430     7.2330     7.8590    11.7420     9.3820   104.0620     2.4400     0.0150
  788.5000   -31.5420     7.2300     7.8370    11.7420     9.3620   107.1950     2.4300     0.0110
  789.0000   -31.5420     7.2260     7.8150    11.6920     9.3630   107.9390     2.4270     0.0080
  789.5000   -31.3720     7.2220     7.7940    11.4320     9.3630   103.4580     2.4360     0.0090
  790.0000   -31.0630     7.2180     7.7670    11.1720     9.3630   101.5700     2.4440     0.0120
  790.5000   -30.7540     7.2120     7.7860    11.0110     9.3630   103.8600     2.4460     0.0160
  791.0000   -30.4440     7.1970     7.8090    11.3510     9.3630   109.5540     2.4410     0.0190
  791.5000   -30.1790     7.1820     7.8390    12.2930     9.3630   113.6430     2.4380     0.0200
  792.0000   -30.3300     7.1680     7.8260    12.1430     9.3630   113.2910     2.4370     0.0200
  792.5000   -30.4970     7.1530     7.7900    11.7330     9.3630   110.8100     2.4400     0.0200
  793.0000   -30.6640     7.1390     7.7670    11.5900     9.3630   109.5520     2.4420     0.0210
  793.5000   -30.8300     7.1240     7.8390    11.5310     9.3630   108.5650     2.4460     0.0220
  794.0000   -30.9970     7.1100     7.6110    11.4730     9.3630   104.4170     2.4510     0.0240
  794.5000   -31.1630     7.0950     7.3510    11.4290     9.3630   100.1300     2.4550     0.0250
  795.0000   -31.3290     7.0720     7.3510    11.5090     9.3630    98.9060     2.4600     0.0260
  795.5000   -31.5000     7.0320     7.4430    11.5840     9.3630   100.0640     2.4640     0.0280
  796.0000   -31.5570     6.9910     7.6260    11.6340     9.3630   101.2080     2.4590     0.0270
  796.5000   -31.5800     6.9510     7.1510    11.3750     9.3630   101.1820     2.4540     0.0250
  797.0000   -31.6010     6.9110     7.1370    11.1810     9.3630   101.1750     2.4500     0.0240
  797.5000   -31.6220     6.8710     7.0920    11.0110     9.3630   101.1920     2.4460     0.0220
  798.0000   -31.6430     6.8300     7.0480    11.0110     9.3630   103.3330     2.4420     0.0210
  798.5000   -31.6640     6.7900     7.0040    11.0110     9.3680   105.7900     2.4380     0.0210
  799.0000   -31.6850     6.7500     6.9590    11.0110     9.3750   107.1550     2.4390     0.0240
  799.5000   -31.7060     6.7090     6.8930    11.0110     9.3820   106.4840     2.4500     0.0260
  800.0000   -31.7280     6.6690     6.9010    10.8350     9.3900   104.5260     2.4610     0.0290
  800.5000   -31.7570     6.6290     6.9180    10.5160     9.3970   102.0560     2.4720     0.0320
  801.0000   -31.7940     6.5860     6.9350    10.4630     9.4040    99.0930     2.4810     0.0350
  801.5000   -31.8310     6.6010     6.9510    10.2740     9.4110    97.9870     2.4790     0.0360
  802.0000   -31.8690     6.6210     6.9680    10.1370     9.4190   100.7590     2.4740     0.0350
  802.5000   -31.9050     6.6410     6.9840    10.5130     9.4230   103.8510     2.4720     0.0350
  803.0000   -31.9130     6.6600     7.0010    10.9460     9.4240   106.2140     2.4740     0.0350
  803.5000   -31.8180     6.6800     7.0170    11.0110     9.4250   108.5950     2.4760     0.0340
  804.0000   -31.7250     6.7000     7.0340    11.1020     9.4260   110.9670     2.4780     0.0340
  804.5000   -31.6320     6.7190     7.0510    11.0220     9.4270   111.4510     2.4780     0.0330
  805.0000   -31.5480     6.7390     7.0670    10.8800     9.4280   109.2670     2.4760     0.0290
