~VERSION INFORMATION
 VERS.                2.0:   CWLS LOG ASCII STANDARD - VERSION 2.0
 WRAP.                 NO:   ONE LINE PER DEPTH STEP
~WELL INFORMATION
#MNEM.UNIT      DATA TYPE    INFORMATION
#----------   ------------   ------------------------------
 STRT.F          210.0000:   START DEPTH
 STOP.F         2955.0000:   STOP DEPTH
 STEP.F            0.5000:   STEP LENGTH
 NULL.          -999.2500:   NO VALUE
 COMP.    FENIX & SCISSON:   COMPANY
 WELL.     FENIX A #54-28:   WELL
 FLD .                NPR:   FIELD
 LOC .      S28 T39N R78W:   LOCATION
 CNTY.            NATRONA:   COUNTY
 STAT.            WYOMING:   STATE
 CTRY. UNITED STATES OF AMERICA:   COUNTRY
 SRVC.              WELEX:   SERVICE COMPANY
 DATE.        17-MAY-1977:   LOGDATE
 API .     49025103650000:   API NUMBER
~CURVE INFORMATION
#MNEM.UNIT       API CODE    CURVE DESCRIPTION
#----------   ------------   ------------------------------
 DEPT.F                  :   
 SPR .MV     07 010 01 00:   SPONTANEOUS POTENTIAL
 RILM.OHMM   07 120 44 00:   INDUCTION LOG MEDIUM RESISTIVITY
 RILD.OHMM   07 120 46 00:   INDUCTION LOG DEEP RESISTIVITY
 SGRD.OHMM   07 220 05 00:   SHALLOW GUARD LOG RESISTIVITY
 CALD.IN     45 280 60 00:   CALIPER FROM DENSITY LOG
 RHOB.G/C3   45 350 01 00:   BULK DENSITY
 DCOR.G/C3   45 356 01 00:   DENSITY CORRECTION
 GRD .GAPI   45 310 01 00:   GAMMA RAY FROM DENSITY LOG
~PARAMETER INFORMATION
#MNEM.UNIT          VALUE    DESCRIPTION
#----------   ------------   ------------------------------
 EKB .F         5045.0000:   Kelly bushing
 EGL .F         5035.0000:   Ground level
 EDF .F            0.0000:   Drilling floor
 EPD .F         5035.0000:   Permanent datum
 TD  .F         2956.0000:   Total depth
 DATE.        17-MAY-1977:   Date logged
 CLNT.            A2DTECH:   Client Code
 SL  . 2310' FNL & 2310' FEL:   Surface Location
 PD  .                 GL:   Permanent Datum
 LMF .                 KB:   Log Measured From
 DMF .                 KB:   Drilling Measured From
 DAPD.F                10:   Feet Above Permanent Datum
 DD  .F              2947:   Depth driller
 DL  .F              2956:   Depth logger
 BLI .F              2954:   Bottom log interval
 TLI .F               210:   Top log interval
 CS1 .IN            8.625:   Casing size
 CBD1.      8.625" @ 200':   Casing driller 1
 CBL1.F               216:   Casing logger 1
 BS1 .IN            7.875:   Bit size
 BSD1.F              2947:   Depth drilled with bit1
 DFT .            KCL MUD:   Type fluid in hole
 DFD .                  9:   Density
 DFV .                 32:   Viscosity
 DFPH.                7.5:   pH
 DFL .                5.3:   Fluid loss
 MSS .           FLOWLINE:   Source of sample
 RMS .OHMM            .18:   Rm
 MST .F                84:   Rm Meas. temp.
 RMF .OHMM            .16:   Rmf
 MFST.F                84:   Rmf Meas. temp.
 RMC .OHMM            .62:   Rmc
 MCST.F                84:   Rmc Meas. temp.
 RMB .OHMM            .12:   Rm. at BHT
 BHT .F               124:   BHT.
 TCS .HRS               2:   Time Circ. stopped
 MRT .F               124:   Maximum recorded temp.
 LUN .               9685:   Logging unit number
 LUL .           BRIGHTON:   Logging unit location
 ENGI.           T JOYNER:   Recorded By
 WITN.      W. PETTINGILL:   Witnessed by
 ORIG.           5" PRINT:   Origin of data
 UWI .     49025103650000:   Unique Well ID
 DICO. A2D TECHNOLOGIES, INC.:   Digitizing Company
~OTHER INFORMATION
~A   DEPT      SPR       RILM        RILD        SGRD       CALD       RHOB      DCOR        GRD  
# ...
 2397.0000   -48.7340     7.8140     6.8530     9.6720     8.2310     2.5700     0.0150   108.8070
 2397.5000   -49.2400     7.9430     6.8120     9.5070     8.2180     2.5610     0.0120   106.6770
 2398.0000   -49.4150     8.0710     6.7710     9.3660     8.2050     2.5520     0.0100   105.5780
 2398.5000   -49.4030     8.2460     6.7310     9.2960     8.1920     2.5430     0.0070   107.0750
 2399.0000   -49.4040     7.9830     6.6850     9.2260     8.1790     2.5400     0.0070   108.4680
 2399.5000   -49.4060     7.5660     6.6110     9.1560     8.1660     2.5420     0.0070   109.9230
 2400.0000   -49.4040     7.1500     6.5370     9.0860     8.1530     2.5400     0.0070   110.0250
 2400.5000   -49.4050     6.7310     6.4630     8.9650     8.1410     2.5360     0.0070   109.8970
 2401.0000   -49.4050     6.5830     6.3900     8.7660     8.1420     2.5320     0.0070   111.1670
 2401.5000   -49.4050     6.4330     6.3160     8.5680     8.1470     2.5320     0.0080   113.5410
 2402.0000   -49.4050     6.2800     6.2420     8.3690     8.1510     2.5390     0.0090   115.6280
 2402.5000   -49.4050     6.3310     6.1380     8.2460     8.1550     2.5440     0.0090   117.9900
 2403.0000   -49.4050     6.4310     6.1450     8.2460     8.1590     2.5510     0.0100   118.1090
 2403.5000   -49.4050     6.5310     6.1570     8.4660     8.1640     2.5530     0.0110   116.0470
 2404.0000   -49.4050     6.6320     6.1700     8.7500     8.1680     2.5460     0.0080   117.7460
 2404.5000   -49.4050     6.7320     6.1820     9.0440     8.1720     2.5400     0.0060   122.7340
 2405.0000   -49.4050     6.8320     6.1940     9.0000     8.1760     2.5340     0.0030   121.1990
 2405.5000   -49.4050     6.9180     6.2070     8.9550     8.1800     2.5200     0.0000   117.9090
 2406.0000   -49.4050     6.9990     6.2190     8.9090     8.1850     2.5070    -0.0030   114.8950
 2406.5000   -49.4050     7.0800     6.2310     8.8640     8.1890     2.5110    -0.0050   111.8470
 2407.0000   -49.4040     7.1610     6.2510     8.8190     8.1930     2.5170    -0.0030   112.0950
 2407.5000   -49.4060     7.2470     6.2460     8.7730     8.1970     2.5240    -0.0020   112.5370
 2408.0000   -49.4030     7.2030     6.2250     8.7280     8.2010     2.5300     0.0000   113.0840
 2408.5000   -49.3970     7.1560     6.2040     8.6890     8.2060     2.5310     0.0020   113.5730
 2409.0000   -49.2440     7.1100     6.1840     8.6530     8.2100     2.5300     0.0030   114.0610
 2409.5000   -49.0740     7.0630     6.1640     8.6170     8.2140     2.5280     0.0040   114.4780
 2410.0000   -48.9000     6.9840     6.1420     8.5810     8.2180     2.5340     0.0060   116.8870
 2410.5000   -48.7290     7.0220     6.2240     8.5560     8.2220     2.5340     0.0070   120.7020
 2411.0000   -48.5570     7.1420     6.3470     8.6790     8.2270     2.5300     0.0080   118.4510
 2411.5000   -48.3860     7.2620     6.4690     8.8780     8.2310     2.5340     0.0090   114.4810
 2412.0000   -48.2130     7.3830     6.5910     8.7160     8.2350     2.5410     0.0100   116.9180
 2412.5000   -48.0440     7.5030     6.7130     8.8630     8.2390     2.5540     0.0120   121.5540
 2413.0000   -47.8690     7.6230     6.8350     9.3540     8.2430     2.5630     0.0130   119.5800
 2413.5000   -47.8140     7.8580     6.9570     9.8440     8.2480     2.5690     0.0140   116.2780
 2414.0000   -47.8180     8.1450     7.0790    10.2910     8.2520     2.5750     0.0150   119.3930
 2414.5000   -47.8180     8.4310     7.2000    10.5580     8.2560     2.5810     0.0160   120.6180
 2415.0000   -47.8180     8.7170     7.3220    10.8030     8.2600     2.5840     0.0180   118.5620
 2415.5000   -47.8150     9.0030     7.4440    11.0790     8.2560     2.5810     0.0190   116.6950
 2416.0000   -47.8480     9.3840     7.5660    10.7750     8.2500     2.5780     0.0170   114.3550
 2416.5000   -47.9220     9.3520     7.6880    10.4280     8.2430     2.5760     0.0150   111.6350
 2417.0000   -47.9920     9.3040     7.8020    10.1030     8.2370     2.5760     0.0120   109.1130
 2417.5000   -48.0640     9.2570     7.8020    10.1290     8.2310     2.5680     0.0100   106.1640
 2418.0000   -48.1320     9.2120     7.8020    10.1540     8.2250     2.5630     0.0070   106.7150
 2418.5000   -48.2090     9.2880     7.8020    10.1780     8.2180     2.5670     0.0110   108.3440
 2419.0000   -48.2380     9.3600     7.8020    10.2030     8.2120     2.5700     0.0160   109.9980
 2419.5000   -48.2670     9.4320     7.8020    10.2280     8.2060     2.5760     0.0210   111.5940
 2420.0000   -48.2940     9.5040     7.8020    10.2520     8.2000     2.5840     0.0250   113.2000
 2420.5000   -48.3230     9.5580     7.8020    10.2910     8.1940     2.5900     0.0300   114.8540
 2421.0000   -48.3510     9.3560     7.8020    10.2770     8.1870     2.5820     0.0290   116.4450
 2421.5000   -48.3790     9.1140     7.8020    10.2460     8.1810     2.5750     0.0250   118.4160
 2422.0000   -48.4080     8.8780     7.7640    10.2150     8.1750     2.5680     0.0210   120.5990
 2422.5000   -48.4360     8.8560     7.6740    10.1830     8.1690     2.5610     0.0170   119.3760
 2423.0000   -48.4640     8.8350     7.5830    10.1510     8.1620     2.5640     0.0130   115.8180
 2423.5000   -48.4920     8.8140     7.4930    10.1190     8.1560     2.5680     0.0130   117.7120
 2424.0000   -48.5200     8.7930     7.4030    10.1000     8.1500     2.5720     0.0180   119.5710
 2424.5000   -48.5490     8.7710     7.3130     9.9980     8.1430     2.5760     0.0230   120.9950
 2425.0000   -48.5760     8.7500     7.2230     9.8960     8.1420     2.5800     0.0270   118.7480
 2425.5000   -48.6080     8.7160     7.1140     9.7400     8.1490     2.5770     0.0230   116.7100
 2426.0000   -48.6110     8.7340     7.1140     9.7540     8.1560     2.5690     0.0210   115.7250
 2426.5000   -48.6120     8.7780     7.1140     9.8050     8.1620     2.5610     0.0180   116.5920
 2427.0000   -48.6110     8.8230     7.1140     9.8560     8.1690     2.5550     0.0160   117.0720
 2427.5000   -48.6110     8.8680     7.1140     9.9080     8.1750     2.5590     0.0210   116.8500
 2428.0000   -48.6110     9.3820     7.1140     9.9590     8.1820     2.5630     0.0260   116.6790
 2428.5000   -48.6110     9.9180     7.1140    10.0090     8.1880     2.5700     0.0310   119.5000
 2429.0000   -48.6100     9.5570     7.1140    10.0600     8.1950     2.5760     0.0290   119.0960
 2429.5000   -48.6120     9.2480     7.1230    10.1030     8.2010     2.5820     0.0270   118.8970
 2430.0000   -48.6100     8.9400     7.1390    10.1300     8.2080     2.5750     0.0250   118.4600
 2430.5000   -48.6040     8.6320     7.1550    10.1660     8.2140     2.5710     0.0230   118.1340
 2431.0000   -48.5140     8.5560     7.1710    10.2020     8.2210     2.5740     0.0210   117.7830
 2431.5000   -48.4350     8.5560     7.1870    10.2390     8.2270     2.5720     0.0190   117.4310
 2432.0000   -48.3500     8.5560     7.2030    10.2890     8.2340     2.5670     0.0170   116.7730
 2432.5000   -48.2690     8.5560     7.2180    10.2760     8.2400     2.5690     0.0160   115.5420
 2433.0000   -48.1870     8.5560     7.2340    10.2430     8.2470     2.5730     0.0190   114.3260
 2433.5000   -48.1040     8.5560     7.2500    10.2100     8.2530     2.5800     0.0210   113.1140
 2434.0000   -48.0220     8.5560     7.2660    10.1770     8.2590     2.5890     0.0240   111.8410
 2434.5000   -47.9390     8.5560     7.2820    10.1450     8.2580     2.5980     0.0260   110.8140
 2435.0000   -47.8570     8.5560     7.2970    10.1130     8.2560     2.6020     0.0290   110.1100
 2435.5000   -47.7750     8.4400     7.3130    10.0810     8.2540     2.6010     0.0310   111.4200
 2436.0000   -47.6920     8.3140     7.3290    10.0490     8.2520     2.5990     0.0350   112.9210
 2436.5000   -47.6100     8.1880     7.3450    10.0160     8.2500     2.5940     0.0330   114.4940
 2437.0000   -47.5280     8.0610     7.3630     9.9830     8.2480     2.5820     0.0280   115.9900
