~VERSION INFORMATION
 VERS.                2.0:   CWLS LOG ASCII STANDARD - VERSION 2.0
 WRAP.                 NO:   ONE LINE PER DEPTH STEP
~WELL INFORMATION
#MNEM.UNIT      DATA TYPE    INFORMATION
#----------   ------------   ------------------------------
 STRT.F          594.5000:   START DEPTH
 STOP.F         3015.5000:   STOP DEPTH
 STEP.F            0.5000:   STEP LENGTH
 NULL.          -999.2500:   NO VALUE
 COMP.    FENIX & SCISSON:   COMPANY
 WELL.  FENIX "AX" #35-34:   WELL
 FLD .             NPR #3:   FIELD
 LOC .      S34 T39N R78W:   LOCATION
 CNTY.            NATRONA:   COUNTY
 STAT.            WYOMING:   STATE
 CTRY. UNITED STATES OF AMERICA:   COUNTRY
 SRVC.       SCHLUMBERGER:   SERVICE COMPANY
 DATE.        14-APR-1977:   LOGDATE
 API .     49025103390000:   API NUMBER
~CURVE INFORMATION
#MNEM.UNIT       API CODE    CURVE DESCRIPTION
#----------   ------------   ------------------------------
 DEPT.F                  :   
 CALD.IN     45 280 60 00:   CALIPER FROM DENSITY LOG
 RHOB.G/C3   45 350 01 00:   BULK DENSITY
 DRHO.G/C3   45 356 01 00:   DENSITY CORRECTION
 SPR .MV     07 010 01 00:   SPONTANEOUS POTENTIAL
 RILM.OHMM   07 120 44 00:   INDUCTION LOG MEDIUM RESISTIVITY
 RILD.OHMM   07 120 46 00:   DEEP INDUCTION RESISTIVITY
 LL8 .OHMM   07 220 08 00:   LATEROLOG-8 RES.
 GRD .GAPI   45 310 01 00:   GAMMA RAY FROM DENSITY LOG
~PARAMETER INFORMATION
#MNEM.UNIT          VALUE    DESCRIPTION
#----------   ------------   ------------------------------
 EKB .F         5116.0000:   Kelly bushing
 EGL .F         5104.0000:   Ground level
 EDF .F            0.0000:   Drilling floor
 TD  .F         3017.0000:   Total depth
 DATE.        14-APR-1977:   Date logged
 CLNT.            A2DTECH:   Client Code
 SL  . 2311' FSL & 1550' FWL:   Surface Location
 PD  .                 GL:   Permanent Datum
 EPD .F              5104:   Elevation Permanent Datum
 LMF .                 KB:   Log Measured From
 DMF .                 KB:   Drilling Measured From
 DAPD.F                12:   Feet Above Permanent Datum
 DD  .F              3012:   Depth driller
 DL  .F              3017:   Depth logger
 BLI .F              3011:   Bottom log interval
 TLI .F               600:   Top log interval
 CS1 .IN            8.625:   Casing size
 CBD1.      8.625" @ 601':   Casing driller 1
 CBL1.F               600:   Casing logger 1
 BS1 .IN            7.875:   Bit size
 BSD1.F              3012:   Depth drilled with bit1
 DFT .                FGM:   Type fluid in hole
 DFD .                9.2:   Density
 DFV .                 29:   Viscosity
 MSS .           FLOWLINE:   Source of sample
 RMS .OHMM          0.206:   Rm
 MST .F                60:   Rm Meas. temp.
 RMF .OHMM          0.192:   Rmf
 MFST.F                60:   Rmf Meas. temp.
 MFSS.               MEAS:   Source Rmf.
 RMB .OHMM          0.109:   Rm. at BHT
 BHT .F               113:   BHT.
 TLAB.HRS            0200:   Time logger at bottom
 MRT .F               113:   Maximum recorded temp.
 LUN .               7711:   Logging unit number
 LUL .               CSPR:   Logging unit location
 ENGI.             GEIGER:   Recorded By
 WITN.         PETTINGILL:   Witnessed by
 ORIG.           5" PRINT:   Origin of data
 UWI .     49025103390000:   Unique Well ID
 DICO. A2D TECHNOLOGIES, INC.:   Digitizing Company
~OTHER INFORMATION
~A   DEPT     CALD       RHOB       DRHO        SPR       RILM       RILD        LL8         GRD  
# ...
  756.5000     9.6770     2.5020     0.0130   -88.6880    10.3110     9.4190    10.9100   105.5740
  757.0000     9.6820     2.4780     0.0080   -88.6590    10.3030     9.4190    10.8840   102.0590
  757.5000     9.6870     2.4780     0.0040   -88.6300    10.2950     9.4190    10.8450    98.6780
  758.0000     9.6920     2.4830     0.0070   -88.5950    10.2870     9.4190    10.8060    97.3060
  758.5000     9.6960     2.4900     0.0040   -88.5130    10.2790     9.4190    10.7670    97.7140
  759.0000     9.7040     2.5000     0.0060   -88.4450    10.2710     9.4190    10.7280    99.1130
  759.5000     9.7340     2.5060     0.0100   -87.9680    10.2630     9.4190    10.6890   100.7250
  760.0000     9.7630     2.4890    -0.0020   -87.4340    10.2550     9.4180    10.6500   101.2980
  760.5000     9.7930     2.4790     0.0040   -86.8970    10.2460     9.4450    10.6130   100.4820
  761.0000     9.8220     2.4820     0.0110   -86.3630    10.2390     9.5000    10.8380   100.2140
  761.5000     9.8520     2.4920     0.0150   -85.9420    10.2310     9.5550    11.0510   101.1800
  762.0000     9.8600     2.5020     0.0240   -85.6930    10.2840     9.6100    11.2630    98.0970
  762.5000     9.8630     2.5090     0.0240   -85.4520    10.3460     9.6650    11.4220    94.9520
  763.0000     9.8660     2.5120     0.0190   -85.4440    10.4070     9.7200    11.3680    94.3420
  763.5000     9.8680     2.5050     0.0160   -85.4460    10.4690     9.7750    11.3250    93.6510
  764.0000     9.8710     2.5000     0.0200   -85.4860    10.5310     9.8300    11.2150    93.4580
  764.5000     9.8730     2.5050     0.0250   -85.7120    10.5930     9.8850    11.2520    94.5360
  765.0000     9.8760     2.5090     0.0220   -85.9370    10.6550     9.9410    11.2830    96.7490
  765.5000     9.8790     2.5140     0.0320   -86.1600    10.7170     9.9960    11.3130    97.7370
  766.0000     9.8810     2.5110     0.0240   -86.3740    10.7790    10.0510    11.4160    96.9610
  766.5000     9.8840     2.5030     0.0170   -86.8940    10.8410    10.1060    11.5340    95.9810
  767.0000     9.8860     2.4950     0.0110   -87.4870    10.9030    10.1610    11.6510    95.3130
  767.5000     9.8890     2.4870     0.0050   -87.8440    10.9650    10.2160    11.7420    95.2980
  768.0000     9.8920     2.4810     0.0020   -88.1360    11.0270    10.2710    11.6100    96.1850
  768.5000     9.8940     2.4820     0.0100   -88.4220    11.1040    10.3250    11.5060    96.2930
  769.0000     9.8970     2.5000     0.0110   -88.5570    11.0470    10.2560    11.4110    93.0680
  769.5000     9.9050     2.5020     0.0120   -88.3400    10.9420    10.1880    11.3160    92.4570
  770.0000     9.9440     2.5000     0.0190   -87.9800    10.8380    10.1210    11.2210    95.0370
  770.5000     9.9820     2.5010     0.0270   -87.1790    10.7330    10.0530    11.1250    97.9800
  771.0000     9.9900     2.5150     0.0350   -86.4030    10.6290     9.9850    11.0300   100.1980
  771.5000     9.9760     2.5140     0.0200   -85.9900    10.5240     9.9180    10.9350   100.3800
  772.0000     9.9630     2.5140     0.0020   -85.8890    10.4200     9.8500    10.8400    99.7500
  772.5000     9.9500     2.5160     0.0060   -85.6880    10.3150     9.7830    10.7440    99.0720
  773.0000     9.9390     2.5120     0.0160   -85.3980    10.2110     9.7150    10.6490    99.4710
  773.5000     9.9490     2.4990     0.0200   -85.1100    10.1060     9.6470    10.5540   100.1910
  774.0000     9.9510     2.4900     0.0140   -84.8980    10.0020     9.5940    10.4840    99.2700
  774.5000     9.9060     2.4840     0.0100   -85.2800     9.8970     9.3560    10.4300    98.0020
  775.0000     9.8630     2.4840     0.0110   -85.6710     9.7920     9.1190    10.3760    98.8180
  775.5000     9.8200     2.4890     0.0070   -86.0590     9.5680     8.8820    10.3210   101.6190
  776.0000     9.8110     2.4790     0.0120   -86.4480     9.3140     8.6450    10.2670   103.5080
  776.5000     9.8020     2.4770     0.0150   -86.8360     9.0590     8.3590    10.2130   103.4470
  777.0000     9.7940     2.4860     0.0110   -87.2240     8.7520     8.3780    10.1590   103.0740
  777.5000     9.7850     2.4870     0.0120   -87.6620     8.7780     8.4010     9.8270   103.6360
  778.0000     9.7770     2.4870     0.0150   -88.1540     8.8110     8.4250     9.5060   103.3780
  778.5000     9.7680     2.4930     0.0160   -88.5020     8.8440     8.4480     9.5600   102.6140
  779.0000     9.7600     2.5050     0.0110   -88.6880     8.8770     8.4720     9.6060   102.4710
  779.5000     9.7650     2.5030     0.0050   -88.8700     8.9100     8.4950     9.6510   103.2070
  780.0000     9.7710     2.5010     0.0120   -88.9440     8.9430     8.5140     9.6970   104.4090
  780.5000     9.7770     2.5090     0.0170   -88.6430     8.9760     8.4000     9.7420   104.1120
  781.0000     9.7790     2.5160     0.0130   -88.3540     8.9960     8.2830     9.7880   102.9680
  781.5000     9.7670     2.5210     0.0190   -88.0780     8.7980     8.1670     9.8560   101.8150
  782.0000     9.7540     2.5180     0.0290   -87.5990     8.5940     8.0500     9.7350   100.6600
  782.5000     9.7410     2.5130     0.0200   -87.1160     8.3900     7.9330     9.3940    99.5020
  783.0000     9.7280     2.5080     0.0140   -86.8220     8.1870     7.8170     9.1620    98.3460
  783.5000     9.7150     2.5040     0.0170   -86.5760     8.0660     7.7000     9.0100    97.2220
  784.0000     9.7020     2.4990     0.0050   -86.3300     8.1580     7.5560     8.8590    96.4190
  784.5000     9.6990     2.4950     0.0100   -86.0830     8.2320     7.6120     8.6720    99.7130
  785.0000     9.6960     2.4860     0.0010   -85.8380     8.3060     7.6840     8.7310   101.2180
  785.5000     9.6930     2.4830     0.0080   -85.6410     8.3800     7.7570     8.8080   100.6410
  786.0000     9.6900     2.4970     0.0160   -85.7340     8.4530     7.8290     8.8850   102.8290
  786.5000     9.6870     2.5030     0.0140   -85.8250     8.5270     7.9020     8.9620   101.9580
  787.0000     9.6840     2.5070     0.0100   -85.9160     8.6010     7.9750     9.0390   100.8220
  787.5000     9.6810     2.5170     0.0190   -86.0060     8.6740     8.0470     9.1160   101.5750
  788.0000     9.6850     2.5100     0.0150   -86.2910     8.7480     8.1200     9.1930   101.8520
  788.5000     9.6930     2.5010     0.0090   -86.6970     8.8220     8.1920     9.2700   101.9260
  789.0000     9.6990     2.4970     0.0160   -87.1420     8.8950     8.2650     9.3470   103.2590
  789.5000     9.6560     2.5070     0.0170   -87.6990     8.9690     8.3380     9.4240   103.8170
  790.0000     9.6480     2.5200     0.0200   -88.2610     9.0430     8.4100     9.5060   103.6500
  790.5000     9.6580     2.5290     0.0280   -88.6730     9.1170     8.4830     9.6610   101.8520
  791.0000     9.6690     2.5210     0.0210   -88.8170     9.1900     8.5550     9.8250   101.0300
  791.5000     9.6800     2.5030     0.0160   -88.9650     9.2640     8.6280     9.9890   101.3270
  792.0000     9.6910     2.4860     0.0140   -89.1110     9.3380     8.7010    10.2310   101.1590
  792.5000     9.7000     2.4850     0.0130   -89.1170     9.4110     8.7730    10.2220   100.4290
  793.0000     9.6860     2.4970     0.0120   -88.8500     9.4850     8.8460    10.2060    98.7040
  793.5000     9.6730     2.5060     0.0120   -88.5820     9.5940     8.9180    10.1900    97.1640
  794.0000     9.6610     2.5010     0.0150   -88.2220     9.5820     8.9960    10.1740    97.6430
  794.5000     9.6710     2.5100     0.0120   -87.5830     9.5610     8.9600    10.1580    98.7250
  795.0000     9.6800     2.5190     0.0140   -86.9670     9.5390     8.9090    10.1420    99.5980
  795.5000     9.6900     2.5400     0.0230   -86.4010     9.5170     8.8580    10.1170    99.8960
  796.0000     9.6990     2.5340     0.0310   -86.1420     9.4950     8.8070    10.0890   100.5160
  796.5000     9.7000     2.5240     0.0250   -85.8860     9.4730     8.7520    10.0610   102.1620
