~VERSION INFORMATION
 VERS.                2.0:   CWLS LOG ASCII STANDARD - VERSION 2.0
 WRAP.                 NO:   ONE LINE PER DEPTH STEP
~WELL INFORMATION
#MNEM.UNIT      DATA TYPE    INFORMATION
#----------   ------------   ------------------------------
 STRT.F          210.0000:   START DEPTH
 STOP.F         2955.0000:   STOP DEPTH
 STEP.F            0.5000:   STEP LENGTH
 NULL.          -999.2500:   NO VALUE
 COMP.    FENIX & SCISSON:   COMPANY
 WELL.     FENIX A #54-28:   WELL
 FLD .                NPR:   FIELD
 LOC .      S28 T39N R78W:   LOCATION
 CNTY.            NATRONA:   COUNTY
 STAT.            WYOMING:   STATE
 CTRY. UNITED STATES OF AMERICA:   COUNTRY
 SRVC.              WELEX:   SERVICE COMPANY
 DATE.        17-MAY-1977:   LOGDATE
 API .     49025103650000:   API NUMBER
~CURVE INFORMATION
#MNEM.UNIT       API CODE    CURVE DESCRIPTION
#----------   ------------   ------------------------------
 DEPT.F                  :   
 SPR .MV     07 010 01 00:   SPONTANEOUS POTENTIAL
 RILM.OHMM   07 120 44 00:   INDUCTION LOG MEDIUM RESISTIVITY
 RILD.OHMM   07 120 46 00:   INDUCTION LOG DEEP RESISTIVITY
 SGRD.OHMM   07 220 05 00:   SHALLOW GUARD LOG RESISTIVITY
 CALD.IN     45 280 60 00:   CALIPER FROM DENSITY LOG
 RHOB.G/C3   45 350 01 00:   BULK DENSITY
 DCOR.G/C3   45 356 01 00:   DENSITY CORRECTION
 GRD .GAPI   45 310 01 00:   GAMMA RAY FROM DENSITY LOG
~PARAMETER INFORMATION
#MNEM.UNIT          VALUE    DESCRIPTION
#----------   ------------   ------------------------------
 EKB .F         5045.0000:   Kelly bushing
 EGL .F         5035.0000:   Ground level
 EDF .F            0.0000:   Drilling floor
 EPD .F         5035.0000:   Permanent datum
 TD  .F         2956.0000:   Total depth
 DATE.        17-MAY-1977:   Date logged
 CLNT.            A2DTECH:   Client Code
 SL  . 2310' FNL & 2310' FEL:   Surface Location
 PD  .                 GL:   Permanent Datum
 LMF .                 KB:   Log Measured From
 DMF .                 KB:   Drilling Measured From
 DAPD.F                10:   Feet Above Permanent Datum
 DD  .F              2947:   Depth driller
 DL  .F              2956:   Depth logger
 BLI .F              2954:   Bottom log interval
 TLI .F               210:   Top log interval
 CS1 .IN            8.625:   Casing size
 CBD1.      8.625" @ 200':   Casing driller 1
 CBL1.F               216:   Casing logger 1
 BS1 .IN            7.875:   Bit size
 BSD1.F              2947:   Depth drilled with bit1
 DFT .            KCL MUD:   Type fluid in hole
 DFD .                  9:   Density
 DFV .                 32:   Viscosity
 DFPH.                7.5:   pH
 DFL .                5.3:   Fluid loss
 MSS .           FLOWLINE:   Source of sample
 RMS .OHMM            .18:   Rm
 MST .F                84:   Rm Meas. temp.
 RMF .OHMM            .16:   Rmf
 MFST.F                84:   Rmf Meas. temp.
 RMC .OHMM            .62:   Rmc
 MCST.F                84:   Rmc Meas. temp.
 RMB .OHMM            .12:   Rm. at BHT
 BHT .F               124:   BHT.
 TCS .HRS               2:   Time Circ. stopped
 MRT .F               124:   Maximum recorded temp.
 LUN .               9685:   Logging unit number
 LUL .           BRIGHTON:   Logging unit location
 ENGI.           T JOYNER:   Recorded By
 WITN.      W. PETTINGILL:   Witnessed by
 ORIG.           5" PRINT:   Origin of data
 UWI .     49025103650000:   Unique Well ID
 DICO. A2D TECHNOLOGIES, INC.:   Digitizing Company
~OTHER INFORMATION
~A   DEPT      SPR       RILM        RILD        SGRD       CALD       RHOB      DCOR        GRD  
# ...
  939.0000   -47.3300     9.3040     8.9480    12.1810     8.1620     2.5110     0.0190    86.8080
  939.5000   -47.3490     8.9790     8.9270    12.3480     8.1600     2.5250     0.0210    86.7710
  940.0000   -47.3670     8.6530     8.9050    12.2920     8.1590     2.5250     0.0220    86.2440
  940.5000   -47.3860     8.3280     8.8830    12.1820     8.1580     2.5160     0.0230    85.7140
  941.0000   -47.4040     8.2460     8.8780    12.0720     8.1560     2.5080     0.0210    85.1830
  941.5000   -47.4180     8.2460     8.8780    11.9620     8.1550     2.5010     0.0190    84.5600
  942.0000   -47.3940     8.2460     8.8780    11.8520     8.1540     2.4930     0.0180    84.8710
  942.5000   -47.3720     8.2460     8.8780    11.7400     8.1520     2.4930     0.0160    85.8840
  943.0000   -47.3490     8.2460     8.8780    11.8080     8.1510     2.4940     0.0140    86.7280
  943.5000   -47.3260     8.2460     8.8780    11.9450     8.1500     2.4920     0.0130    87.7290
  944.0000   -47.3030     8.2460     8.8780    12.0810     8.1480     2.4880     0.0110    88.4590
  944.5000   -47.2800     8.2940     8.8780    12.1510     8.1470     2.4830     0.0130    89.8820
  945.0000   -47.2570     8.3900     8.8780    12.0880     8.1460     2.4800     0.0140    87.5660
  945.5000   -47.2340     8.4860     8.8780    11.9970     8.1440     2.4790     0.0160    85.5350
  946.0000   -47.2110     8.5560     8.8780    11.9060     8.1430     2.4770     0.0180    83.9650
  946.5000   -47.1890     8.6610     8.8780    11.8150     8.1420     2.4770     0.0200    88.2850
  947.0000   -47.1660     8.8890     8.8780    11.7100     8.1400     2.4730     0.0210    87.8800
  947.5000   -47.1430     9.1170     8.8770    11.7100     8.1420     2.4690     0.0220    87.8110
  948.0000   -47.1200     9.3840     8.8770    11.7100     8.1440     2.4640     0.0230    89.6840
  948.5000   -47.0970     9.3840     8.8310    11.7100     8.1460     2.4660     0.0240    91.1630
  949.0000   -47.0740     9.3840     8.7740    11.6630     8.1480     2.4690     0.0260    92.0010
  949.5000   -47.0510     9.0610     8.7170    11.5880     8.1510     2.4720     0.0270    92.0480
  950.0000   -47.0250     8.6640     8.6590    11.5130     8.1530     2.4770     0.0280    90.9920
  950.5000   -46.9870     8.2680     8.6030    11.4370     8.1550     2.4830     0.0290    90.0290
  951.0000   -46.9390     7.9470     8.5580    11.3620     8.1570     2.4880     0.0310    88.9410
  951.5000   -46.8920     8.1200     8.5870    11.2860     8.1590     2.4930     0.0310    88.5660
  952.0000   -46.8440     8.2650     8.6110    11.4030     8.1620     2.4980     0.0280    89.2820
  952.5000   -46.7970     8.4100     8.6350    11.6030     8.1640     2.4950     0.0260    89.8730
  953.0000   -46.7500     8.5550     8.6600    11.8030     8.1660     2.4920     0.0240    90.4840
  953.5000   -46.7030     8.7000     8.6850    11.9470     8.1680     2.4870     0.0220    91.1340
  954.0000   -46.6550     8.8440     8.7100    11.9980     8.1700     2.4770     0.0200    91.7150
  954.5000   -46.6080     9.1230     8.7350    12.0490     8.1730     2.4770     0.0180    92.3260
  955.0000   -46.5610     9.4430     8.7590    12.1000     8.1750     2.4810     0.0160    91.7370
  955.5000   -46.5140     9.7630     8.7840    12.1500     8.1770     2.4820     0.0150    91.0440
  956.0000   -46.4670    10.0830     8.8090    12.2010     8.1790     2.4820     0.0160    90.3210
  956.5000   -46.4180    10.2910     8.8340    12.2520     8.1790     2.4830     0.0170    89.6230
  957.0000   -46.3730     9.9270     8.8580    12.3030     8.1780     2.4850     0.0170    88.8820
  957.5000   -46.3240     9.5430     8.8830    12.3740     8.1760     2.4870     0.0180    88.5980
  958.0000   -46.2760     9.2120     8.9080    12.3690     8.1750     2.5010     0.0180    89.3070
  958.5000   -46.2430     9.2230     8.9330    12.3470     8.1740     2.4950     0.0190    89.9790
  959.0000   -46.0990     9.2320     8.9570    12.3270     8.1720     2.4960     0.0190    90.6790
  959.5000   -45.8450     9.2410     8.9820    12.3080     8.1710     2.5000     0.0170    91.3790
  960.0000   -45.8610     9.2500     9.0070    12.2890     8.1700     2.5050     0.0160    92.0600
  960.5000   -45.8820     9.2600     9.0320    12.2690     8.1680     2.5040     0.0150    92.7640
  961.0000   -45.9090     9.2690     9.0440    12.2500     8.1670     2.5000     0.0130    93.4790
  961.5000   -45.9330     9.2780     9.0440    12.2300     8.1660     2.4940     0.0120    93.7140
  962.0000   -45.9580     9.2880     9.0430    12.2110     8.1640     2.4970     0.0120    92.5310
  962.5000   -45.9840     9.2970     9.0440    12.1920     8.1630     2.5000     0.0130    91.3670
  963.0000   -46.0080     9.3060     9.0440    12.1720     8.1620     2.5010     0.0150    90.1740
  963.5000   -46.0330     9.3160     9.0440    12.1510     8.1600     2.4900     0.0170    88.9690
  964.0000   -46.0580     9.3250     9.0440    12.0690     8.1590     2.4940     0.0180    87.7850
  964.5000   -46.0830     9.3340     9.0440    11.9780     8.1580     2.4960     0.0200    86.8620
  965.0000   -46.1080     9.3430     9.0440    11.8870     8.1560     2.4990     0.0220    87.1950
  965.5000   -46.1330     9.3530     9.0440    11.7970     8.1550     2.5010     0.0230    87.4850
  966.0000   -46.1580     9.3620     9.0430    11.7130     8.1540     2.5030     0.0240    86.1090
  966.5000   -46.1830     9.3710     9.0440    11.7780     8.1520     2.5040     0.0250    85.2530
  967.0000   -46.2080     9.3820     9.0440    11.8380     8.1510     2.5060     0.0260    87.2640
  967.5000   -46.2330     9.3710     9.0430    11.9260     8.1500     2.5070     0.0270    88.8360
  968.0000   -46.2590     9.3480     9.0460    11.9130     8.1480     2.5070     0.0270    90.6560
  968.5000   -46.2840     9.3270     9.0230    11.8750     8.1470     2.5050     0.0280    89.7140
  969.0000   -46.3090     9.3060     8.9840    11.8370     8.1460     2.5030     0.0290    88.6870
  969.5000   -46.3340     9.2850     8.9490    11.8000     8.1440     2.5010     0.0300    87.7640
  970.0000   -46.3590     9.2640     8.9140    11.7630     8.1430     2.4980     0.0310    89.8100
  970.5000   -46.3840     9.2430     8.8780    11.7260     8.1420     2.5000     0.0300    91.7630
  971.0000   -46.4090     9.2210     8.8420    11.6890     8.1400     2.5030     0.0280    92.7520
  971.5000   -46.4340     9.2000     8.8070    11.6520     8.1420     2.4980     0.0260    90.9390
  972.0000   -46.4590     9.1790     8.7710    11.6150     8.1450     2.4900     0.0230    89.2950
  972.5000   -46.4840     9.1580     8.7350    11.5780     8.1480     2.4830     0.0210    87.7080
  973.0000   -46.5090     9.1360     8.7000    11.5410     8.1500     2.4750     0.0200    88.0380
  973.5000   -46.5340     9.1160     8.6640    11.4970     8.1530     2.4810     0.0220    88.3470
  974.0000   -46.5590     9.0950     8.6280    11.4240     8.1560     2.4890     0.0240    88.4190
  974.5000   -46.5840     9.0720     8.5930    11.3330     8.1580     2.4940     0.0260    88.4730
  975.0000   -46.6090     9.0470     8.5570    11.2430     8.1610     2.4920     0.0280    89.6420
  975.5000   -46.6340     9.0880     8.5210    11.1530     8.1640     2.4980     0.0300    90.8330
  976.0000   -46.6590     9.1700     8.4860    11.0630     8.1660     2.5030     0.0320    92.0950
  976.5000   -46.6840     9.2530     8.4510    10.9720     8.1690     2.5080     0.0340    93.2710
  977.0000   -46.7090     9.3320     8.4150    10.8820     8.1720     2.5060     0.0350    94.4710
  977.5000   -46.7340     9.4120     8.3610    10.7920     8.1750     2.5040     0.0330    93.9550
  978.0000   -46.7590     9.4920     8.2940    10.7020     8.1770     2.5010     0.0320    92.7330
  978.5000   -46.7840     9.5580     8.2280    10.6120     8.1800     2.4950     0.0300    94.1960
  979.0000   -46.8090     9.3560     8.1610    10.5220     8.1820     2.4870     0.0290    96.7150
