~VERSION INFORMATION
 VERS.                2.0:   CWLS LOG ASCII STANDARD - VERSION 2.0
 WRAP.                 NO:   ONE LINE PER DEPTH STEP
~WELL INFORMATION
#MNEM.UNIT      DATA TYPE    INFORMATION
#----------   ------------   ------------------------------
 STRT.F          210.0000:   START DEPTH
 STOP.F         2955.0000:   STOP DEPTH
 STEP.F            0.5000:   STEP LENGTH
 NULL.          -999.2500:   NO VALUE
 COMP.    FENIX & SCISSON:   COMPANY
 WELL.     FENIX A #54-28:   WELL
 FLD .                NPR:   FIELD
 LOC .      S28 T39N R78W:   LOCATION
 CNTY.            NATRONA:   COUNTY
 STAT.            WYOMING:   STATE
 CTRY. UNITED STATES OF AMERICA:   COUNTRY
 SRVC.              WELEX:   SERVICE COMPANY
 DATE.        17-MAY-1977:   LOGDATE
 API .     49025103650000:   API NUMBER
~CURVE INFORMATION
#MNEM.UNIT       API CODE    CURVE DESCRIPTION
#----------   ------------   ------------------------------
 DEPT.F                  :   
 SPR .MV     07 010 01 00:   SPONTANEOUS POTENTIAL
 RILM.OHMM   07 120 44 00:   INDUCTION LOG MEDIUM RESISTIVITY
 RILD.OHMM   07 120 46 00:   INDUCTION LOG DEEP RESISTIVITY
 SGRD.OHMM   07 220 05 00:   SHALLOW GUARD LOG RESISTIVITY
 CALD.IN     45 280 60 00:   CALIPER FROM DENSITY LOG
 RHOB.G/C3   45 350 01 00:   BULK DENSITY
 DCOR.G/C3   45 356 01 00:   DENSITY CORRECTION
 GRD .GAPI   45 310 01 00:   GAMMA RAY FROM DENSITY LOG
~PARAMETER INFORMATION
#MNEM.UNIT          VALUE    DESCRIPTION
#----------   ------------   ------------------------------
 EKB .F         5045.0000:   Kelly bushing
 EGL .F         5035.0000:   Ground level
 EDF .F            0.0000:   Drilling floor
 EPD .F         5035.0000:   Permanent datum
 TD  .F         2956.0000:   Total depth
 DATE.        17-MAY-1977:   Date logged
 CLNT.            A2DTECH:   Client Code
 SL  . 2310' FNL & 2310' FEL:   Surface Location
 PD  .                 GL:   Permanent Datum
 LMF .                 KB:   Log Measured From
 DMF .                 KB:   Drilling Measured From
 DAPD.F                10:   Feet Above Permanent Datum
 DD  .F              2947:   Depth driller
 DL  .F              2956:   Depth logger
 BLI .F              2954:   Bottom log interval
 TLI .F               210:   Top log interval
 CS1 .IN            8.625:   Casing size
 CBD1.      8.625" @ 200':   Casing driller 1
 CBL1.F               216:   Casing logger 1
 BS1 .IN            7.875:   Bit size
 BSD1.F              2947:   Depth drilled with bit1
 DFT .            KCL MUD:   Type fluid in hole
 DFD .                  9:   Density
 DFV .                 32:   Viscosity
 DFPH.                7.5:   pH
 DFL .                5.3:   Fluid loss
 MSS .           FLOWLINE:   Source of sample
 RMS .OHMM            .18:   Rm
 MST .F                84:   Rm Meas. temp.
 RMF .OHMM            .16:   Rmf
 MFST.F                84:   Rmf Meas. temp.
 RMC .OHMM            .62:   Rmc
 MCST.F                84:   Rmc Meas. temp.
 RMB .OHMM            .12:   Rm. at BHT
 BHT .F               124:   BHT.
 TCS .HRS               2:   Time Circ. stopped
 MRT .F               124:   Maximum recorded temp.
 LUN .               9685:   Logging unit number
 LUL .           BRIGHTON:   Logging unit location
 ENGI.           T JOYNER:   Recorded By
 WITN.      W. PETTINGILL:   Witnessed by
 ORIG.           5" PRINT:   Origin of data
 UWI .     49025103650000:   Unique Well ID
 DICO. A2D TECHNOLOGIES, INC.:   Digitizing Company
~OTHER INFORMATION
~A   DEPT      SPR       RILM        RILD        SGRD       CALD       RHOB      DCOR        GRD  
# ...
  736.5000   -45.2840     9.0440     8.6150    11.2060     8.4380     2.4750     0.0390    88.6490
  737.0000   -45.2330     9.0440     8.5830    11.1280     8.4330     2.4700     0.0390    89.4570
  737.5000   -45.1830     9.0440     8.5510    11.0500     8.4270     2.4640     0.0390    90.2310
  738.0000   -45.1300     9.5180     8.5190    10.9720     8.4220     2.4570     0.0390    91.0640
  738.5000   -45.0810    10.4830     8.4870    10.8940     8.4160     2.4510     0.0390    91.3780
  739.0000   -45.0490    10.3570     8.4560    10.9690     8.4110     2.4440     0.0390    90.5440
  739.5000   -45.1500    10.0250     8.4240    11.0870     8.4050     2.4380     0.0390    90.2550
  740.0000   -45.2380     9.6940     8.3920    11.2050     8.4000     2.4310     0.0360    91.1730
  740.5000   -45.3270     9.3620     8.3600    11.3240     8.3940     2.4250     0.0280    92.0740
  741.0000   -45.4280     9.0310     8.3280    11.4960     8.3890     2.4190     0.0210    92.9930
  741.5000   -45.4580     8.8240     8.2960    11.4630     8.3830     2.4130     0.0140    93.9380
  742.0000   -45.4890     8.7160     8.2650    11.4020     8.3800     2.4090     0.0060    94.8450
  742.5000   -45.5150     8.6470     8.2330    11.3410     8.3800     2.4110     0.0050    95.4960
  743.0000   -45.5440     8.5560     8.2010    11.2800     8.3800     2.4170     0.0090    94.4830
  743.5000   -45.5730     8.5560     8.1690    11.2180     8.3800     2.4230     0.0130    93.6430
  744.0000   -45.6010     8.5560     8.1370    11.1570     8.3800     2.4300     0.0160    92.6690
  744.5000   -45.6290     8.5560     8.1050    11.0960     8.3800     2.4540     0.0200    91.8080
  745.0000   -45.6580     8.5390     8.0950    11.0350     8.3800     2.4630     0.0240    90.9010
  745.5000   -45.6860     8.5240     8.0950    10.9740     8.3800     2.4700     0.0260    91.4940
  746.0000   -45.7140     8.5080     8.0950    10.9130     8.3800     2.4510     0.0210    92.1830
  746.5000   -45.7420     8.4920     8.0950    10.8510     8.3800     2.4330     0.0190    93.0310
  747.0000   -45.7720     8.4770     8.0950    10.7900     8.3820     2.4310     0.0150    92.6170
  747.5000   -45.7980     8.4610     8.0950    10.7290     8.3830     2.4430     0.0190    91.5430
  748.0000   -45.8300     8.4450     8.0950    10.6680     8.3840     2.4520     0.0230    90.4750
  748.5000   -45.8030     8.4290     8.0960    10.6070     8.3860     2.4620     0.0280    90.2110
  749.0000   -45.7660     8.4140     8.0960    10.5460     8.3870     2.4730     0.0310    90.9010
  749.5000   -45.7270     8.3980     8.0960    10.4850     8.3880     2.4760     0.0310    91.4870
  750.0000   -45.6900     8.3820     8.0960    10.4230     8.3900     2.4690     0.0310    92.1020
  750.5000   -45.6520     8.3670     8.0960    10.3620     8.3910     2.4640     0.0310    92.7390
  751.0000   -45.6140     8.3510     8.0950    10.3010     8.3920     2.4580     0.0310    93.0230
  751.5000   -45.5760     8.3350     8.0960    10.2390     8.3940     2.4510     0.0310    92.4120
  752.0000   -45.5380     8.3200     8.0950    10.1780     8.3950     2.4430     0.0310    91.6590
  752.5000   -45.5000     8.3040     8.0960    10.1180     8.3970     2.4340     0.0310    92.3630
  753.0000   -45.4610     8.2880     8.0960    10.0570     8.3980     2.4250     0.0310    93.0630
  753.5000   -45.4050     8.2730     8.0960     9.9950     8.3990     2.4160     0.0310    93.8800
  754.0000   -45.3130     8.2460     8.0960     9.9180     8.4010     2.4090     0.0310    90.9980
  754.5000   -45.2200     8.3290     8.0960    10.0540     8.4020     2.4140     0.0310    91.1240
  755.0000   -45.1260     8.5790     8.3100    10.4650     8.4030     2.4270     0.0320    91.4220
  755.5000   -45.0330     8.8300     8.5400    10.8770     8.4050     2.4390     0.0340    91.0130
  756.0000   -44.9410     9.0800     8.7710    11.0790     8.4060     2.4530     0.0370    89.3360
  756.5000   -44.8450     9.3300     9.0020    11.1600     8.4080     2.4820     0.0390    87.8330
  757.0000   -44.7560     9.5580     9.2120    11.2330     8.4090     2.4760     0.0420    86.2940
  757.5000   -44.6520     9.3290     9.2120    11.3450     8.4100     2.4590     0.0440    84.7020
  758.0000   -44.6440     9.1180     9.2120    11.6610     8.4120     2.4440     0.0470    83.6130
  758.5000   -44.6410     8.8780     9.2120    11.6320     8.4130     2.4300     0.0430    83.6240
  759.0000   -44.6440     8.5560     9.2120    11.3390     8.4140     2.4140     0.0380    83.5600
  759.5000   -44.6420     8.4000     9.2120    11.0450     8.4160     2.4000     0.0340    83.6890
  760.0000   -44.6430     8.4860     9.2120    10.7520     8.4170     2.3850     0.0290    82.6640
  760.5000   -44.6460    10.0810     9.2270    10.2910     8.4190     2.3700     0.0240    80.8430
  761.0000   -44.6340    12.4740     9.2920    10.3960     8.4200     2.3590     0.0190    80.7090
  761.5000   -44.7380    14.0160     9.3570    10.6430     8.4360     2.3480     0.0150    81.3890
  762.0000   -44.9450    12.4980     9.4220    10.8900     8.4540     2.3490     0.0160    81.9390
  762.5000   -45.1400    11.2860     9.4870    11.1370     8.4720     2.3740     0.0190    82.5140
  763.0000   -45.3340    10.9560     9.5520    11.3450     8.4930     2.4290     0.0220    83.0850
  763.5000   -45.5300    10.6820     9.6170    11.4960     8.4910     2.4630     0.0250    83.6690
  764.0000   -45.7340    10.4080     9.6830    11.6460     8.4690     2.4740     0.0270    84.2400
  764.5000   -45.8680    10.1030     9.7370    11.7100     8.4500     2.4800     0.0300    84.7600
  765.0000   -45.9210    10.2860     9.6910    11.7100     8.4300     2.4790     0.0310    86.3340
  765.5000   -45.9840    10.4830     9.6320    11.7100     8.4100     2.4740     0.0300    89.1890
  766.0000   -46.0450    10.4420     9.5730    11.8680     8.3880     2.4690     0.0290    90.6340
  766.5000   -46.1060    10.3240     9.5140    12.0040     8.3850     2.4650     0.0270    89.6840
  767.0000   -46.1670    10.2060     9.4550    12.1510     8.4000     2.4590     0.0260    88.4830
  767.5000   -46.2270    10.1030     9.3960    12.0240     8.4120     2.4500     0.0250    87.2720
  768.0000   -46.2500    10.1610     9.3370    11.8870     8.4240     2.4410     0.0240    86.1010
  768.5000   -46.2720    10.2130     9.2770    11.7100     8.4370     2.4330     0.0230    86.2230
  769.0000   -46.2920    10.2650     9.2120    11.7730     8.4490     2.4240     0.0250    86.4030
  769.5000   -46.3130    10.6020     9.2310    11.8640     8.4590     2.4150     0.0280    86.7160
  770.0000   -46.3340    11.2350     9.2700    11.9280     8.4500     2.4070     0.0290    86.4090
  770.5000   -46.3550    11.8680     9.3080    12.0760     8.4420     2.4000     0.0300    85.0770
  771.0000   -46.3760    12.8420     9.3470    12.2450     8.4330     2.3990     0.0210    84.1360
  771.5000   -46.3970    12.5340     9.3840    12.4130     8.4250     2.4060     0.0150    83.6540
  772.0000   -46.4170    11.8630     9.4580    12.6080     8.4170     2.4200     0.0120    82.9760
  772.5000   -46.4380    11.1920     9.5270    12.6700     8.4080     2.4340     0.0130    83.3030
  773.0000   -46.4590    10.6220     9.5970    12.7430     8.4000     2.4470     0.0160    84.4060
  773.5000   -46.4800    10.3820     9.6670    12.8170     8.3920     2.4580     0.0200    85.3840
  774.0000   -46.5010    10.2910     9.7370    12.8900     8.3830     2.4600     0.0230    86.3930
  774.5000   -46.5220    10.2910     9.8070    12.9640     8.3750     2.4620     0.0230    87.3980
  775.0000   -46.5430    10.2910     9.8770    13.0820     8.3670     2.4640     0.0240    88.3790
  775.5000   -46.5630    10.2910     9.9270    13.0550     8.3580     2.4660     0.0240    89.4920
  776.0000   -46.5850    10.2910     9.9480    12.9880     8.3500     2.4680     0.0240    89.7000
  776.5000   -46.6050    10.2910     9.9700    12.9210     8.3410     2.4700     0.0250    88.6890
