~VERSION INFORMATION
 VERS.                2.0:   CWLS LOG ASCII STANDARD - VERSION 2.0
 WRAP.                 NO:   ONE LINE PER DEPTH STEP
~WELL INFORMATION
#MNEM.UNIT      DATA TYPE    INFORMATION
#----------   ------------   ------------------------------
 STRT.F          198.0000:   START DEPTH
 STOP.F         3034.0000:   STOP DEPTH
 STEP.F            0.5000:   STEP LENGTH
 NULL.          -999.2500:   NO VALUE
 COMP.    FENIX & SCISSON:   COMPANY
 WELL.   FENIX "A" #44-29:   WELL
 FLD .              NPR-3:   FIELD
 LOC .      S29 T39N R78W:   LOCATION
 CNTY.            NATRONA:   COUNTY
 STAT.            WYOMING:   STATE
 CTRY. UNITED STATES OF AMERICA:   COUNTRY
 SRVC.              WELEX:   SERVICE COMPANY
 DATE.        26-MAY-1977:   LOGDATE
 API .     49025103690000:   API NUMBER
~CURVE INFORMATION
#MNEM.UNIT       API CODE    CURVE DESCRIPTION
#----------   ------------   ------------------------------
 DEPT.F                  :   
 SPR .MV     07 010 01 00:   SPONTANEOUS POTENTIAL
 ILD .OHMM   07 120 46 00:   DEEP INDUCTION RESISTIVITY
 ILM .OHMM   07 120 44 00:   INDUCTION LOG MEDIUM RESISTIVITY
 SGRD.OHMM   07 220 05 00:   SHALLOW SHORT GUARD RESISTIVITY
 CALD.IN     45 280 60 00:   CALIPER FROM DENSITY LOG
 GRD .GAPI   45 310 01 00:   GAMMA RAY FROM DENSITY LOG
 RHOB.G/C3   45 350 01 00:   BULK DENSITY
 CORR.G/C3   45 356 01 00:   DENSITY CORRECTION
~PARAMETER INFORMATION
#MNEM.UNIT          VALUE    DESCRIPTION
#----------   ------------   ------------------------------
 EKB .F         5010.0000:   Kelly bushing
 EGL .F         5000.0000:   Ground level
 EDF .F            0.0000:   Drilling floor
 TD  .F         3036.0000:   Total depth
 DATE.        26-MAY-1977:   Date logged
 CLNT.            A2DTECH:   Client Code
 SL  . 2310' FNL & 2310' FWL:   Surface Location
 PD  .                 GL:   Permanent Datum
 EPD .F              5000:   Elevation Permanent Datum
 LMF .                 KB:   Log Measured From
 DMF .                 KB:   Drilling Measured From
 DD  .F              3035:   Depth driller
 DL  .F              3036:   Depth logger
 BLI .F              3034:   Bottom log interval
 TLI .F               210:   Top log interval
 CS1 .IN            8.625:   Casing size
 CBD1.      8.625" @ 245':   Casing driller 1
 CBL1.F               220:   Casing logger 1
 BS1 .IN            7.875:   Bit size
 BSD1.F              3035:   Depth drilled with bit1
 DFT .            KCL MUD:   Type fluid in hole
 DFD .                8.8:   Density
 DFV .                 34:   Viscosity
 DFPH.                7.5:   pH
 DFL .                6.6:   Fluid loss
 MSS .           FLOWLINE:   Source of sample
 RMS .OHMM           0.20:   Rm
 MST .F                89:   Rm Meas. temp.
 RMF .OHMM           0.17:   Rmf
 MFST.F                89:   Rmf Meas. temp.
 RMC .OHMM           0.30:   Rmc
 MCST.F                89:   Rmc Meas. temp.
 MFSS.               FANN:   Source Rmf.
 MCSS.                KIT:   Source Rmc.
 RMB .OHMM           0.16:   Rm. at BHT
 BHT .F               110:   BHT.
 TCS .HRS             2.5:   Time Circ. stopped
 MRT .F               110:   Maximum recorded temp.
 LUN .               8611:   Logging unit number
 LUL .             CASPER:   Logging unit location
 ENGI.            C. DOAK:   Recorded By
 WITN.      B. HARRINGTON:   Witnessed by
 ORIG.           5" PRINT:   Origin of data
 UWI .     49025103690000:   Unique Well ID
 DICO. A2D TECHNOLOGIES, INC.:   Digitizing Company
~OTHER INFORMATION
~A   DEPT      SPR        ILD        ILM       SGRD       CALD         GRD      RHOB       CORR   
# ...
  562.5000   -29.4230     8.5040    13.8310    14.3380     9.4540    95.7820     2.4850     0.0320
  563.0000   -29.4530     8.6500    15.3240    21.2350     9.4470    90.6810     2.4900     0.0330
  563.5000   -29.4830     8.7960    14.9870    27.3290     9.4340    84.5970     2.4950     0.0350
  564.0000   -29.5130     8.9140    11.8240    19.5390     9.3870    78.5200     2.5000     0.0360
  564.5000   -29.5420     8.7470    10.3250    12.8710     9.3400    78.6680     2.4970     0.0370
  565.0000   -29.5710     8.6070    10.3250    12.9210     9.2930    83.0510     2.4900     0.0380
  565.5000   -29.6010     8.4670    10.3250    13.1090     9.2450    87.6380     2.4820     0.0400
  566.0000   -29.6300     8.3260    10.3250    12.9820     9.2240    92.8130     2.4740     0.0390
  566.5000   -29.6600     8.1860    10.3250    12.7530     9.2480    99.1460     2.4700     0.0370
  567.0000   -29.6890     8.0460    10.2590    12.7530     9.2780   104.6800     2.4680     0.0360
  567.5000   -29.7190     7.9400    10.1370    12.7530     9.3060   108.7400     2.4670     0.0350
  568.0000   -29.7480     7.8610    10.3250    12.6910     9.3130   112.8500     2.4650     0.0340
  568.5000   -29.7800     7.7820    10.2240    12.5190     9.3200   113.6350     2.4640     0.0330
  569.0000   -29.7180     7.7030    10.1370    12.2930     9.3290   110.7330     2.4600     0.0320
  569.5000   -29.6310     7.6240    10.1370    12.2930     9.3390   108.1380     2.4500     0.0220
  570.0000   -29.5420     7.5560    10.1330    12.4760     9.3490   107.8140     2.4410     0.0160
  570.5000   -29.4530     7.5520    10.1270    12.4070     9.3590   107.0940     2.4350     0.0120
  571.0000   -29.3650     7.5480    10.1210    12.5440     9.3690   104.8310     2.4420     0.0130
  571.5000   -29.2770     7.5440    10.1160    12.8010     9.3790   102.5770     2.4490     0.0140
  572.0000   -29.2070     7.5400    10.1100    12.8710     9.3880   101.0500     2.4500     0.0160
  572.5000   -29.2630     7.5360    10.1040    12.6930     9.3980   100.7540     2.4480     0.0170
  573.0000   -29.3210     7.5320    10.0980    12.5590     9.4080   100.4280     2.4450     0.0190
  573.5000   -29.3780     7.5280    10.0920    12.4960     9.4180   100.1120     2.4430     0.0200
  574.0000   -29.4350     7.5240    10.0870    12.4600     9.4280    98.5870     2.4460     0.0220
  574.5000   -29.4920     7.5200    10.0810    12.4240     9.4380    96.3020     2.4490     0.0240
  575.0000   -29.5500     7.5160    10.0750    12.2520     9.4480    94.9600     2.4480     0.0250
  575.5000   -29.6070     7.5120    10.0690    11.9440     9.4580    95.5060     2.4430     0.0260
  576.0000   -29.6640     7.5080    10.0640    11.8500     9.4610    96.6410     2.4390     0.0260
  576.5000   -29.7210     7.5040    10.0580    12.1210     9.4600    97.7790     2.4380     0.0270
  577.0000   -29.7790     7.5000    10.0520    12.5210     9.4580    98.9090     2.4370     0.0270
  577.5000   -29.8810     7.4960    10.0450    12.4170     9.4570    99.2370     2.4370     0.0280
  578.0000   -29.9890     7.4920    10.0780    12.2650     9.4560    98.3330     2.4430     0.0280
  578.5000   -30.0970     7.4880    10.1260    12.1130     9.4550    97.4400     2.4450     0.0260
  579.0000   -30.2050     7.4780    10.1750    11.9610     9.4540    96.5410     2.4380     0.0240
  579.5000   -30.3130     7.4680    10.2240    11.8500     9.4520    95.6810     2.4310     0.0230
  580.0000   -30.4210     7.4580    10.6480    12.0690     9.4510    95.6220     2.4250     0.0200
  580.5000   -30.5330     7.4480    10.9100    11.9500     9.4500    96.6530     2.4250     0.0180
  581.0000   -30.5780     7.4380    10.3970    11.7700     9.4490    97.8480     2.4290     0.0180
  581.5000   -30.5970     7.4280    10.1370    11.6200     9.4480    99.0560     2.4320     0.0190
  582.0000   -30.6160     7.4170    10.1430    11.5610     9.4470   100.2490     2.4370     0.0200
  582.5000   -30.6340     7.4070    10.1570    11.5280     9.4450   101.1660     2.4420     0.0210
  583.0000   -30.6530     7.3970    10.1710    11.8310     9.4440   100.9270     2.4480     0.0210
  583.5000   -30.6710     7.3870    10.1840    12.1810     9.4430   100.7230     2.4530     0.0210
  584.0000   -30.6900     7.3770    10.1980    12.0470     9.4420   100.5270     2.4440     0.0180
  584.5000   -30.7080     7.3670    10.2120    11.7420     9.4360   101.5460     2.4350     0.0160
  585.0000   -30.7270     7.3510    10.2290    11.7420     9.4300   104.1840     2.4260     0.0140
  585.5000   -30.7450     7.3720    10.1600    12.0240     9.4240   106.7850     2.4260     0.0140
  586.0000   -30.7640     7.4210    10.0460    12.3020     9.4170   108.7370     2.4310     0.0140
  586.5000   -30.7820     7.4710     9.9330    12.5210     9.4110   106.8770     2.4270     0.0130
  587.0000   -30.8010     7.5200     9.8190    12.5210     9.4050   104.0270     2.4290     0.0130
  587.5000   -30.8190     7.5700     9.6820    12.5210     9.3990   103.7490     2.4380     0.0120
  588.0000   -30.8380     7.6200     9.8030    12.6370     9.3930   106.2440     2.4460     0.0110
  588.5000   -30.8560     7.6690     9.9550    12.9290     9.3870   108.7240     2.4540     0.0110
  589.0000   -30.8750     7.7190    10.1070    13.1090     9.3810   109.3740     2.4530     0.0100
  589.5000   -30.8930     7.7680    10.2310    12.7530     9.3750   108.0880     2.4490     0.0090
  590.0000   -30.9120     7.8180     9.9820    12.9220     9.3690   106.4240     2.4460     0.0090
  590.5000   -30.9300     7.8390     9.6650    13.1090     9.3630   105.0200     2.4480     0.0080
  591.0000   -30.9490     7.8390     9.5940    12.7530     9.3570   103.6350     2.4510     0.0100
  591.5000   -30.9500     7.8390    10.1370    13.8520     9.3510   102.3740     2.4540     0.0120
  592.0000   -30.9310     7.8390     9.9940    13.2810     9.3450   102.4310     2.4570     0.0150
  592.5000   -30.9130     7.8390     9.6010    12.6370     9.3410   104.1980     2.4570     0.0170
  593.0000   -30.8940     7.8390     9.5060    12.7530     9.3370   105.9450     2.4490     0.0190
  593.5000   -30.8750     7.8390     9.5430    12.6550     9.3330   107.6650     2.4420     0.0220
  594.0000   -30.8570     7.8390     9.7850    12.0120     9.3290   107.9270     2.4350     0.0240
  594.5000   -30.8380     7.8380    10.0260    11.8500     9.3250   105.9540     2.4270     0.0270
  595.0000   -30.8190     7.9130    10.1370    12.6480     9.3210   103.1260     2.4200     0.0270
  595.5000   -30.8000     7.9910    10.1370    13.1350     9.3170   100.2910     2.4120     0.0240
  596.0000   -30.7820     8.0690    10.1370    13.2100     9.3130    98.4820     2.4080     0.0140
  596.5000   -30.7630     8.1470    10.1370    13.4360     9.3100   100.5510     2.4170     0.0120
  597.0000   -30.7440     8.2250    10.1370    13.7170     9.3060   102.5430     2.4360     0.0140
  597.5000   -30.7260     8.3040    10.1370    13.8520     9.3060   104.3460     2.4550     0.0220
  598.0000   -30.7070     8.3820     9.8390    13.6350     9.3100   103.0760     2.4650     0.0280
  598.5000   -30.6880     8.4600     9.6820    13.4420     9.3130   101.2570     2.4600     0.0270
  599.0000   -30.6690     8.5140     9.6550    13.2300     9.3170    99.6050     2.4650     0.0260
  599.5000   -30.6510     8.4370     9.6260    13.2300     9.3210    99.1260     2.4720     0.0270
  600.0000   -30.6320     8.3780     9.5940    13.2950     9.3250    98.7580     2.4770     0.0260
  600.5000   -30.6130     8.3190     9.5230    13.3530     9.3290   101.1820     2.4670     0.0210
  601.0000   -30.5950     8.2600     9.4210    13.4110     9.3330   104.5100     2.4560     0.0150
  601.5000   -30.5760     8.2000     9.3200    13.4690     9.3370   107.4620     2.4440     0.0120
  602.0000   -30.5790     8.1410     9.2480    13.4750     9.3410   106.6060     2.4320     0.0090
  602.5000   -30.6040     8.0820     9.1110    12.6600     9.3470   105.5210     2.4210     0.0050
