~VERSION INFORMATION
 VERS.                2.0:   CWLS LOG ASCII STANDARD - VERSION 2.0
 WRAP.                 NO:   ONE LINE PER DEPTH STEP
~WELL INFORMATION
#MNEM.UNIT      DATA TYPE    INFORMATION
#----------   ------------   ------------------------------
 STRT.F          594.5000:   START DEPTH
 STOP.F         3015.5000:   STOP DEPTH
 STEP.F            0.5000:   STEP LENGTH
 NULL.          -999.2500:   NO VALUE
 COMP.    FENIX & SCISSON:   COMPANY
 WELL.  FENIX "AX" #35-34:   WELL
 FLD .             NPR #3:   FIELD
 LOC .      S34 T39N R78W:   LOCATION
 CNTY.            NATRONA:   COUNTY
 STAT.            WYOMING:   STATE
 CTRY. UNITED STATES OF AMERICA:   COUNTRY
 SRVC.       SCHLUMBERGER:   SERVICE COMPANY
 DATE.        14-APR-1977:   LOGDATE
 API .     49025103390000:   API NUMBER
~CURVE INFORMATION
#MNEM.UNIT       API CODE    CURVE DESCRIPTION
#----------   ------------   ------------------------------
 DEPT.F                  :   
 CALD.IN     45 280 60 00:   CALIPER FROM DENSITY LOG
 RHOB.G/C3   45 350 01 00:   BULK DENSITY
 DRHO.G/C3   45 356 01 00:   DENSITY CORRECTION
 SPR .MV     07 010 01 00:   SPONTANEOUS POTENTIAL
 RILM.OHMM   07 120 44 00:   INDUCTION LOG MEDIUM RESISTIVITY
 RILD.OHMM   07 120 46 00:   DEEP INDUCTION RESISTIVITY
 LL8 .OHMM   07 220 08 00:   LATEROLOG-8 RES.
 GRD .GAPI   45 310 01 00:   GAMMA RAY FROM DENSITY LOG
~PARAMETER INFORMATION
#MNEM.UNIT          VALUE    DESCRIPTION
#----------   ------------   ------------------------------
 EKB .F         5116.0000:   Kelly bushing
 EGL .F         5104.0000:   Ground level
 EDF .F            0.0000:   Drilling floor
 TD  .F         3017.0000:   Total depth
 DATE.        14-APR-1977:   Date logged
 CLNT.            A2DTECH:   Client Code
 SL  . 2311' FSL & 1550' FWL:   Surface Location
 PD  .                 GL:   Permanent Datum
 EPD .F              5104:   Elevation Permanent Datum
 LMF .                 KB:   Log Measured From
 DMF .                 KB:   Drilling Measured From
 DAPD.F                12:   Feet Above Permanent Datum
 DD  .F              3012:   Depth driller
 DL  .F              3017:   Depth logger
 BLI .F              3011:   Bottom log interval
 TLI .F               600:   Top log interval
 CS1 .IN            8.625:   Casing size
 CBD1.      8.625" @ 601':   Casing driller 1
 CBL1.F               600:   Casing logger 1
 BS1 .IN            7.875:   Bit size
 BSD1.F              3012:   Depth drilled with bit1
 DFT .                FGM:   Type fluid in hole
 DFD .                9.2:   Density
 DFV .                 29:   Viscosity
 MSS .           FLOWLINE:   Source of sample
 RMS .OHMM          0.206:   Rm
 MST .F                60:   Rm Meas. temp.
 RMF .OHMM          0.192:   Rmf
 MFST.F                60:   Rmf Meas. temp.
 MFSS.               MEAS:   Source Rmf.
 RMB .OHMM          0.109:   Rm. at BHT
 BHT .F               113:   BHT.
 TLAB.HRS            0200:   Time logger at bottom
 MRT .F               113:   Maximum recorded temp.
 LUN .               7711:   Logging unit number
 LUL .               CSPR:   Logging unit location
 ENGI.             GEIGER:   Recorded By
 WITN.         PETTINGILL:   Witnessed by
 ORIG.           5" PRINT:   Origin of data
 UWI .     49025103390000:   Unique Well ID
 DICO. A2D TECHNOLOGIES, INC.:   Digitizing Company
~OTHER INFORMATION
~A   DEPT     CALD       RHOB       DRHO        SPR       RILM       RILD        LL8         GRD  
# ...
  918.5000     9.7620     2.5260     0.0120   -80.3130    10.9100     9.0410    11.4220   105.8000
  919.0000     9.7390     2.5220     0.0110   -80.5580    11.0030     8.8590    11.5840   104.0670
  919.5000     9.7210     2.5200     0.0170   -80.8620    11.1460     9.3770    11.7750   102.2370
  920.0000     9.7320     2.5320     0.0120   -81.2060    11.2890    10.0150    11.9660   100.7240
  920.5000     9.7410     2.5270     0.0170   -81.6780    11.4320    10.3680    12.1570    99.4310
  921.0000     9.7700     2.5410     0.0250   -82.1470    11.5750    10.5760    12.3480    98.1700
  921.5000     9.8020     2.5470     0.0180   -82.6130    11.7180    10.8100    12.5390    98.7260
  922.0000     9.8330     2.5270     0.0110   -82.8810    11.8500    10.6590    12.7370    99.6170
  922.5000     9.8160     2.5270     0.0130   -83.1200    11.8030    10.4360    12.6410    97.4690
  923.0000     9.7550     2.5250     0.0130   -83.3590    11.7060    10.2310    12.5120    95.8190
  923.5000     9.6940     2.5180     0.0070   -83.5990    11.6080    10.4750    12.3840    94.5970
  924.0000     9.6320     2.5110     0.0020   -83.8320    11.5110    10.7520    12.2530    93.3910
  924.5000     9.6290     2.5210     0.0050   -83.6650    11.4220    11.1120    12.1130    92.6200
  925.0000     9.6370     2.5250     0.0130   -83.4450    11.3040    11.0370    11.9590    92.1080
  925.5000     9.6640     2.5150     0.0150   -83.2190    11.1960    10.8860    11.7590    92.7830
  926.0000     9.6990     2.5330     0.0320   -82.9230    11.0880    10.7350    11.5380    95.0670
  926.5000     9.6920     2.5630     0.0480   -82.3910    10.9790    10.5840    11.3160    97.6260
  927.0000     9.6840     2.5560     0.0540   -81.8730    10.8710    10.4200    11.0940    98.6510
  927.5000     9.6150     2.5410     0.0350   -81.3540    10.7110    10.4160    10.8100    99.3150
  928.0000     9.5350     2.5290     0.0220   -80.8280    10.7310    10.4100    10.8930    99.9520
  928.5000     9.4550     2.5170     0.0150   -80.5150    10.7690    10.4040    11.0080   101.0920
  929.0000     9.3740     2.5030     0.0080   -80.2060    10.8070    10.3980    11.1230   100.7770
  929.5000     9.3290     2.5060     0.0040   -79.8260    10.8450    10.3920    11.2380   100.7510
  930.0000     9.3050     2.4980     0.0090   -80.1490    10.8830    10.3860    11.3530   102.5320
  930.5000     9.2820     2.5110     0.0130   -80.7600    10.9210    10.3800    11.4680   104.3890
  931.0000     9.2620     2.5190     0.0100   -80.5340    10.9590    10.3740    11.6340   105.2670
  931.5000     9.2560     2.5270     0.0130   -80.2940    10.9970    10.3680    11.6050   101.1600
  932.0000     9.2500     2.5210     0.0140   -80.7480    11.0350    10.3620    11.5530    98.5930
  932.5000     9.2440     2.5110     0.0110   -81.3410    11.0730    10.3570    11.5000    99.5690
  933.0000     9.2380     2.5070     0.0100   -81.9410    11.1120    10.3510    11.4470   103.0540
  933.5000     9.2320     2.5200     0.0150   -82.3720    11.0970    10.3450    11.3950   107.1620
  934.0000     9.2260     2.5130     0.0150   -82.7520    11.0810    10.3390    11.3420   108.3000
  934.5000     9.2200     2.5200     0.0210   -83.0900    11.0650    10.3330    11.2890   103.0000
  935.0000     9.2140     2.5090     0.0160   -83.1380    11.0490    10.3270    11.2150    97.8590
  935.5000     9.2070     2.5150     0.0190   -83.1960    11.0330    10.3210    11.2580    98.4840
  936.0000     9.2010     2.5430     0.0270   -83.2610    11.0170    10.3150    11.3340   100.8390
  936.5000     9.1950     2.5360     0.0220   -83.0980    11.0020    10.3090    11.4090   102.3580
  937.0000     9.1890     2.5320     0.0160   -82.8880    10.9860    10.3030    11.4840   100.5620
  937.5000     9.1840     2.5340     0.0100   -82.6660    10.9700    10.2970    11.5590   101.6000
  938.0000     9.1800     2.5270     0.0090   -82.2070    10.9540    10.2910    11.6340   104.8040
  938.5000     9.1770     2.5270     0.0200   -81.7380    10.9380    10.2850    11.5830   105.8240
  939.0000     9.1740     2.5390     0.0180   -81.2680    10.9220    10.2790    11.5330   104.2520
  939.5000     9.1700     2.5460     0.0230   -80.9550    10.9070    10.2730    11.4820   102.0850
  940.0000     9.1670     2.5520     0.0290   -80.7320    10.8950    10.2670    11.4320    99.8350
  940.5000     9.1660     2.5470     0.0220   -80.5100    10.8840    10.2610    11.4040    98.8470
  941.0000     9.1720     2.5340     0.0190   -80.3090    10.8720    10.2550    11.3810   102.6330
  941.5000     9.1780     2.5440     0.0270   -80.5000    10.8600    10.2490    11.3580   104.5470
  942.0000     9.1840     2.5320     0.0200   -80.7030    10.8480    10.2430    11.3350   102.5620
  942.5000     9.1900     2.5220     0.0170   -80.8750    10.8360    10.2370    11.3180   101.6260
  943.0000     9.1960     2.5360     0.0210   -80.5790    10.8240    10.2320    11.2990   103.0160
  943.5000     9.2020     2.5290     0.0190   -80.3280    10.8120    10.2170    11.2800   104.3620
  944.0000     9.2080     2.5330     0.0250   -80.9850    10.8000    10.2010    11.2610   102.2860
  944.5000     9.2140     2.5240     0.0210   -81.6540    10.7880    10.1860    11.2420   101.3330
  945.0000     9.2200     2.5290     0.0300   -82.2760    10.7760    10.1700    11.2230   101.8230
  945.5000     9.2260     2.5480     0.0370   -82.5410    10.7650    10.1540    11.2050   102.2870
  946.0000     9.2320     2.5390     0.0310   -82.7970    10.7530    10.1380    11.1860   105.3490
  946.5000     9.2370     2.5200     0.0200   -82.9330    10.7410    10.1220    11.1670   107.3330
  947.0000     9.2430     2.5210     0.0150   -83.0300    10.7290    10.1060    11.1480   105.5810
  947.5000     9.2440     2.5170     0.0110   -83.1230    10.7170    10.0910    11.1290   102.8150
  948.0000     9.2440     2.5100     0.0080   -83.2170    10.7050    10.0750    11.1110    99.9810
  948.5000     9.2320     2.5220     0.0170   -83.1370    10.6930    10.0590    11.0740   100.5890
  949.0000     9.2160     2.5260     0.0150   -82.8710    10.6810    10.0430    11.0390    98.8720
  949.5000     9.2170     2.5310     0.0150   -82.6070    10.6690    10.0270    11.0040    97.2810
  950.0000     9.2710     2.5510     0.0280   -82.0890    10.6570    10.0110    10.9690    97.7530
  950.5000     9.2780     2.5440     0.0240   -81.2940    10.6450     9.9950    10.9340    98.6640
  951.0000     9.2710     2.5430     0.0160   -81.1340    10.6340     9.9800    10.9050    98.1430
  951.5000     9.2640     2.5370     0.0160   -81.2060    10.6140     9.9640    10.8880    97.2040
  952.0000     9.2640     2.5300     0.0200   -81.2760    10.6150     9.9280    10.8720    98.6370
  952.5000     9.2680     2.5400     0.0220   -80.6640    10.4930     9.8460    10.8550   100.7960
  953.0000     9.2990     2.5380     0.0170   -79.9820    10.3840     9.7630    10.8380   101.1470
  953.5000     9.3310     2.5300     0.0240   -79.5260    10.2740     9.6810    10.8220    99.8540
  954.0000     9.3620     2.5200     0.0200   -79.6510    10.1650     9.5980    10.7670    97.8860
  954.5000     9.3710     2.5330     0.0210   -79.7610    10.0440     9.5160    10.6230    99.5980
  955.0000     9.3280     2.5280     0.0220   -79.8680     9.9630     9.4340    10.4780   101.1490
  955.5000     9.3690     2.5220     0.0240   -80.0990     9.8720     9.3510    10.3340   102.6690
  956.0000     9.4200     2.5120     0.0240   -80.3720     9.7820     9.2690    10.1900   103.4790
  956.5000     9.4390     2.5000     0.0170   -80.6450     9.6820     9.1870    10.0460   101.0330
  957.0000     9.4320     2.5000     0.0120   -80.9190     9.6710     9.0790     9.9010   101.1100
  957.5000     9.4210     2.5130     0.0200   -81.1940     9.6580     9.0830     9.7720   102.3110
  958.0000     9.5060     2.5340     0.0360   -81.4780     9.6460     9.0900     9.7890   102.3460
  958.5000     9.4870     2.5490     0.0410   -81.7170     9.6330     9.0970     9.8040   101.5360
