~VERSION INFORMATION
 VERS.                2.0:   CWLS LOG ASCII STANDARD - VERSION 2.0
 WRAP.                 NO:   ONE LINE PER DEPTH STEP
~WELL INFORMATION
#MNEM.UNIT      DATA TYPE    INFORMATION
#----------   ------------   ------------------------------
 STRT.F          210.0000:   START DEPTH
 STOP.F         2955.0000:   STOP DEPTH
 STEP.F            0.5000:   STEP LENGTH
 NULL.          -999.2500:   NO VALUE
 COMP.    FENIX & SCISSON:   COMPANY
 WELL.     FENIX A #54-28:   WELL
 FLD .                NPR:   FIELD
 LOC .      S28 T39N R78W:   LOCATION
 CNTY.            NATRONA:   COUNTY
 STAT.            WYOMING:   STATE
 CTRY. UNITED STATES OF AMERICA:   COUNTRY
 SRVC.              WELEX:   SERVICE COMPANY
 DATE.        17-MAY-1977:   LOGDATE
 API .     49025103650000:   API NUMBER
~CURVE INFORMATION
#MNEM.UNIT       API CODE    CURVE DESCRIPTION
#----------   ------------   ------------------------------
 DEPT.F                  :   
 SPR .MV     07 010 01 00:   SPONTANEOUS POTENTIAL
 RILM.OHMM   07 120 44 00:   INDUCTION LOG MEDIUM RESISTIVITY
 RILD.OHMM   07 120 46 00:   INDUCTION LOG DEEP RESISTIVITY
 SGRD.OHMM   07 220 05 00:   SHALLOW GUARD LOG RESISTIVITY
 CALD.IN     45 280 60 00:   CALIPER FROM DENSITY LOG
 RHOB.G/C3   45 350 01 00:   BULK DENSITY
 DCOR.G/C3   45 356 01 00:   DENSITY CORRECTION
 GRD .GAPI   45 310 01 00:   GAMMA RAY FROM DENSITY LOG
~PARAMETER INFORMATION
#MNEM.UNIT          VALUE    DESCRIPTION
#----------   ------------   ------------------------------
 EKB .F         5045.0000:   Kelly bushing
 EGL .F         5035.0000:   Ground level
 EDF .F            0.0000:   Drilling floor
 EPD .F         5035.0000:   Permanent datum
 TD  .F         2956.0000:   Total depth
 DATE.        17-MAY-1977:   Date logged
 CLNT.            A2DTECH:   Client Code
 SL  . 2310' FNL & 2310' FEL:   Surface Location
 PD  .                 GL:   Permanent Datum
 LMF .                 KB:   Log Measured From
 DMF .                 KB:   Drilling Measured From
 DAPD.F                10:   Feet Above Permanent Datum
 DD  .F              2947:   Depth driller
 DL  .F              2956:   Depth logger
 BLI .F              2954:   Bottom log interval
 TLI .F               210:   Top log interval
 CS1 .IN            8.625:   Casing size
 CBD1.      8.625" @ 200':   Casing driller 1
 CBL1.F               216:   Casing logger 1
 BS1 .IN            7.875:   Bit size
 BSD1.F              2947:   Depth drilled with bit1
 DFT .            KCL MUD:   Type fluid in hole
 DFD .                  9:   Density
 DFV .                 32:   Viscosity
 DFPH.                7.5:   pH
 DFL .                5.3:   Fluid loss
 MSS .           FLOWLINE:   Source of sample
 RMS .OHMM            .18:   Rm
 MST .F                84:   Rm Meas. temp.
 RMF .OHMM            .16:   Rmf
 MFST.F                84:   Rmf Meas. temp.
 RMC .OHMM            .62:   Rmc
 MCST.F                84:   Rmc Meas. temp.
 RMB .OHMM            .12:   Rm. at BHT
 BHT .F               124:   BHT.
 TCS .HRS               2:   Time Circ. stopped
 MRT .F               124:   Maximum recorded temp.
 LUN .               9685:   Logging unit number
 LUL .           BRIGHTON:   Logging unit location
 ENGI.           T JOYNER:   Recorded By
 WITN.      W. PETTINGILL:   Witnessed by
 ORIG.           5" PRINT:   Origin of data
 UWI .     49025103650000:   Unique Well ID
 DICO. A2D TECHNOLOGIES, INC.:   Digitizing Company
~OTHER INFORMATION
~A   DEPT      SPR       RILM        RILD        SGRD       CALD       RHOB      DCOR        GRD  
# ...
 1303.5000   -46.1250     8.9140     7.0150    10.1400     8.1210     2.4800     0.0140   100.4630
 1304.0000   -46.1130     8.9770     7.0230    10.1030     8.1290     2.4860     0.0150   101.5440
 1304.5000   -46.1000     9.0440     7.0310    10.0840     8.1360     2.4920     0.0170   102.6530
 1305.0000   -46.0880     8.9900     7.0390    10.0680     8.1440     2.4980     0.0180   101.1020
 1305.5000   -46.0760     8.9320     7.0470    10.0510     8.1520     2.5000     0.0200    99.3520
 1306.0000   -46.0630     8.8740     7.0550    10.0350     8.1590     2.4880     0.0210    97.5280
 1306.5000   -46.0510     8.8160     7.0630    10.0190     8.1670     2.4930     0.0220    95.6300
 1307.0000   -46.0380     8.7570     7.0710    10.0020     8.1750     2.4950     0.0240    94.9180
 1307.5000   -46.0260     8.5560     7.0780     9.9860     8.1780     2.4950     0.0250    95.4970
 1308.0000   -46.0130     8.6690     7.0860     9.9700     8.1690     2.4940     0.0270    95.8820
 1308.5000   -46.0010     8.7970     7.0940     9.9530     8.1610     2.4930     0.0270    96.3370
 1309.0000   -45.9880     8.9260     7.1020     9.9380     8.1530     2.4910     0.0250    95.8320
 1309.5000   -45.9760     9.0540     7.1100     9.9200     8.1450     2.4900     0.0250    95.1740
 1310.0000   -45.9630     9.1820     7.1210     9.9430     8.1360     2.4830     0.0230    94.3530
 1310.5000   -45.9510     9.3840     7.1360     9.9710     8.1280     2.4740     0.0240    93.3690
 1311.0000   -45.9390     9.3760     7.1500    10.0000     8.1200     2.4720     0.0250    92.3730
 1311.5000   -45.9260     9.3590     7.1650    10.0280     8.1120     2.4790     0.0270    91.3960
 1312.0000   -45.9140     9.3420     7.1800    10.0570     8.1030     2.4860     0.0280    90.3720
 1312.5000   -45.9010     9.3250     7.1950    10.0870     8.1000     2.4920     0.0290    89.4200
 1313.0000   -45.8890     9.3080     7.2090    10.1040     8.1000     2.4980     0.0310    88.5080
 1313.5000   -45.8760     9.2910     7.2240    10.1030     8.1000     2.5020     0.0300    89.3050
 1314.0000   -45.8640     9.2740     7.2390    10.1020     8.1000     2.5020     0.0270    90.1580
 1314.5000   -45.8520     9.2570     7.2540    10.1030     8.1000     2.4950     0.0240    91.0840
 1315.0000   -45.8380     9.2400     7.2680    10.1030     8.1000     2.4900     0.0210    91.9620
 1315.5000   -45.8370     9.2120     7.2830    10.1030     8.1000     2.4840     0.0180    92.8490
 1316.0000   -45.8460     9.2670     7.2980    10.1460     8.1000     2.4850     0.0150    93.7640
 1316.5000   -45.8540     9.4240     7.3120    10.2060     8.1000     2.4910     0.0150    94.6250
 1317.0000   -45.8620     9.5810     7.3270    10.2640     8.1000     2.4960     0.0160    95.5300
 1317.5000   -45.8700     9.7390     7.3420    10.3230     8.1000     2.4990     0.0160    95.4600
 1318.0000   -45.8780     9.8960     7.3570    10.3820     8.1000     2.4930     0.0160    95.3370
 1318.5000   -45.8860    10.0540     7.3810    10.4410     8.1000     2.4880     0.0170    95.1790
 1319.0000   -45.8940    10.2910     7.3740    10.4830     8.1000     2.4820     0.0170    95.0470
 1319.5000   -45.9020    10.0280     7.3410    10.3170     8.1000     2.4850     0.0170    94.8920
 1320.0000   -45.9100     9.4930     7.3090    10.1320     8.1000     2.4870     0.0180    94.9130
 1320.5000   -45.9180     9.1890     7.2780     9.9470     8.1000     2.4900     0.0180    95.3130
 1321.0000   -45.9270     9.1400     7.2460     9.7370     8.1000     2.4860     0.0180    95.7070
 1321.5000   -45.9350     9.0910     7.2140     9.7890     8.1000     2.4810     0.0190    96.0950
 1322.0000   -45.9430     9.0430     7.1830     9.8490     8.1000     2.4870     0.0190    96.5040
 1322.5000   -45.9510     8.9940     7.1520     9.9100     8.1000     2.4990     0.0210    96.9130
 1323.0000   -45.9590     8.9450     7.1150     9.9700     8.1000     2.5110     0.0230    96.8520
 1323.5000   -45.9670     8.8970     7.0870    10.0310     8.1000     2.5160     0.0240    95.4500
 1324.0000   -45.9750     8.8470     7.0520    10.1030     8.1000     2.5210     0.0260    93.9570
 1324.5000   -45.9830     8.7970     7.0180     9.9030     8.1000     2.5260     0.0280    93.1400
 1325.0000   -45.9910     8.7470     6.9840     9.6570     8.1000     2.5280     0.0300    93.2030
 1325.5000   -45.9990     8.6980     6.9500     9.4120     8.1020     2.5190     0.0300    93.2080
 1326.0000   -46.0070     8.6480     6.9160     9.2120     8.1050     2.5120     0.0280    93.3440
 1326.5000   -46.0150     8.5980     6.8820     9.2390     8.1080     2.5050     0.0250    95.0800
 1327.0000   -46.0230     8.5560     6.8490     9.2610     8.1110     2.4970     0.0230    96.5150
 1327.5000   -46.0310     8.5560     6.8150     9.2830     8.1140     2.4900     0.0200    98.2130
 1328.0000   -46.0390     8.5560     6.7810     9.3060     8.1170     2.4820     0.0180    98.3540
 1328.5000   -46.0480     8.5560     6.7310     9.3280     8.1200     2.4760     0.0150    97.2460
 1329.0000   -46.0560     8.5240     6.7360     9.3510     8.1230     2.4720     0.0130    96.1610
 1329.5000   -46.0640     8.4650     6.7470     9.3730     8.1260     2.4670     0.0110    96.1410
 1330.0000   -46.0720     8.4060     6.7570     9.3850     8.1290     2.4620     0.0120    98.2940
 1330.5000   -46.0800     8.3460     6.7670     9.3790     8.1310     2.4620     0.0130    97.3940
 1331.0000   -46.0880     8.2860     6.7770     9.3640     8.1350     2.4730     0.0140    95.4450
 1331.5000   -46.0960     8.2450     6.7870     9.3490     8.1370     2.4820     0.0150    93.4270
 1332.0000   -46.1040     8.2840     6.7970     9.3330     8.1390     2.4910     0.0160    95.1220
 1332.5000   -46.1120     8.3260     6.8070     9.3180     8.1320     2.5020     0.0170    97.1940
 1333.0000   -46.1200     8.3690     6.8170     9.3030     8.1240     2.5030     0.0180    99.3720
 1333.5000   -46.1280     8.4000     6.8270     9.2880     8.1160     2.4940     0.0180   101.4680
 1334.0000   -46.1360     8.4000     6.8370     9.2720     8.1090     2.4870     0.0190   103.6610
 1334.5000   -46.1440     8.4000     6.8460     9.2570     8.1010     2.4790     0.0180   104.8090
 1335.0000   -46.1520     8.3590     6.8550     9.2420     8.0940     2.4830     0.0170   103.3420
 1335.5000   -46.1600     8.2660     6.8190     9.2270     8.0860     2.4880     0.0160   101.9390
 1336.0000   -46.1690     8.1740     6.7840     9.2120     8.0780     2.4940     0.0150   100.4780
 1336.5000   -46.1770     8.0810     6.7490     9.1080     8.0710     2.4970     0.0160    99.0020
 1337.0000   -46.1850     7.9880     6.7140     9.0060     8.0630     2.4940     0.0170    97.5560
 1337.5000   -46.1930     7.8960     6.6780     8.9050     8.0630     2.4920     0.0180    96.4990
 1338.0000   -46.2010     7.8020     6.6430     8.8030     8.0690     2.4900     0.0190    97.3670
 1338.5000   -46.2090     7.8450     6.6070     8.7010     8.0750     2.4900     0.0200    98.0750
 1339.0000   -46.2170     7.9190     6.5720     8.5560     8.0810     2.4900     0.0210    98.8840
 1339.5000   -46.2260     7.9920     6.5370     8.5950     8.0860     2.4900     0.0210    99.6310
 1340.0000   -46.2310     8.0660     6.5010     8.6610     8.0920     2.4900     0.0220   100.4280
 1340.5000   -46.2300     8.1390     6.4660     8.7270     8.0980     2.4980     0.0230   101.1670
 1341.0000   -46.2300     8.2460     6.4310     8.7940     8.1040     2.5060     0.0280   101.9170
 1341.5000   -46.2300     8.1650     6.3950     8.8780     8.1090     2.5140     0.0320   101.3650
 1342.0000   -46.2300     8.0150     6.3600     8.7920     8.1150     2.5230     0.0360   100.7270
 1342.5000   -46.2300     7.8650     6.3250     8.5310     8.1210     2.5250     0.0410   100.0520
 1343.0000   -46.2300     7.7140     6.2890     8.2460     8.1260     2.5220     0.0430    99.3780
 1343.5000   -46.2300     7.5190     6.2540     8.2460     8.1320     2.5190     0.0420    98.7520
